,ID,train,path,eva_nr,category,name,state,city,zip,long,lat,arrival_plan,departure_plan,arrival_change,departure_change,arrival_delay_m,depature_delay_m,info
0,-1251565744844871983-2407090236-1,19,,8000001,2,Aachen Hbf,Nordrhein-Westfalen,Aachen,52064,6.091499,50.7678,,2024-07-09 02:36:00,,,0,0,Bauarbeiten. (Quelle: zuginfo.nrw)
1,-5224680247171799867-2407090209-10,,Horrem|Sindorf|Buir|Merzenich|Düren|Langerwehe|Eschweiler Hbf|Stolberg(Rheinl)Hbf|Aachen-Rothe Erde,8000001,2,Aachen Hbf,Nordrhein-Westfalen,Aachen,52064,6.091499,50.7678,2024-07-09 02:52:00,,2024-07-09 02:53:00,,1,0,Bauarbeiten. (Quelle: zuginfo.nrw)
2,-1623994736072630433-2407090253-1,4,,8000001,2,Aachen Hbf,Nordrhein-Westfalen,Aachen,52064,6.091499,50.7678,,2024-07-09 02:53:00,,2024-07-09 02:53:00,0,0,
3,-1251565744844871983-2407090236-2,19,Aachen Hbf,8000406,4,Aachen-Rothe Erde,Nordrhein-Westfalen,Aachen,52066,6.116475,50.770202,2024-07-09 02:39:00,2024-07-09 02:40:00,,,0,0,Bauarbeiten. (Quelle: zuginfo.nrw)
4,-5224680247171799867-2407090209-9,19,Horrem|Sindorf|Buir|Merzenich|Düren|Langerwehe|Eschweiler Hbf|Stolberg(Rheinl)Hbf,8000406,4,Aachen-Rothe Erde,Nordrhein-Westfalen,Aachen,52066,6.116475,50.770202,2024-07-09 02:50:00,2024-07-09 02:50:00,2024-07-09 02:49:00,2024-07-09 02:50:00,-1,0,Bauarbeiten. (Quelle: zuginfo.nrw)
5,-1623994736072630433-2407090253-3,4,Aachen Hbf|Aachen Schanz,8000404,5,Aachen West,Nordrhein-Westfalen,Aachen,52072,6.070715,50.78036,2024-07-09 02:58:00,2024-07-09 02:59:00,2024-07-09 02:58:00,2024-07-09 02:59:00,0,0,
6,7451169596740133223-2407090139-10,8,Flughafen BER|Berlin Ostkreuz|Berlin Ostbahnhof|Berlin Alexanderplatz|Berlin Friedrichstraße|Berlin Hbf|Berlin Zoologischer Garten|Berlin-Charlottenburg|Berlin-Spandau,8080040,5,Albrechtshof,Berlin,Berlin,13591,13.128917,52.549396,2024-07-09 02:37:00,2024-07-09 02:37:00,2024-07-09 02:37:00,2024-07-09 02:37:00,0,0,
7,2177444777121604897-2407090202-6,8,Nauen|Brieselang|Finkenkrug|Falkensee|Seegefeld,8080040,5,Albrechtshof,Berlin,Berlin,13591,13.128917,52.549396,2024-07-09 02:21:00,2024-07-09 02:22:00,2024-07-09 02:21:00,2024-07-09 02:22:00,0,0,
8,7451169596740133223-2407090139-4,8,Flughafen BER|Berlin Ostkreuz|Berlin Ostbahnhof,8011155,3,Alexanderplatz,Berlin,Berlin,10179,13.410961,52.521481,2024-07-09 02:06:00,2024-07-09 02:07:00,2024-07-09 02:06:00,2024-07-09 02:07:00,0,0,
9,2177444777121604897-2407090202-12,8,Nauen|Brieselang|Finkenkrug|Falkensee|Seegefeld|Albrechtshof|Berlin-Spandau|Berlin-Charlottenburg|Berlin Zoologischer Garten|Berlin Hbf|Berlin Friedrichstraße,8011155,3,Alexanderplatz,Berlin,Berlin,10179,13.410961,52.521481,2024-07-09 02:51:00,2024-07-09 02:52:00,2024-07-09 02:51:00,2024-07-09 02:52:00,0,0,
10,7529602871628123055-2407090135-11,33,Duisburg Hbf|Duisburg-Hochfeld Süd|Rheinhausen Ost|Rheinhausen|Krefeld-Hohenbudberg Chempark|Krefeld-Uerdingen|Krefeld-Linn|Krefeld-Oppum|Krefeld Hbf|Forsthaus,8000584,5,Anrath,Nordrhein-Westfalen,Willich,47877,6.45023,51.285536,2024-07-09 02:07:00,2024-07-09 02:08:00,2024-07-09 02:07:00,2024-07-09 02:08:00,0,0,
11,-6058665356135913865-2407090209-4,2,Münster(Westf)Hbf|Münster-Albachten|Senden-Bösensell,8000595,4,Nottuln-Appelhülsen,Nordrhein-Westfalen,Nottuln-Appelhülsen,48301,7.426334,51.892139,2024-07-09 02:23:00,2024-07-09 02:23:00,2024-07-09 02:23:00,2024-07-09 02:23:00,0,0,
12,-9167720142418455719-2407090118-3,,München Hbf|München-Pasing,8000013,1,Augsburg Hbf,Bayern,Augsburg,86150,10.88557,48.365441,2024-07-09 01:59:00,2024-07-09 02:01:00,2024-07-09 02:01:00,2024-07-09 02:04:00,2,3,
13,6194893901306646476-2407081729-19,,Hamburg-Altona|Hamburg Dammtor|Hamburg Hbf|Hamburg-Harburg|Bremen Hbf|Osnabrück Hbf|Münster(Westf)Hbf|Dortmund Hbf|Bochum Hbf|Essen Hbf|Duisburg Hbf|Düsseldorf Hbf|Köln Hbf|Siegburg/Bonn|Frankfurt(M) Flughafen Fernbf|Mannheim Hbf|Stuttgart Hbf|Ulm Hbf,8000013,1,Augsburg Hbf,Bayern,Augsburg,86150,10.88557,48.365441,2024-07-09 02:20:00,2024-07-09 02:22:00,2024-07-09 02:19:00,2024-07-09 02:22:00,-1,0,Information
14,8280588487919002193-2407090056-9,,Hamburg Hasselbrook|Hamburg Wandsbeker Chaussee|Hamburg-Tonndorf|Hamburg-Rahlstedt|Ahrensburg|Ahrensburg-Gartenholz|Bargteheide|Kupfermühle,8000023,2,Bad Oldesloe,Schleswig-Holstein,Bad Oldesloe,23843,10.3825414,53.8053902,2024-07-09 02:24:00,,2024-07-09 02:24:00,,0,0,Information
15,-500733363253213383-2407090056-6,,Hamburg Hasselbrook|Hamburg Wandsbeker Chaussee|Hamburg-Tonndorf|Hamburg-Rahlstedt|Ahrensburg,8000023,2,Bad Oldesloe,Schleswig-Holstein,Bad Oldesloe,23843,10.3825414,53.8053902,2024-07-09 02:04:00,,,,0,0,Information
16,7479964783882811425-2407090111-14,3,Ludwigshafen(Rh)Hbf|Ludwigshafen(Rhein) Mitte|Mannheim Hbf|Mannheim ARENA/Maimarkt|Mannheim-Seckenheim|Mannheim-Friedrichsfeld Süd|Heidelberg-Pfaffengrund/Wieblingen|Heidelberg Hbf|Heidelberg-Kirchheim/Rohrbach|St Ilgen-Sandhausen|Wiesloch-Walldorf|Rot-Malsch|Bad Schönborn-Kronau,8003533,4,Bad Schönborn Süd,Baden-Württemberg,Bad Schönborn,76669,8.641924,49.200001,2024-07-09 02:01:00,2024-07-09 02:01:00,,,0,0,Bauarbeiten
17,-2739961280303132791-2407090109-11,RB84,Kiel Hbf|Kiel-Elmschenhagen|Raisdorf|Preetz|Ascheberg(Holst)|Plön|Bad Malente-Gremsmühlen|Eutin|Pönitz(Holst)|Pansdorf,8000749,5,Bad Schwartau,Schleswig-Holstein,Bad Schwartau,23611,10.702722,53.916276,2024-07-09 02:25:00,2024-07-09 02:25:00,2024-07-09 02:25:00,2024-07-09 02:25:00,0,0,
18,2452490716313299869-2407090021-4,,München Hbf|Nürnberg Hbf|Erlangen,8000025,2,Bamberg,Bayern,Bamberg,96052,10.899489,49.900759,2024-07-09 02:12:00,2024-07-09 02:14:00,2024-07-09 02:35:00,2024-07-09 02:36:00,23,22,
19,908067538504114665-2407090120-18,6,Düsseldorf-Rath Mitte|Düsseldorf-Derendorf|Düsseldorf-Zoo|Düsseldorf Wehrhahn|Düsseldorf Hbf|Düsseldorf Volksgarten|Düsseldorf-Oberbilk|Düsseldorf-Eller Süd|Düsseldorf-Reisholz|Düsseldorf-Benrath|Düsseldorf-Garath|Düsseldorf-Hellerhof|Langenfeld(Rhld)-Berghausen|Langenfeld(Rhld)|Leverkusen-Rheindorf|Leverkusen-Küppersteg|Leverkusen Mitte,8000832,5,Leverkusen Chempark,Nordrhein-Westfalen,Köln,51061,6.996675,51.011409,2024-07-09 02:06:00,2024-07-09 02:06:00,2024-07-09 02:07:00,2024-07-09 02:07:00,1,1,Bauarbeiten. (Quelle: zuginfo.nrw)
20,7451169596740133223-2407090139-5,8,Flughafen BER|Berlin Ostkreuz|Berlin Ostbahnhof|Berlin Alexanderplatz,8011306,2,Berlin-Friedrichstraße,Berlin,Berlin,10117,13.3872056,52.520373,2024-07-09 02:10:00,2024-07-09 02:11:00,2024-07-09 02:10:00,2024-07-09 02:11:00,0,0,
21,2177444777121604897-2407090202-11,8,Nauen|Brieselang|Finkenkrug|Falkensee|Seegefeld|Albrechtshof|Berlin-Spandau|Berlin-Charlottenburg|Berlin Zoologischer Garten|Berlin Hbf,8011306,2,Berlin-Friedrichstraße,Berlin,Berlin,10117,13.3872056,52.520373,2024-07-09 02:47:00,2024-07-09 02:48:00,2024-07-09 02:47:00,2024-07-09 02:48:00,0,0,
22,7451169596740133223-2407090139-3,8,Flughafen BER|Berlin Ostkreuz,8010255,1,Berlin Ostbahnhof,Berlin,Berlin,10243,13.4346807,52.5104881,2024-07-09 02:02:00,2024-07-09 02:03:00,2024-07-09 02:02:00,2024-07-09 02:03:00,0,0,
23,2177444777121604897-2407090202-13,8,Nauen|Brieselang|Finkenkrug|Falkensee|Seegefeld|Albrechtshof|Berlin-Spandau|Berlin-Charlottenburg|Berlin Zoologischer Garten|Berlin Hbf|Berlin Friedrichstraße|Berlin Alexanderplatz,8010255,1,Berlin Ostbahnhof,Berlin,Berlin,10243,13.4346807,52.5104881,2024-07-09 02:54:00,2024-07-09 02:56:00,2024-07-09 02:54:00,2024-07-09 02:56:00,0,0,
24,7451169596740133223-2407090139-7,8,Flughafen BER|Berlin Ostkreuz|Berlin Ostbahnhof|Berlin Alexanderplatz|Berlin Friedrichstraße|Berlin Hbf,8010406,2,Berlin Zoologischer Garten,Berlin,Berlin,10623,13.3324447,52.5073407,2024-07-09 02:20:00,2024-07-09 02:21:00,2024-07-09 02:20:00,2024-07-09 02:21:00,0,0,
25,2177444777121604897-2407090202-9,8,Nauen|Brieselang|Finkenkrug|Falkensee|Seegefeld|Albrechtshof|Berlin-Spandau|Berlin-Charlottenburg,8010406,2,Berlin Zoologischer Garten,Berlin,Berlin,10623,13.3324447,52.5073407,2024-07-09 02:38:00,2024-07-09 02:39:00,2024-07-09 02:38:00,2024-07-09 02:39:00,0,0,
26,7451169596740133223-2407090139-8,8,Flughafen BER|Berlin Ostkreuz|Berlin Ostbahnhof|Berlin Alexanderplatz|Berlin Friedrichstraße|Berlin Hbf|Berlin Zoologischer Garten,8010403,3,Berlin-Charlottenburg,Berlin,Berlin,10627,13.3023298,52.5042126,2024-07-09 02:24:00,2024-07-09 02:25:00,2024-07-09 02:24:00,2024-07-09 02:25:00,0,0,
27,2177444777121604897-2407090202-8,8,Nauen|Brieselang|Finkenkrug|Falkensee|Seegefeld|Albrechtshof|Berlin-Spandau,8010403,3,Berlin-Charlottenburg,Berlin,Berlin,10627,13.3023298,52.5042126,2024-07-09 02:34:00,2024-07-09 02:35:00,2024-07-09 02:34:00,2024-07-09 02:35:00,0,0,
28,7451169596740133223-2407090139-9,8,Flughafen BER|Berlin Ostkreuz|Berlin Ostbahnhof|Berlin Alexanderplatz|Berlin Friedrichstraße|Berlin Hbf|Berlin Zoologischer Garten|Berlin-Charlottenburg,8010404,2,Berlin-Spandau,Berlin,Berlin,13597,13.1968975,52.5346481,2024-07-09 02:31:00,2024-07-09 02:33:00,2024-07-09 02:31:00,2024-07-09 02:33:00,0,0,
29,2177444777121604897-2407090202-7,8,Nauen|Brieselang|Finkenkrug|Falkensee|Seegefeld|Albrechtshof,8010404,2,Berlin-Spandau,Berlin,Berlin,13597,13.1968975,52.5346481,2024-07-09 02:26:00,2024-07-09 02:28:00,2024-07-09 02:26:00,2024-07-09 02:28:00,0,0,
30,-2674217953163577131-2407090030-8,,Köln Hbf|Düsseldorf Hbf|Duisburg Hbf|Essen Hbf|Bochum Hbf|Dortmund Hbf|Hamm(Westf)Hbf,8000036,2,Bielefeld Hbf,Nordrhein-Westfalen,Bielefeld,33602,8.532722,52.029261,2024-07-09 02:30:00,2024-07-09 02:32:00,2024-07-09 02:30:00,2024-07-09 02:32:00,0,0,
31,6083675552144505734-2407090034-22,9,Groß-Rohrheim|Biblis|Bobstadt|Bürstadt|Lampertheim|Mannheim-Waldhof|Mannheim-Luzenberg|Mannheim-Neckarstadt|Mannheim Handelshafen|Mannheim Hbf|Mannheim-Neckarau|Mannheim-Rheinau|Schwetzingen-Hirschacker|Schwetzingen|Oftersheim|Hockenheim|Neulußheim|Waghäusel|Wiesental|Graben-Neudorf|Friedrichstal(Baden),8001009,5,Blankenloch,Baden-Württemberg, Stutensee,76297,8.464729,49.066528,2024-07-09 02:01:00,2024-07-09 02:02:00,2024-07-09 02:02:00,2024-07-09 02:02:00,1,0,Information
32,-2850536344288765402-2407090245-2,1,Dortmund Hbf,8000041,2,Bochum Hbf,Nordrhein-Westfalen,Bochum,44787,7.223275,51.478609,2024-07-09 02:54:00,2024-07-09 02:55:00,2024-07-09 02:54:00,2024-07-09 02:55:00,0,0,
33,2339480746723701155-2407090049-12,1,Köln Hbf|Köln Messe/Deutz|Köln-Mülheim|Leverkusen Mitte|Düsseldorf-Benrath|Düsseldorf Hbf|Düsseldorf Flughafen|Duisburg Hbf|Mülheim(Ruhr)Hbf|Essen Hbf|Wattenscheid,8000041,2,Bochum Hbf,Nordrhein-Westfalen,Bochum,44787,7.223275,51.478609,2024-07-09 02:02:00,2024-07-09 02:03:00,2024-07-09 02:16:00,2024-07-09 02:17:00,14,14,
34,2851551822660401321-2407090151-9,1,Dortmund Hbf|Dortmund-Dorstfeld|Dortmund-Dorstfeld Süd|Dortmund Universität|Dortmund-Oespel|Dortmund-Kley|Bochum-Langendreer|Bochum-Langendreer West,8000041,2,Bochum Hbf,Nordrhein-Westfalen,Bochum,44787,7.223275,51.478609,2024-07-09 02:16:00,2024-07-09 02:17:00,2024-07-09 02:16:00,2024-07-09 02:17:00,0,0,Information. (Quelle: zuginfo.nrw)
35,-5463405634008665571-2407090137-23,1,Düsseldorf Hbf|Düsseldorf Wehrhahn|Düsseldorf-Zoo|Düsseldorf-Derendorf|Düsseldorf-Unterrath|Düsseldorf Flughafen|Angermund|Duisburg-Rahm|Duisburg-Großenbaum|Duisburg-Buchholz|Duisburg-Schlenk|Duisburg Hbf|Mülheim(Ruhr)Styrum|Mülheim(Ruhr)Hbf|Essen-Frohnhausen|Essen West|Essen Hbf|Essen-Steele|Essen-Steele Ost|Essen-Eiberg|Wattenscheid-Höntrop|Bochum-Ehrenfeld,8000041,2,Bochum Hbf,Nordrhein-Westfalen,Bochum,44787,7.223275,51.478609,2024-07-09 02:43:00,2024-07-09 02:44:00,2024-07-09 02:43:00,2024-07-09 02:44:00,0,0,Information. (Quelle: zuginfo.nrw)
36,2851551822660401321-2407090151-10,1,Dortmund Hbf|Dortmund-Dorstfeld|Dortmund-Dorstfeld Süd|Dortmund Universität|Dortmund-Oespel|Dortmund-Kley|Bochum-Langendreer|Bochum-Langendreer West|Bochum Hbf,8001039,5,Bochum-Ehrenfeld,Nordrhein-Westfalen,Bochum,44793,7.20915,51.472117,2024-07-09 02:18:00,2024-07-09 02:19:00,2024-07-09 02:18:00,2024-07-09 02:19:00,0,0,Information. (Quelle: zuginfo.nrw)
37,-5463405634008665571-2407090137-22,1,Düsseldorf Hbf|Düsseldorf Wehrhahn|Düsseldorf-Zoo|Düsseldorf-Derendorf|Düsseldorf-Unterrath|Düsseldorf Flughafen|Angermund|Duisburg-Rahm|Duisburg-Großenbaum|Duisburg-Buchholz|Duisburg-Schlenk|Duisburg Hbf|Mülheim(Ruhr)Styrum|Mülheim(Ruhr)Hbf|Essen-Frohnhausen|Essen West|Essen Hbf|Essen-Steele|Essen-Steele Ost|Essen-Eiberg|Wattenscheid-Höntrop,8001039,5,Bochum-Ehrenfeld,Nordrhein-Westfalen,Bochum,44793,7.20915,51.472117,2024-07-09 02:41:00,2024-07-09 02:41:00,2024-07-09 02:41:00,2024-07-09 02:42:00,0,1,Information. (Quelle: zuginfo.nrw)
38,2851551822660401321-2407090151-7,1,Dortmund Hbf|Dortmund-Dorstfeld|Dortmund-Dorstfeld Süd|Dortmund Universität|Dortmund-Oespel|Dortmund-Kley,8000358,4,Bochum-Langendreer,Nordrhein-Westfalen,Bochum,44892,7.323645,51.477992,2024-07-09 02:08:00,2024-07-09 02:09:00,2024-07-09 02:07:00,2024-07-09 02:09:00,-1,0,Information. (Quelle: zuginfo.nrw)
39,-5463405634008665571-2407090137-25,1,Düsseldorf Hbf|Düsseldorf Wehrhahn|Düsseldorf-Zoo|Düsseldorf-Derendorf|Düsseldorf-Unterrath|Düsseldorf Flughafen|Angermund|Duisburg-Rahm|Duisburg-Großenbaum|Duisburg-Buchholz|Duisburg-Schlenk|Duisburg Hbf|Mülheim(Ruhr)Styrum|Mülheim(Ruhr)Hbf|Essen-Frohnhausen|Essen West|Essen Hbf|Essen-Steele|Essen-Steele Ost|Essen-Eiberg|Wattenscheid-Höntrop|Bochum-Ehrenfeld|Bochum Hbf|Bochum-Langendreer West,8000358,4,Bochum-Langendreer,Nordrhein-Westfalen,Bochum,44892,7.323645,51.477992,2024-07-09 02:50:00,2024-07-09 02:51:00,2024-07-09 02:50:00,2024-07-09 02:51:00,0,0,Information. (Quelle: zuginfo.nrw)
40,2851551822660401321-2407090151-8,1,Dortmund Hbf|Dortmund-Dorstfeld|Dortmund-Dorstfeld Süd|Dortmund Universität|Dortmund-Oespel|Dortmund-Kley|Bochum-Langendreer,8004474,4,Bochum-Langendreer West,Nordrhein-Westfalen,Bochum,44892,7.304327,51.478032,2024-07-09 02:10:00,2024-07-09 02:11:00,2024-07-09 02:10:00,2024-07-09 02:11:00,0,0,Information. (Quelle: zuginfo.nrw)
41,-5463405634008665571-2407090137-24,1,Düsseldorf Hbf|Düsseldorf Wehrhahn|Düsseldorf-Zoo|Düsseldorf-Derendorf|Düsseldorf-Unterrath|Düsseldorf Flughafen|Angermund|Duisburg-Rahm|Duisburg-Großenbaum|Duisburg-Buchholz|Duisburg-Schlenk|Duisburg Hbf|Mülheim(Ruhr)Styrum|Mülheim(Ruhr)Hbf|Essen-Frohnhausen|Essen West|Essen Hbf|Essen-Steele|Essen-Steele Ost|Essen-Eiberg|Wattenscheid-Höntrop|Bochum-Ehrenfeld|Bochum Hbf,8004474,4,Bochum-Langendreer West,Nordrhein-Westfalen,Bochum,44892,7.304327,51.478032,2024-07-09 02:48:00,2024-07-09 02:48:00,2024-07-09 02:48:00,2024-07-09 02:48:00,0,0,Information. (Quelle: zuginfo.nrw)
42,1852955345666104200-2407090211-7,26,Remagen|Oberwinter|Rolandseck|Bonn-Mehlem|Bonn-Bad Godesberg|Bonn UN Campus,8000044,2,Bonn Hbf,Nordrhein-Westfalen,Bonn,53111,7.097136,50.732008,2024-07-09 02:31:00,2024-07-09 02:33:00,2024-07-09 02:31:00,2024-07-09 02:33:00,0,0,Bauarbeiten. (Quelle: zuginfo.nrw)
43,-1354561819309488240-2407090138-10,26,Köln/Bonn Flughafen|Köln Messe/Deutz|Köln Hbf|Köln West|Köln Süd|Hürth-Kalscheuren|Brühl|Sechtem|Roisdorf,8000044,2,Bonn Hbf,Nordrhein-Westfalen,Bonn,53111,7.097136,50.732008,2024-07-09 02:25:00,2024-07-09 02:27:00,2024-07-09 02:26:00,2024-07-09 02:28:00,1,1,Bauarbeiten. (Quelle: zuginfo.nrw)
44,1852955345666104200-2407090211-5,26,Remagen|Oberwinter|Rolandseck|Bonn-Mehlem,8001082,3,Bonn-Bad Godesberg,Nordrhein-Westfalen,Bonn,53173,7.159555,50.683927,2024-07-09 02:24:00,2024-07-09 02:24:00,2024-07-09 02:24:00,2024-07-09 02:24:00,0,0,Bauarbeiten. (Quelle: zuginfo.nrw)
45,-1354561819309488240-2407090138-12,26,Köln/Bonn Flughafen|Köln Messe/Deutz|Köln Hbf|Köln West|Köln Süd|Hürth-Kalscheuren|Brühl|Sechtem|Roisdorf|Bonn Hbf|Bonn UN Campus,8001082,3,Bonn-Bad Godesberg,Nordrhein-Westfalen,Bonn,53173,7.159555,50.683927,2024-07-09 02:33:00,2024-07-09 02:33:00,2024-07-09 02:34:00,2024-07-09 02:34:00,1,1,Bauarbeiten. (Quelle: zuginfo.nrw)
46,1852955345666104200-2407090211-4,26,Remagen|Oberwinter|Rolandseck,8001085,4,Bonn-Mehlem,Nordrhein-Westfalen,Bonn,53179,7.181342,50.669153,2024-07-09 02:21:00,2024-07-09 02:22:00,2024-07-09 02:21:00,2024-07-09 02:22:00,0,0,Bauarbeiten. (Quelle: zuginfo.nrw)
47,-1354561819309488240-2407090138-13,26,Köln/Bonn Flughafen|Köln Messe/Deutz|Köln Hbf|Köln West|Köln Süd|Hürth-Kalscheuren|Brühl|Sechtem|Roisdorf|Bonn Hbf|Bonn UN Campus|Bonn-Bad Godesberg,8001085,4,Bonn-Mehlem,Nordrhein-Westfalen,Bonn,53179,7.181342,50.669153,2024-07-09 02:35:00,2024-07-09 02:36:00,2024-07-09 02:36:00,2024-07-09 02:37:00,1,1,Bauarbeiten. (Quelle: zuginfo.nrw)
48,-3927096025170759993-2407090143-8,7,Hamburg Hbf|Hamburg Dammtor|Pinneberg|Elmshorn|Wrist|Neumünster|Einfeld,8001092,5,Bordesholm,Schleswig-Holstein,Bordesholm,24582,10.043711,54.174373,2024-07-09 02:44:00,2024-07-09 02:45:00,2024-07-09 02:44:00,2024-07-09 02:45:00,0,0,
49,-6058665356135913865-2407090209-3,2,Münster(Westf)Hbf|Münster-Albachten,8001065,5,Senden-Bösensell,Nordrhein-Westfalen,Senden-Bösensell,48308,7.487687,51.90703,2024-07-09 02:19:00,2024-07-09 02:19:00,2024-07-09 02:19:00,2024-07-09 02:19:00,0,0,
50,3199623009169073885-2407090011-8,,Berlin Ostbahnhof|Berlin Hbf|Berlin Zoologischer Garten|Berlin-Wannsee|Potsdam Hbf|Brandenburg Hbf|Magdeburg Hbf,8000049,2,Braunschweig Hbf,Niedersachsen,Braunschweig,38102,10.540295,52.252218,2024-07-09 02:34:00,2024-07-09 02:36:00,2024-07-09 02:36:00,2024-07-09 02:39:00,2,3,Information
51,7137833056273713088-2407090045-5,,Hamburg-Altona|Hamburg Dammtor|Hamburg Hbf|Hamburg-Harburg,8000050,2,Bremen Hbf,Bremen,Bremen,28195,8.813834,53.083481,2024-07-09 01:58:00,2024-07-09 02:01:00,2024-07-09 01:55:00,2024-07-09 02:01:00,-3,0,Information
52,-5077710834022444018-2407090012-11,EV,"Bremen Hbf/Hugo-Schauinsland-Platz, Bremen|Bremen-Burg|Ritterhude|Osterholz-Scharmbeck|Oldenbüttel|Lübberstedt|Stubben|Lunestedt|Loxstedt|Bremerhaven-Wulsdorf",8000051,3,Bremerhaven Hbf,Bremen,Bremerhaven,27570,8.599555,53.534912,2024-07-09 02:32:00,2024-07-09 02:32:00,,,0,0,Information
53,-5077710834022444018-2407090012-12,,"Bremen Hbf/Hugo-Schauinsland-Platz, Bremen|Bremen-Burg|Ritterhude|Osterholz-Scharmbeck|Oldenbüttel|Lübberstedt|Stubben|Lunestedt|Loxstedt|Bremerhaven-Wulsdorf|Bremerhaven Hbf",8001168,5,Bremerhaven-Lehe Pbf,Bremen,Bremerhaven,27580,8.600657,53.566324,2024-07-09 02:44:00,,,,0,0,Information
54,-8310784213106853885-2407090115-23,4,"Karlsruhe Albtalbahnhof|Karlsruhe Bahnhofsvorplatz|Poststraße, Karlsruhe|Tivoli, Karlsruhe|Werderstraße, Karlsruhe|Rüppurrer Tor, Karlsruhe|Kronenplatz, Karlsruhe|Durlacher Tor/KIT-Campus Süd, Karlsruhe|Gottesauer Platz/BGV, Karlsruhe|Tullastraße/Alter Schlachthof, Karlsruhe|Weinweg, Karlsruhe|Durlach Untermühlstraße, Karlsruhe|Karlsruhe-Durlach|Grötzingen|Grötzingen Oberausstraße|Berghausen Hummelberg|Jöhlingen West|Jöhlingen|Wössingen|Wössingen Ost|Dürrenbüchig|Rinklingen",8000053,4,Bretten,Baden-Württemberg,Bretten,75015,8.693448,49.0369,2024-07-09 01:58:00,2024-07-09 02:00:00,2024-07-09 01:58:00,2024-07-09 02:00:00,0,0,
55,7479964783882811425-2407090111-17,3,Ludwigshafen(Rh)Hbf|Ludwigshafen(Rhein) Mitte|Mannheim Hbf|Mannheim ARENA/Maimarkt|Mannheim-Seckenheim|Mannheim-Friedrichsfeld Süd|Heidelberg-Pfaffengrund/Wieblingen|Heidelberg Hbf|Heidelberg-Kirchheim/Rohrbach|St Ilgen-Sandhausen|Wiesloch-Walldorf|Rot-Malsch|Bad Schönborn-Kronau|Bad Schönborn Süd|Stettfeld-Weiher|Ubstadt-Weiher,8000055,2,Bruchsal,Baden-Württemberg,Bruchsal,76646,8.589649,49.124622,2024-07-09 02:10:00,2024-07-09 02:11:00,,,0,0,Bauarbeiten
56,1852955345666104200-2407090211-10,26,Remagen|Oberwinter|Rolandseck|Bonn-Mehlem|Bonn-Bad Godesberg|Bonn UN Campus|Bonn Hbf|Roisdorf|Sechtem,8001215,4,Brühl,Nordrhein-Westfalen,Brühl,50321,6.912718,50.829249,2024-07-09 02:44:00,2024-07-09 02:45:00,2024-07-09 02:44:00,2024-07-09 02:45:00,0,0,Bauarbeiten. (Quelle: zuginfo.nrw)
57,-1354561819309488240-2407090138-7,26,Köln/Bonn Flughafen|Köln Messe/Deutz|Köln Hbf|Köln West|Köln Süd|Hürth-Kalscheuren,8001215,4,Brühl,Nordrhein-Westfalen,Brühl,50321,6.912718,50.829249,2024-07-09 02:11:00,2024-07-09 02:12:00,2024-07-09 02:12:00,2024-07-09 02:13:00,1,1,Bauarbeiten. (Quelle: zuginfo.nrw)
58,5089820149948252230-2407081646-19,,München Hbf|München-Pasing|Augsburg Hbf|Ulm Hbf|Stuttgart Hbf|Mannheim Hbf|Frankfurt(Main)Hbf|Fulda|Bad Hersfeld|Eisenach|Gotha|Erfurt Hbf|Leipzig Hbf|Berlin Südkreuz|Berlin Hbf|Berlin-Spandau|Wittenberge|Ludwigslust,8000058,3,Büchen,Schleswig-Holstein,Büchen,21514,10.623298,53.474972,2024-07-09 02:47:00,2024-07-09 02:49:00,2024-07-09 02:55:00,2024-07-09 02:57:00,8,8,
59,2331841857895539712-2407090131-17,4,München Ost|München Rosenheimer Platz|München Isartor|München Marienplatz|München Karlsplatz|München Hbf (tief)|München Hackerbrücke|München Donnersbergerbrücke|München Hirschgarten|München-Laim|München-Pasing|München Leienfelsstr.|München-Aubing|Puchheim|Eichenau(Oberbay)|Fürstenfeldbruck,8001229,5,Buchenau (Oberbay),Bayern,Fürstenfeldbruck,82256,11.224497,48.160277,2024-07-09 02:09:00,2024-07-09 02:11:00,2024-07-09 02:11:00,,2,0,
60,-5224680247171799867-2407090209-3,19,Horrem|Sindorf,8001264,5,Buir,Nordrhein-Westfalen,Kerpen,50170,6.574514,50.862401,2024-07-09 02:17:00,2024-07-09 02:18:00,2024-07-09 02:17:00,2024-07-09 02:18:00,0,0,Bauarbeiten. (Quelle: zuginfo.nrw)
61,-6058665356135913865-2407090209-5,2,Münster(Westf)Hbf|Münster-Albachten|Senden-Bösensell|Nottuln-Appelhülsen,8001266,5,Buldern,Nordrhein-Westfalen,Dülmen,48249,7.370479,51.863054,2024-07-09 02:27:00,2024-07-09 02:28:00,2024-07-09 02:27:00,2024-07-09 02:28:00,0,0,
62,2705749507405492044-2407090035-8,RE10,Falkenberg(Elster)|Uebigau Markt|Beutersitz Bahnhof/Wildgruber Straße|Schönborn(Doberl)|Doberlug-Kirchhain|Finsterwalde(Niederlausitz)|Gollmitz(Niederlausitz),8010069,4,Calau (Niederlausitz),Brandenburg,Calau ,3205,13.97982,51.738118,2024-07-09 02:16:00,2024-07-09 02:16:00,,,0,0,
63,-2238166171655545371-2407090156-7,2,Essen Hbf|Essen-Kray Nord|Gelsenkirchen-Rotthausen|Gelsenkirchen Hbf|Wanne-Eickel Hbf|Herne,8001327,3,Castrop-Rauxel Hbf,Nordrhein-Westfalen,Castrop-Rauxel,44579,7.30398,51.573526,2024-07-09 02:20:00,2024-07-09 02:21:00,2024-07-09 02:21:00,2024-07-09 02:22:00,1,1,Bauarbeiten. (Quelle: zuginfo.nrw)
64,-1391171448654195053-2407090109-10,EM24,Köln Hbf|Köln Messe/Deutz|Düsseldorf Hbf|Duisburg Hbf|Oberhausen Hbf|Essen-Altenessen|Gelsenkirchen Hbf|Wanne-Eickel Hbf|Herne,8001327,3,Castrop-Rauxel Hbf,Nordrhein-Westfalen,Castrop-Rauxel,44579,7.30398,51.573526,2024-07-09 02:29:00,2024-07-09 02:31:00,,,0,0,
65,4584806807655155350-2407090217-8,2,Dortmund Hbf|Dortmund-Dorstfeld|Dortmund-Wischlingen|Dortmund-Huckarde|Dortmund-Westerfilde|Dortmund-Nette/Oestrich|Dortmund-Mengede,8001327,3,Castrop-Rauxel Hbf,Nordrhein-Westfalen,Castrop-Rauxel,44579,7.30398,51.573526,2024-07-09 02:37:00,2024-07-09 02:38:00,2024-07-09 02:37:00,2024-07-09 02:38:00,0,0,Bauarbeiten. (Quelle: zuginfo.nrw)
66,5345924912571245273-2407082134-13,,Hamburg-Altona|Hamburg Dammtor|Hamburg Hbf|Büchen|Ludwigslust|Wittenberge|Berlin-Spandau|Berlin Hbf|Berlin Südkreuz|Lutherstadt Wittenberg Hbf|Leipzig Hbf|Erfurt Hbf,8001338,3,Coburg,Bayern,Coburg,96450,10.9573281,50.2629273,2024-07-09 02:49:00,2024-07-09 02:51:00,2024-07-09 02:49:00,2024-07-09 02:53:00,0,2,
67,2452490716313299869-2407090021-5,,München Hbf|Nürnberg Hbf|Erlangen|Bamberg,8001338,3,Coburg,Bayern,Coburg,96450,10.9573281,50.2629273,2024-07-09 02:34:00,2024-07-09 02:36:00,2024-07-09 02:55:00,2024-07-09 02:57:00,21,21,
68,7451169596740133223-2407090139-6,8,Flughafen BER|Berlin Ostkreuz|Berlin Ostbahnhof|Berlin Alexanderplatz|Berlin Friedrichstraße,8011160,1,Berlin Hauptbahnhof,Berlin,Berlin,10557,13.369545,52.525592,2024-07-09 02:13:00,2024-07-09 02:15:00,2024-07-09 02:13:00,2024-07-09 02:15:00,0,0,
69,2177444777121604897-2407090202-10,8,Nauen|Brieselang|Finkenkrug|Falkensee|Seegefeld|Albrechtshof|Berlin-Spandau|Berlin-Charlottenburg|Berlin Zoologischer Garten,8011160,1,Berlin Hauptbahnhof,Berlin,Berlin,10557,13.369545,52.525592,2024-07-09 02:43:00,2024-07-09 02:45:00,2024-07-09 02:43:00,2024-07-09 02:45:00,0,0,
70,2705749507405492044-2407090035-11,,Falkenberg(Elster)|Uebigau Markt|Beutersitz Bahnhof/Wildgruber Straße|Schönborn(Doberl)|Doberlug-Kirchhain|Finsterwalde(Niederlausitz)|Gollmitz(Niederlausitz)|Calau(Nl)|Kolkwitz Süd|Cottbus Spreewaldbahnhof,8010073,2,Cottbus Hbf,Brandenburg,Cottbus,3048,14.324162,51.750957,2024-07-09 02:52:00,,,,0,0,
71,-8761881508899340400-2407090008-30,,Nauen|Brieselang|Finkenkrug|Falkensee|Seegefeld|Albrechtshof|Berlin-Spandau|Berlin-Charlottenburg|Berlin Zoologischer Garten|Berlin Hbf|Berlin Friedrichstraße|Berlin Alexanderplatz|Berlin Ostbahnhof|Berlin Ostkreuz|Königs Wusterhausen|Zeesen|Bestensee|Groß Köris|Halbe|Oderin|Brand Tropical Islands|Schönwalde(Spreewald)|Lubolz|Lübben(Spreewald)|Lübbenau(Spreewald)|Raddusch|Vetschau|Kunersdorf|Kolkwitz,8010073,2,Cottbus Hbf,Brandenburg,Cottbus,3048,14.324162,51.750957,2024-07-09 02:42:00,,2024-07-09 02:42:00,,0,0,
72,4384964956351906439-2407090144-5,RE19,Duisburg Hbf|Oberhausen Hbf|Oberhausen-Sterkrade|Oberhausen-Holten,8001469,4,Dinslaken,Nordrhein-Westfalen,Dinslaken,46535,6.73803,51.567458,2024-07-09 02:02:00,2024-07-09 02:03:00,2024-07-09 02:14:00,2024-07-09 02:15:00,12,12,
73,2339480746723701155-2407090049-13,1,Köln Hbf|Köln Messe/Deutz|Köln-Mülheim|Leverkusen Mitte|Düsseldorf-Benrath|Düsseldorf Hbf|Düsseldorf Flughafen|Duisburg Hbf|Mülheim(Ruhr)Hbf|Essen Hbf|Wattenscheid|Bochum Hbf,8000080,1,Dortmund Hbf,Nordrhein-Westfalen,Dortmund,44137,7.45929,51.517896,2024-07-09 02:14:00,2024-07-09 02:16:00,2024-07-09 02:28:00,2024-07-09 02:29:00,14,13,
74,4584806807655155350-2407090217-1,2,,8000080,1,Dortmund Hbf,Nordrhein-Westfalen,Dortmund,44137,7.45929,51.517896,,2024-07-09 02:17:00,,2024-07-09 02:17:00,0,0,Bauarbeiten. (Quelle: zuginfo.nrw)
75,-2850536344288765402-2407090245-1,1,,8000080,1,Dortmund Hbf,Nordrhein-Westfalen,Dortmund,44137,7.45929,51.517896,,2024-07-09 02:45:00,,2024-07-09 02:45:00,0,0,
76,-2238166171655545371-2407090156-14,,Essen Hbf|Essen-Kray Nord|Gelsenkirchen-Rotthausen|Gelsenkirchen Hbf|Wanne-Eickel Hbf|Herne|Castrop-Rauxel Hbf|Dortmund-Mengede|Dortmund-Nette/Oestrich|Dortmund-Westerfilde|Dortmund-Huckarde|Dortmund-Wischlingen|Dortmund-Dorstfeld,8000080,1,Dortmund Hbf,Nordrhein-Westfalen,Dortmund,44137,7.45929,51.517896,2024-07-09 02:42:00,,2024-07-09 02:43:00,,1,0,Bauarbeiten. (Quelle: zuginfo.nrw)
77,5725591571076636546-2407090037-31,,Düsseldorf Hbf|Düsseldorf Wehrhahn|Düsseldorf-Zoo|Düsseldorf-Derendorf|Düsseldorf-Unterrath|Düsseldorf Flughafen|Angermund|Duisburg-Rahm|Duisburg-Großenbaum|Duisburg-Buchholz|Duisburg-Schlenk|Duisburg Hbf|Mülheim(Ruhr)Styrum|Mülheim(Ruhr)Hbf|Essen-Frohnhausen|Essen West|Essen Hbf|Essen-Steele|Essen-Steele Ost|Essen-Eiberg|Wattenscheid-Höntrop|Bochum-Ehrenfeld|Bochum Hbf|Bochum-Langendreer West|Bochum-Langendreer|Dortmund-Kley|Dortmund-Oespel|Dortmund Universität|Dortmund-Dorstfeld Süd|Dortmund-Dorstfeld,8000080,1,Dortmund Hbf,Nordrhein-Westfalen,Dortmund,44137,7.45929,51.517896,2024-07-09 02:10:00,,2024-07-09 02:12:00,,2,0,Information. (Quelle: zuginfo.nrw)
78,-1391171448654195053-2407090109-11,,Köln Hbf|Köln Messe/Deutz|Düsseldorf Hbf|Duisburg Hbf|Oberhausen Hbf|Essen-Altenessen|Gelsenkirchen Hbf|Wanne-Eickel Hbf|Herne|Castrop-Rauxel Hbf,8000080,1,Dortmund Hbf,Nordrhein-Westfalen,Dortmund,44137,7.45929,51.517896,2024-07-09 02:47:00,,,,0,0,
79,2851551822660401321-2407090151-4,1,Dortmund Hbf|Dortmund-Dorstfeld|Dortmund-Dorstfeld Süd,8004419,4,Dortmund-Universität,Nordrhein-Westfalen,Dortmund,44227,7.417708,51.49274,2024-07-09 01:59:00,2024-07-09 02:00:00,2024-07-09 01:59:00,2024-07-09 02:00:00,0,0,Information. (Quelle: zuginfo.nrw)
80,-5463405634008665571-2407090137-28,1,Düsseldorf Hbf|Düsseldorf Wehrhahn|Düsseldorf-Zoo|Düsseldorf-Derendorf|Düsseldorf-Unterrath|Düsseldorf Flughafen|Angermund|Duisburg-Rahm|Duisburg-Großenbaum|Duisburg-Buchholz|Duisburg-Schlenk|Duisburg Hbf|Mülheim(Ruhr)Styrum|Mülheim(Ruhr)Hbf|Essen-Frohnhausen|Essen West|Essen Hbf|Essen-Steele|Essen-Steele Ost|Essen-Eiberg|Wattenscheid-Höntrop|Bochum-Ehrenfeld|Bochum Hbf|Bochum-Langendreer West|Bochum-Langendreer|Dortmund-Kley|Dortmund-Oespel,8004419,4,Dortmund-Universität,Nordrhein-Westfalen,Dortmund,44227,7.417708,51.49274,2024-07-09 02:58:00,2024-07-09 02:59:00,2024-07-09 02:58:00,2024-07-09 02:59:00,0,0,Information. (Quelle: zuginfo.nrw)
81,-2238166171655545371-2407090156-13,2,Essen Hbf|Essen-Kray Nord|Gelsenkirchen-Rotthausen|Gelsenkirchen Hbf|Wanne-Eickel Hbf|Herne|Castrop-Rauxel Hbf|Dortmund-Mengede|Dortmund-Nette/Oestrich|Dortmund-Westerfilde|Dortmund-Huckarde|Dortmund-Wischlingen,8000081,3,Dortmund-Dorstfeld,Nordrhein-Westfalen,Dortmund,44149,7.424864,51.509376,2024-07-09 02:39:00,2024-07-09 02:40:00,2024-07-09 02:39:00,2024-07-09 02:40:00,0,0,Bauarbeiten. (Quelle: zuginfo.nrw)
82,5725591571076636546-2407090037-30,1,Düsseldorf Hbf|Düsseldorf Wehrhahn|Düsseldorf-Zoo|Düsseldorf-Derendorf|Düsseldorf-Unterrath|Düsseldorf Flughafen|Angermund|Duisburg-Rahm|Duisburg-Großenbaum|Duisburg-Buchholz|Duisburg-Schlenk|Duisburg Hbf|Mülheim(Ruhr)Styrum|Mülheim(Ruhr)Hbf|Essen-Frohnhausen|Essen West|Essen Hbf|Essen-Steele|Essen-Steele Ost|Essen-Eiberg|Wattenscheid-Höntrop|Bochum-Ehrenfeld|Bochum Hbf|Bochum-Langendreer West|Bochum-Langendreer|Dortmund-Kley|Dortmund-Oespel|Dortmund Universität|Dortmund-Dorstfeld Süd,8000081,3,Dortmund-Dorstfeld,Nordrhein-Westfalen,Dortmund,44149,7.424864,51.509376,2024-07-09 02:02:00,2024-07-09 02:03:00,2024-07-09 02:06:00,2024-07-09 02:07:00,4,4,Information. (Quelle: zuginfo.nrw)
83,4584806807655155350-2407090217-2,2,Dortmund Hbf,8000081,3,Dortmund-Dorstfeld,Nordrhein-Westfalen,Dortmund,44149,7.424864,51.509376,2024-07-09 02:20:00,2024-07-09 02:21:00,2024-07-09 02:19:00,2024-07-09 02:21:00,-1,0,Bauarbeiten. (Quelle: zuginfo.nrw)
84,5725591571076636546-2407090037-29,1,Düsseldorf Hbf|Düsseldorf Wehrhahn|Düsseldorf-Zoo|Düsseldorf-Derendorf|Düsseldorf-Unterrath|Düsseldorf Flughafen|Angermund|Duisburg-Rahm|Duisburg-Großenbaum|Duisburg-Buchholz|Duisburg-Schlenk|Duisburg Hbf|Mülheim(Ruhr)Styrum|Mülheim(Ruhr)Hbf|Essen-Frohnhausen|Essen West|Essen Hbf|Essen-Steele|Essen-Steele Ost|Essen-Eiberg|Wattenscheid-Höntrop|Bochum-Ehrenfeld|Bochum Hbf|Bochum-Langendreer West|Bochum-Langendreer|Dortmund-Kley|Dortmund-Oespel|Dortmund Universität,8004230,4,Dortmund-Dorstfeld Süd,Nordrhein-Westfalen,Dortmund,44149,7.420017,51.500632,2024-07-09 02:00:00,2024-07-09 02:01:00,2024-07-09 02:04:00,2024-07-09 02:05:00,4,4,Information. (Quelle: zuginfo.nrw)
85,2851551822660401321-2407090151-6,1,Dortmund Hbf|Dortmund-Dorstfeld|Dortmund-Dorstfeld Süd|Dortmund Universität|Dortmund-Oespel,8004269,4,Dortmund-Kley,Nordrhein-Westfalen,Dortmund,44149,7.365374,51.489467,2024-07-09 02:04:00,2024-07-09 02:05:00,2024-07-09 02:04:00,2024-07-09 02:05:00,0,0,Information. (Quelle: zuginfo.nrw)
86,-5463405634008665571-2407090137-26,1,Düsseldorf Hbf|Düsseldorf Wehrhahn|Düsseldorf-Zoo|Düsseldorf-Derendorf|Düsseldorf-Unterrath|Düsseldorf Flughafen|Angermund|Duisburg-Rahm|Duisburg-Großenbaum|Duisburg-Buchholz|Duisburg-Schlenk|Duisburg Hbf|Mülheim(Ruhr)Styrum|Mülheim(Ruhr)Hbf|Essen-Frohnhausen|Essen West|Essen Hbf|Essen-Steele|Essen-Steele Ost|Essen-Eiberg|Wattenscheid-Höntrop|Bochum-Ehrenfeld|Bochum Hbf|Bochum-Langendreer West|Bochum-Langendreer,8004269,4,Dortmund-Kley,Nordrhein-Westfalen,Dortmund,44149,7.365374,51.489467,2024-07-09 02:53:00,2024-07-09 02:54:00,2024-07-09 02:53:00,2024-07-09 02:54:00,0,0,Information. (Quelle: zuginfo.nrw)
87,2339480746723701155-2407090049-15,1,Köln Hbf|Köln Messe/Deutz|Köln-Mülheim|Leverkusen Mitte|Düsseldorf-Benrath|Düsseldorf Hbf|Düsseldorf Flughafen|Duisburg Hbf|Mülheim(Ruhr)Hbf|Essen Hbf|Wattenscheid|Bochum Hbf|Dortmund Hbf|Dortmund-Scharnhorst,8001537,4,Dortmund-Kurl,Nordrhein-Westfalen,Dortmund,44319,7.585291,51.556979,2024-07-09 02:24:00,2024-07-09 02:24:00,2024-07-09 02:37:00,2024-07-09 02:37:00,13,13,
88,4584806807655155350-2407090217-7,2,Dortmund Hbf|Dortmund-Dorstfeld|Dortmund-Wischlingen|Dortmund-Huckarde|Dortmund-Westerfilde|Dortmund-Nette/Oestrich,8001543,4,Dortmund-Mengede,Nordrhein-Westfalen,Dortmund,44359,7.374374,51.570345,2024-07-09 02:33:00,2024-07-09 02:33:00,2024-07-09 02:33:00,2024-07-09 02:34:00,0,1,Bauarbeiten. (Quelle: zuginfo.nrw)
89,-2238166171655545371-2407090156-8,2,Essen Hbf|Essen-Kray Nord|Gelsenkirchen-Rotthausen|Gelsenkirchen Hbf|Wanne-Eickel Hbf|Herne|Castrop-Rauxel Hbf,8001543,4,Dortmund-Mengede,Nordrhein-Westfalen,Dortmund,44359,7.374374,51.570345,2024-07-09 02:26:00,2024-07-09 02:26:00,2024-07-09 02:27:00,2024-07-09 02:27:00,1,1,Bauarbeiten. (Quelle: zuginfo.nrw)
90,-2238166171655545371-2407090156-9,2,Essen Hbf|Essen-Kray Nord|Gelsenkirchen-Rotthausen|Gelsenkirchen Hbf|Wanne-Eickel Hbf|Herne|Castrop-Rauxel Hbf|Dortmund-Mengede,8001519,5,Dortmund-Nette/Oestrich,Nordrhein-Westfalen,Dortmund,44359,7.377731,51.561495,2024-07-09 02:28:00,2024-07-09 02:29:00,2024-07-09 02:28:00,2024-07-09 02:29:00,0,0,Bauarbeiten. (Quelle: zuginfo.nrw)
91,4584806807655155350-2407090217-6,2,Dortmund Hbf|Dortmund-Dorstfeld|Dortmund-Wischlingen|Dortmund-Huckarde|Dortmund-Westerfilde,8001519,5,Dortmund-Nette/Oestrich,Nordrhein-Westfalen,Dortmund,44359,7.377731,51.561495,2024-07-09 02:31:00,2024-07-09 02:31:00,2024-07-09 02:31:00,2024-07-09 02:31:00,0,0,Bauarbeiten. (Quelle: zuginfo.nrw)
92,2851551822660401321-2407090151-5,1,Dortmund Hbf|Dortmund-Dorstfeld|Dortmund-Dorstfeld Süd|Dortmund Universität,8004288,4,Dortmund-Oespel,Nordrhein-Westfalen,Dortmund,44149,7.383811,51.488397,2024-07-09 02:02:00,2024-07-09 02:03:00,2024-07-09 02:02:00,2024-07-09 02:03:00,0,0,Information. (Quelle: zuginfo.nrw)
93,-5463405634008665571-2407090137-27,1,Düsseldorf Hbf|Düsseldorf Wehrhahn|Düsseldorf-Zoo|Düsseldorf-Derendorf|Düsseldorf-Unterrath|Düsseldorf Flughafen|Angermund|Duisburg-Rahm|Duisburg-Großenbaum|Duisburg-Buchholz|Duisburg-Schlenk|Duisburg Hbf|Mülheim(Ruhr)Styrum|Mülheim(Ruhr)Hbf|Essen-Frohnhausen|Essen West|Essen Hbf|Essen-Steele|Essen-Steele Ost|Essen-Eiberg|Wattenscheid-Höntrop|Bochum-Ehrenfeld|Bochum Hbf|Bochum-Langendreer West|Bochum-Langendreer|Dortmund-Kley,8004288,4,Dortmund-Oespel,Nordrhein-Westfalen,Dortmund,44149,7.383811,51.488397,2024-07-09 02:55:00,2024-07-09 02:56:00,2024-07-09 02:55:00,2024-07-09 02:56:00,0,0,Information. (Quelle: zuginfo.nrw)
94,2339480746723701155-2407090049-14,1,Köln Hbf|Köln Messe/Deutz|Köln-Mülheim|Leverkusen Mitte|Düsseldorf-Benrath|Düsseldorf Hbf|Düsseldorf Flughafen|Duisburg Hbf|Mülheim(Ruhr)Hbf|Essen Hbf|Wattenscheid|Bochum Hbf|Dortmund Hbf,8001515,5,Dortmund-Scharnhorst,Nordrhein-Westfalen,Dortmund,44328,7.536564,51.538373,2024-07-09 02:20:00,2024-07-09 02:21:00,2024-07-09 02:33:00,2024-07-09 02:34:00,13,13,
95,-8745930355234119378-2407090033-4,,Berlin Hbf|Berlin Ostbahnhof|Dresden-Neustadt,8010085,1,Dresden Hbf,Sachsen,Dresden,1069,13.732035,51.040563,2024-07-09 02:53:00,2024-07-09 03:01:00,2024-07-09 02:53:00,2024-07-09 03:03:00,0,2,
96,-8745930355234119378-2407090033-3,,Berlin Hbf|Berlin Ostbahnhof,8010089,2,Dresden-Neustadt,Sachsen,Dresden,1097,13.740701,51.065899,2024-07-09 02:47:00,2024-07-09 02:49:00,2024-07-09 02:33:00,2024-07-09 02:49:00,-14,0,
97,8573811631662133764-2407082041-13,,München Hbf|Ingolstadt Hbf|Nürnberg Hbf|Würzburg Hbf|Aschaffenburg Hbf|Frankfurt(Main)Hbf|Frankfurt(M) Flughafen Fernbf|Limburg Süd|Montabaur|Siegburg/Bonn|Köln Messe/Deutz Gl.11-12|Düsseldorf Hbf,8000086,1,Duisburg Hbf,Nordrhein-Westfalen,Duisburg,47051,6.775903,51.429785,2024-07-09 02:42:00,2024-07-09 02:44:00,2024-07-09 03:12:00,2024-07-09 03:13:00,30,29,Information
98,8503777394879306018-2407082324-11,,Frankfurt(Main)Hbf|Frankfurt(M) Flughafen Fernbf|Mainz Hbf|Bingen(Rhein) Hbf|Koblenz Hbf|Remagen|Bonn Hbf|Köln Hbf|Düsseldorf Hbf|Düsseldorf Flughafen,8000086,1,Duisburg Hbf,Nordrhein-Westfalen,Duisburg,47051,6.775903,51.429785,2024-07-09 02:50:00,2024-07-09 02:52:00,2024-07-09 02:49:00,2024-07-09 02:52:00,-1,0,Information
99,2774174590951633862-2407082228-12,,Hamburg-Altona|Hamburg Dammtor|Hamburg Hbf|Hamburg-Harburg|Bremen Hbf|Osnabrück Hbf|Münster(Westf)Hbf|Hamm(Westf)Hbf|Dortmund Hbf|Bochum Hbf|Essen Hbf,8000086,1,Duisburg Hbf,Nordrhein-Westfalen,Duisburg,47051,6.775903,51.429785,2024-07-09 02:20:00,2024-07-09 02:22:00,2024-07-09 02:21:00,2024-07-09 02:23:00,1,1,Information
100,-4068911222865023920-2407090222-3,1,Düsseldorf Hbf|Düsseldorf Flughafen,8000086,1,Duisburg Hbf,Nordrhein-Westfalen,Duisburg,47051,6.775903,51.429785,2024-07-09 02:36:00,2024-07-09 02:38:00,2024-07-09 02:36:00,2024-07-09 02:38:00,0,0,
101,-1692443697590914603-2407090121-8,EM24,Dortmund Hbf|Castrop-Rauxel Hbf|Herne|Wanne-Eickel Hbf|Gelsenkirchen Hbf|Essen-Altenessen|Oberhausen Hbf,8000086,1,Duisburg Hbf,Nordrhein-Westfalen,Duisburg,47051,6.775903,51.429785,2024-07-09 02:17:00,2024-07-09 02:19:00,2024-07-09 02:17:00,2024-07-09 02:19:00,0,0,
102,-5463405634008665571-2407090137-12,1,Düsseldorf Hbf|Düsseldorf Wehrhahn|Düsseldorf-Zoo|Düsseldorf-Derendorf|Düsseldorf-Unterrath|Düsseldorf Flughafen|Angermund|Duisburg-Rahm|Duisburg-Großenbaum|Duisburg-Buchholz|Duisburg-Schlenk,8000086,1,Duisburg Hbf,Nordrhein-Westfalen,Duisburg,47051,6.775903,51.429785,2024-07-09 02:06:00,2024-07-09 02:07:00,2024-07-09 02:07:00,2024-07-09 02:08:00,1,1,Information. (Quelle: zuginfo.nrw)
103,-5463405634008665571-2407090137-11,1,Düsseldorf Hbf|Düsseldorf Wehrhahn|Düsseldorf-Zoo|Düsseldorf-Derendorf|Düsseldorf-Unterrath|Düsseldorf Flughafen|Angermund|Duisburg-Rahm|Duisburg-Großenbaum|Duisburg-Buchholz,8001596,5,Duisburg Schlenk,Nordrhein-Westfalen,Duisburg,47055,6.773206,51.401781,2024-07-09 02:03:00,2024-07-09 02:04:00,2024-07-09 02:03:00,2024-07-09 02:04:00,0,0,Information. (Quelle: zuginfo.nrw)
104,-7674996274242949336-2407090051-22,1,Dortmund Hbf|Dortmund-Dorstfeld|Dortmund-Dorstfeld Süd|Dortmund Universität|Dortmund-Oespel|Dortmund-Kley|Bochum-Langendreer|Bochum-Langendreer West|Bochum Hbf|Bochum-Ehrenfeld|Wattenscheid-Höntrop|Essen-Eiberg|Essen-Steele Ost|Essen-Steele|Essen Hbf|Essen West|Essen-Frohnhausen|Mülheim(Ruhr)Hbf|Mülheim(Ruhr)Styrum|Duisburg Hbf|Duisburg-Schlenk,8001600,4,Duisburg-Buchholz,Nordrhein-Westfalen,Duisburg,47249,6.775406,51.382919,2024-07-09 02:00:00,2024-07-09 02:00:00,2024-07-09 02:00:00,2024-07-09 02:00:00,0,0,Information. (Quelle: zuginfo.nrw)
105,-5463405634008665571-2407090137-10,1,Düsseldorf Hbf|Düsseldorf Wehrhahn|Düsseldorf-Zoo|Düsseldorf-Derendorf|Düsseldorf-Unterrath|Düsseldorf Flughafen|Angermund|Duisburg-Rahm|Duisburg-Großenbaum,8001600,4,Duisburg-Buchholz,Nordrhein-Westfalen,Duisburg,47249,6.775406,51.382919,2024-07-09 02:00:00,2024-07-09 02:01:00,2024-07-09 02:00:00,2024-07-09 02:01:00,0,0,Information. (Quelle: zuginfo.nrw)
106,-7674996274242949336-2407090051-23,1,Dortmund Hbf|Dortmund-Dorstfeld|Dortmund-Dorstfeld Süd|Dortmund Universität|Dortmund-Oespel|Dortmund-Kley|Bochum-Langendreer|Bochum-Langendreer West|Bochum Hbf|Bochum-Ehrenfeld|Wattenscheid-Höntrop|Essen-Eiberg|Essen-Steele Ost|Essen-Steele|Essen Hbf|Essen West|Essen-Frohnhausen|Mülheim(Ruhr)Hbf|Mülheim(Ruhr)Styrum|Duisburg Hbf|Duisburg-Schlenk|Duisburg-Buchholz,8001602,4,Duisburg-Großenbaum,Nordrhein-Westfalen,Duisburg,47269,6.77747,51.364774,2024-07-09 02:02:00,2024-07-09 02:03:00,2024-07-09 02:02:00,2024-07-09 02:03:00,0,0,Information. (Quelle: zuginfo.nrw)
107,-7674996274242949336-2407090051-24,1,Dortmund Hbf|Dortmund-Dorstfeld|Dortmund-Dorstfeld Süd|Dortmund Universität|Dortmund-Oespel|Dortmund-Kley|Bochum-Langendreer|Bochum-Langendreer West|Bochum Hbf|Bochum-Ehrenfeld|Wattenscheid-Höntrop|Essen-Eiberg|Essen-Steele Ost|Essen-Steele|Essen Hbf|Essen West|Essen-Frohnhausen|Mülheim(Ruhr)Hbf|Mülheim(Ruhr)Styrum|Duisburg Hbf|Duisburg-Schlenk|Duisburg-Buchholz|Duisburg-Großenbaum,8001609,5,Duisburg-Rahm,Nordrhein-Westfalen,Duisburg,47269,6.779924,51.346835,2024-07-09 02:05:00,2024-07-09 02:05:00,2024-07-09 02:04:00,2024-07-09 02:05:00,-1,0,Information. (Quelle: zuginfo.nrw)
108,-6058665356135913865-2407090209-6,2,Münster(Westf)Hbf|Münster-Albachten|Senden-Bösensell|Nottuln-Appelhülsen|Buldern,8000083,4,Dülmen,Nordrhein-Westfalen,Dülmen,48249,7.295765,51.827676,2024-07-09 02:32:00,2024-07-09 02:32:00,2024-07-09 02:31:00,2024-07-09 02:33:00,-1,1,
109,-5224680247171799867-2407090209-5,19,Horrem|Sindorf|Buir|Merzenich,8000084,3,Düren,Nordrhein-Westfalen,Düren,52351,6.482451,50.809517,2024-07-09 02:26:00,2024-07-09 02:27:00,2024-07-09 02:26:00,2024-07-09 02:27:00,0,0,Bauarbeiten. (Quelle: zuginfo.nrw)
110,-2852794612513594288-2407090131-16,6,Köln-Nippes|Köln Hansaring|Köln Hbf|Köln Messe/Deutz|Köln-Buchforst|Köln-Mülheim|Köln-Stammheim|Leverkusen Chempark|Leverkusen Mitte|Leverkusen-Küppersteg|Leverkusen-Rheindorf|Langenfeld(Rhld)|Langenfeld(Rhld)-Berghausen|Düsseldorf-Hellerhof|Düsseldorf-Garath,8001584,3,Düsseldorf-Benrath,Nordrhein-Westfalen,Düsseldorf,40597,6.878931,51.162293,2024-07-09 02:15:00,2024-07-09 02:16:00,2024-07-09 02:16:00,2024-07-09 02:17:00,1,1,Bauarbeiten. (Quelle: zuginfo.nrw)
111,2774174590951633862-2407082228-13,,Hamburg-Altona|Hamburg Dammtor|Hamburg Hbf|Hamburg-Harburg|Bremen Hbf|Osnabrück Hbf|Münster(Westf)Hbf|Hamm(Westf)Hbf|Dortmund Hbf|Bochum Hbf|Essen Hbf|Duisburg Hbf,8000082,3,Düsseldorf Flughafen,Nordrhein-Westfalen,Düsseldorf,40474,6.786836,51.292009,2024-07-09 02:30:00,2024-07-09 02:32:00,2024-07-09 02:31:00,2024-07-09 02:33:00,1,1,Information
112,-7674996274242949336-2407090051-26,1,Dortmund Hbf|Dortmund-Dorstfeld|Dortmund-Dorstfeld Süd|Dortmund Universität|Dortmund-Oespel|Dortmund-Kley|Bochum-Langendreer|Bochum-Langendreer West|Bochum Hbf|Bochum-Ehrenfeld|Wattenscheid-Höntrop|Essen-Eiberg|Essen-Steele Ost|Essen-Steele|Essen Hbf|Essen West|Essen-Frohnhausen|Mülheim(Ruhr)Hbf|Mülheim(Ruhr)Styrum|Duisburg Hbf|Duisburg-Schlenk|Duisburg-Buchholz|Duisburg-Großenbaum|Duisburg-Rahm|Angermund,8000082,3,Düsseldorf Flughafen,Nordrhein-Westfalen,Düsseldorf,40474,6.786836,51.292009,2024-07-09 02:11:00,2024-07-09 02:12:00,2024-07-09 02:11:00,2024-07-09 02:12:00,0,0,Information. (Quelle: zuginfo.nrw)
113,8503777394879306018-2407082324-10,,Frankfurt(Main)Hbf|Frankfurt(M) Flughafen Fernbf|Mainz Hbf|Bingen(Rhein) Hbf|Koblenz Hbf|Remagen|Bonn Hbf|Köln Hbf|Düsseldorf Hbf,8000082,3,Düsseldorf Flughafen,Nordrhein-Westfalen,Düsseldorf,40474,6.786836,51.292009,2024-07-09 02:39:00,2024-07-09 02:41:00,2024-07-09 02:39:00,2024-07-09 02:41:00,0,0,Information
114,-4068911222865023920-2407090222-2,1,Düsseldorf Hbf,8000082,3,Düsseldorf Flughafen,Nordrhein-Westfalen,Düsseldorf,40474,6.786836,51.292009,2024-07-09 02:27:00,2024-07-09 02:28:00,2024-07-09 02:27:00,2024-07-09 02:28:00,0,0,
115,6791163620212625148-2407090220-5,,Düsseldorf-Rath Mitte|Düsseldorf-Derendorf|Düsseldorf-Zoo|Düsseldorf Wehrhahn,8000085,1,Düsseldorf Hbf,Nordrhein-Westfalen,Düsseldorf,40210,6.794319,51.219962,2024-07-09 02:30:00,,2024-07-09 02:30:00,,0,0,Bauarbeiten. (Quelle: zuginfo.nrw)
116,8573811631662133764-2407082041-12,,München Hbf|Ingolstadt Hbf|Nürnberg Hbf|Würzburg Hbf|Aschaffenburg Hbf|Frankfurt(Main)Hbf|Frankfurt(M) Flughafen Fernbf|Limburg Süd|Montabaur|Siegburg/Bonn|Köln Messe/Deutz Gl.11-12,8000085,1,Düsseldorf Hbf,Nordrhein-Westfalen,Düsseldorf,40210,6.794319,51.219962,2024-07-09 02:28:00,2024-07-09 02:30:00,2024-07-09 02:58:00,2024-07-09 03:00:00,30,30,Information
117,8503777394879306018-2407082324-9,,Frankfurt(Main)Hbf|Frankfurt(M) Flughafen Fernbf|Mainz Hbf|Bingen(Rhein) Hbf|Koblenz Hbf|Remagen|Bonn Hbf|Köln Hbf,8000085,1,Düsseldorf Hbf,Nordrhein-Westfalen,Düsseldorf,40210,6.794319,51.219962,2024-07-09 02:31:00,2024-07-09 02:33:00,2024-07-09 02:31:00,2024-07-09 02:33:00,0,0,Information
118,2774174590951633862-2407082228-14,,Hamburg-Altona|Hamburg Dammtor|Hamburg Hbf|Hamburg-Harburg|Bremen Hbf|Osnabrück Hbf|Münster(Westf)Hbf|Hamm(Westf)Hbf|Dortmund Hbf|Bochum Hbf|Essen Hbf|Duisburg Hbf|Düsseldorf Flughafen,8000085,1,Düsseldorf Hbf,Nordrhein-Westfalen,Düsseldorf,40210,6.794319,51.219962,2024-07-09 02:38:00,2024-07-09 02:40:00,2024-07-09 02:38:00,2024-07-09 02:40:00,0,0,Information
119,-7674996274242949336-2407090051-31,,Dortmund Hbf|Dortmund-Dorstfeld|Dortmund-Dorstfeld Süd|Dortmund Universität|Dortmund-Oespel|Dortmund-Kley|Bochum-Langendreer|Bochum-Langendreer West|Bochum Hbf|Bochum-Ehrenfeld|Wattenscheid-Höntrop|Essen-Eiberg|Essen-Steele Ost|Essen-Steele|Essen Hbf|Essen West|Essen-Frohnhausen|Mülheim(Ruhr)Hbf|Mülheim(Ruhr)Styrum|Duisburg Hbf|Duisburg-Schlenk|Duisburg-Buchholz|Duisburg-Großenbaum|Duisburg-Rahm|Angermund|Düsseldorf Flughafen|Düsseldorf-Unterrath|Düsseldorf-Derendorf|Düsseldorf-Zoo|Düsseldorf Wehrhahn,8000085,1,Düsseldorf Hbf,Nordrhein-Westfalen,Düsseldorf,40210,6.794319,51.219962,2024-07-09 02:23:00,,2024-07-09 02:23:00,,0,0,Information. (Quelle: zuginfo.nrw)
120,-2852794612513594288-2407090131-21,,Köln-Nippes|Köln Hansaring|Köln Hbf|Köln Messe/Deutz|Köln-Buchforst|Köln-Mülheim|Köln-Stammheim|Leverkusen Chempark|Leverkusen Mitte|Leverkusen-Küppersteg|Leverkusen-Rheindorf|Langenfeld(Rhld)|Langenfeld(Rhld)-Berghausen|Düsseldorf-Hellerhof|Düsseldorf-Garath|Düsseldorf-Benrath|Düsseldorf-Reisholz|Düsseldorf-Eller Süd|Düsseldorf-Oberbilk|Düsseldorf Volksgarten,8000085,1,Düsseldorf Hbf,Nordrhein-Westfalen,Düsseldorf,40210,6.794319,51.219962,2024-07-09 02:28:00,,2024-07-09 02:28:00,,0,0,Bauarbeiten. (Quelle: zuginfo.nrw)
121,-4068911222865023920-2407090222-1,1,,8000085,1,Düsseldorf Hbf,Nordrhein-Westfalen,Düsseldorf,40210,6.794319,51.219962,,2024-07-09 02:22:00,,2024-07-09 02:22:00,0,0,
122,-1692443697590914603-2407090121-9,EM24,Dortmund Hbf|Castrop-Rauxel Hbf|Herne|Wanne-Eickel Hbf|Gelsenkirchen Hbf|Essen-Altenessen|Oberhausen Hbf|Duisburg Hbf,8000085,1,Düsseldorf Hbf,Nordrhein-Westfalen,Düsseldorf,40210,6.794319,51.219962,2024-07-09 02:32:00,2024-07-09 02:34:00,2024-07-09 02:32:00,2024-07-09 02:34:00,0,0,
123,-7502145383808606519-2407090124-9,,Solingen Hbf|Solingen Vogelpark|Hilden Süd|Hilden|Düsseldorf-Eller|Düsseldorf-Eller Mitte|Düsseldorf-Oberbilk|Düsseldorf Volksgarten,8000085,1,Düsseldorf Hbf,Nordrhein-Westfalen,Düsseldorf,40210,6.794319,51.219962,2024-07-09 02:27:00,,,,0,0,
124,2523783130015082046-2407090107-8,,Dortmund Hbf|Bochum Hbf|Wattenscheid|Essen Hbf|Mülheim(Ruhr)Hbf|Duisburg Hbf|Düsseldorf Flughafen,8000085,1,Düsseldorf Hbf,Nordrhein-Westfalen,Düsseldorf,40210,6.794319,51.219962,2024-07-09 02:05:00,,2024-07-09 02:05:00,,0,0,
125,-2852794612513594288-2407090131-20,6,Köln-Nippes|Köln Hansaring|Köln Hbf|Köln Messe/Deutz|Köln-Buchforst|Köln-Mülheim|Köln-Stammheim|Leverkusen Chempark|Leverkusen Mitte|Leverkusen-Küppersteg|Leverkusen-Rheindorf|Langenfeld(Rhld)|Langenfeld(Rhld)-Berghausen|Düsseldorf-Hellerhof|Düsseldorf-Garath|Düsseldorf-Benrath|Düsseldorf-Reisholz|Düsseldorf-Eller Süd|Düsseldorf-Oberbilk,8001581,5,Düsseldorf Volksgarten,Nordrhein-Westfalen,Düsseldorf,40227,6.791978,51.210138,2024-07-09 02:25:00,2024-07-09 02:26:00,2024-07-09 02:26:00,2024-07-09 02:27:00,1,1,Bauarbeiten. (Quelle: zuginfo.nrw)
126,-7502145383808606519-2407090124-8,S1,Solingen Hbf|Solingen Vogelpark|Hilden Süd|Hilden|Düsseldorf-Eller|Düsseldorf-Eller Mitte|Düsseldorf-Oberbilk,8001581,5,Düsseldorf Volksgarten,Nordrhein-Westfalen,Düsseldorf,40227,6.791978,51.210138,2024-07-09 02:22:00,2024-07-09 02:22:00,,,0,0,
127,6791163620212625148-2407090220-4,6,Düsseldorf-Rath Mitte|Düsseldorf-Derendorf|Düsseldorf-Zoo,8001582,4,Düsseldorf Wehrhahn,Nordrhein-Westfalen,Düsseldorf,40211,6.798173,51.228447,2024-07-09 02:27:00,2024-07-09 02:28:00,2024-07-09 02:27:00,2024-07-09 02:28:00,0,0,Bauarbeiten. (Quelle: zuginfo.nrw)
128,-7674996274242949336-2407090051-30,1,Dortmund Hbf|Dortmund-Dorstfeld|Dortmund-Dorstfeld Süd|Dortmund Universität|Dortmund-Oespel|Dortmund-Kley|Bochum-Langendreer|Bochum-Langendreer West|Bochum Hbf|Bochum-Ehrenfeld|Wattenscheid-Höntrop|Essen-Eiberg|Essen-Steele Ost|Essen-Steele|Essen Hbf|Essen West|Essen-Frohnhausen|Mülheim(Ruhr)Hbf|Mülheim(Ruhr)Styrum|Duisburg Hbf|Duisburg-Schlenk|Duisburg-Buchholz|Duisburg-Großenbaum|Duisburg-Rahm|Angermund|Düsseldorf Flughafen|Düsseldorf-Unterrath|Düsseldorf-Derendorf|Düsseldorf-Zoo,8001582,4,Düsseldorf Wehrhahn,Nordrhein-Westfalen,Düsseldorf,40211,6.798173,51.228447,2024-07-09 02:21:00,2024-07-09 02:21:00,2024-07-09 02:21:00,2024-07-09 02:22:00,0,1,Information. (Quelle: zuginfo.nrw)
129,6791163620212625148-2407090220-3,6,Düsseldorf-Rath Mitte|Düsseldorf-Derendorf,8001583,4,Düsseldorf Zoo,Nordrhein-Westfalen,Düsseldorf,40211,6.796924,51.236962,2024-07-09 02:25:00,2024-07-09 02:26:00,2024-07-09 02:25:00,2024-07-09 02:26:00,0,0,Bauarbeiten. (Quelle: zuginfo.nrw)
130,-7674996274242949336-2407090051-29,1,Dortmund Hbf|Dortmund-Dorstfeld|Dortmund-Dorstfeld Süd|Dortmund Universität|Dortmund-Oespel|Dortmund-Kley|Bochum-Langendreer|Bochum-Langendreer West|Bochum Hbf|Bochum-Ehrenfeld|Wattenscheid-Höntrop|Essen-Eiberg|Essen-Steele Ost|Essen-Steele|Essen Hbf|Essen West|Essen-Frohnhausen|Mülheim(Ruhr)Hbf|Mülheim(Ruhr)Styrum|Duisburg Hbf|Duisburg-Schlenk|Duisburg-Buchholz|Duisburg-Großenbaum|Duisburg-Rahm|Angermund|Düsseldorf Flughafen|Düsseldorf-Unterrath|Düsseldorf-Derendorf,8001583,4,Düsseldorf Zoo,Nordrhein-Westfalen,Düsseldorf,40211,6.796924,51.236962,2024-07-09 02:19:00,2024-07-09 02:19:00,2024-07-09 02:19:00,2024-07-09 02:19:00,0,0,Information. (Quelle: zuginfo.nrw)
131,6791163620212625148-2407090220-2,6,Düsseldorf-Rath Mitte,8001586,3,Düsseldorf-Derendorf,Nordrhein-Westfalen,Düsseldorf,40470,6.794512,51.247624,2024-07-09 02:23:00,2024-07-09 02:24:00,2024-07-09 02:24:00,2024-07-09 02:24:00,1,0,Bauarbeiten. (Quelle: zuginfo.nrw)
132,-7674996274242949336-2407090051-28,1,Dortmund Hbf|Dortmund-Dorstfeld|Dortmund-Dorstfeld Süd|Dortmund Universität|Dortmund-Oespel|Dortmund-Kley|Bochum-Langendreer|Bochum-Langendreer West|Bochum Hbf|Bochum-Ehrenfeld|Wattenscheid-Höntrop|Essen-Eiberg|Essen-Steele Ost|Essen-Steele|Essen Hbf|Essen West|Essen-Frohnhausen|Mülheim(Ruhr)Hbf|Mülheim(Ruhr)Styrum|Duisburg Hbf|Duisburg-Schlenk|Duisburg-Buchholz|Duisburg-Großenbaum|Duisburg-Rahm|Angermund|Düsseldorf Flughafen|Düsseldorf-Unterrath,8001586,3,Düsseldorf-Derendorf,Nordrhein-Westfalen,Düsseldorf,40470,6.794512,51.247624,2024-07-09 02:17:00,2024-07-09 02:17:00,2024-07-09 02:17:00,2024-07-09 02:17:00,0,0,Information. (Quelle: zuginfo.nrw)
133,-7502145383808606519-2407090124-5,S1,Solingen Hbf|Solingen Vogelpark|Hilden Süd|Hilden,8001587,5,Düsseldorf-Eller,Nordrhein-Westfalen,Düsseldorf,40627,6.851927,51.20267,2024-07-09 02:07:00,2024-07-09 02:07:00,,,0,0,
134,-7502145383808606519-2407090124-6,S1,Solingen Hbf|Solingen Vogelpark|Hilden Süd|Hilden|Düsseldorf-Eller,8001308,5,Düsseldorf-Eller Mitte,Nordrhein-Westfalen,Düsseldorf,40229,6.838607,51.202058,2024-07-09 02:12:00,2024-07-09 02:12:00,,,0,0,
135,-2852794612513594288-2407090131-18,6,Köln-Nippes|Köln Hansaring|Köln Hbf|Köln Messe/Deutz|Köln-Buchforst|Köln-Mülheim|Köln-Stammheim|Leverkusen Chempark|Leverkusen Mitte|Leverkusen-Küppersteg|Leverkusen-Rheindorf|Langenfeld(Rhld)|Langenfeld(Rhld)-Berghausen|Düsseldorf-Hellerhof|Düsseldorf-Garath|Düsseldorf-Benrath|Düsseldorf-Reisholz,8001588,5,Düsseldorf-Eller Süd,Nordrhein-Westfalen,Düsseldorf,40229,6.836128,51.198072,2024-07-09 02:20:00,2024-07-09 02:21:00,2024-07-09 02:22:00,2024-07-09 02:22:00,2,1,Bauarbeiten. (Quelle: zuginfo.nrw)
136,-2852794612513594288-2407090131-15,6,Köln-Nippes|Köln Hansaring|Köln Hbf|Köln Messe/Deutz|Köln-Buchforst|Köln-Mülheim|Köln-Stammheim|Leverkusen Chempark|Leverkusen Mitte|Leverkusen-Küppersteg|Leverkusen-Rheindorf|Langenfeld(Rhld)|Langenfeld(Rhld)-Berghausen|Düsseldorf-Hellerhof,8001589,5,Düsseldorf-Garath,Nordrhein-Westfalen,Düsseldorf,40595,6.897675,51.143626,2024-07-09 02:12:00,2024-07-09 02:13:00,2024-07-09 02:14:00,2024-07-09 02:14:00,2,1,Bauarbeiten. (Quelle: zuginfo.nrw)
137,-2852794612513594288-2407090131-14,6,Köln-Nippes|Köln Hansaring|Köln Hbf|Köln Messe/Deutz|Köln-Buchforst|Köln-Mülheim|Köln-Stammheim|Leverkusen Chempark|Leverkusen Mitte|Leverkusen-Küppersteg|Leverkusen-Rheindorf|Langenfeld(Rhld)|Langenfeld(Rhld)-Berghausen,8004920,5,Düsseldorf-Hellerhof,Nordrhein-Westfalen,Düsseldorf,40595,6.908277,51.133036,2024-07-09 02:10:00,2024-07-09 02:11:00,2024-07-09 02:11:00,2024-07-09 02:12:00,1,1,Bauarbeiten. (Quelle: zuginfo.nrw)
138,-2852794612513594288-2407090131-19,6,Köln-Nippes|Köln Hansaring|Köln Hbf|Köln Messe/Deutz|Köln-Buchforst|Köln-Mülheim|Köln-Stammheim|Leverkusen Chempark|Leverkusen Mitte|Leverkusen-Küppersteg|Leverkusen-Rheindorf|Langenfeld(Rhld)|Langenfeld(Rhld)-Berghausen|Düsseldorf-Hellerhof|Düsseldorf-Garath|Düsseldorf-Benrath|Düsseldorf-Reisholz|Düsseldorf-Eller Süd,8001591,5,Düsseldorf-Oberbilk,Nordrhein-Westfalen,Düsseldorf,40591,6.808678,51.208047,2024-07-09 02:23:00,2024-07-09 02:24:00,2024-07-09 02:24:00,2024-07-09 02:25:00,1,1,Bauarbeiten. (Quelle: zuginfo.nrw)
139,-7502145383808606519-2407090124-7,S1,Solingen Hbf|Solingen Vogelpark|Hilden Süd|Hilden|Düsseldorf-Eller|Düsseldorf-Eller Mitte,8001591,5,Düsseldorf-Oberbilk,Nordrhein-Westfalen,Düsseldorf,40591,6.808678,51.208047,2024-07-09 02:17:00,2024-07-09 02:17:00,,,0,0,
140,3839062782000571422-2407090151-3,S6,Düsseldorf-Unterrath|Düsseldorf-Rath Mitte,8001592,5,Düsseldorf-Rath,Nordrhein-Westfalen,Düsseldorf,40472,6.821063,51.264124,2024-07-09 02:03:00,2024-07-09 02:04:00,2024-07-09 02:04:00,2024-07-09 02:04:00,1,0,
141,6791163620212625148-2407090220-1,6,,8001593,5,Düsseldorf-Rath Mitte,Nordrhein-Westfalen,Düsseldorf,40472,6.808398,51.261136,,2024-07-09 02:20:00,,2024-07-09 02:21:00,0,1,Bauarbeiten. (Quelle: zuginfo.nrw)
142,3839062782000571422-2407090151-2,S6,Düsseldorf-Unterrath,8001593,5,Düsseldorf-Rath Mitte,Nordrhein-Westfalen,Düsseldorf,40472,6.808398,51.261136,2024-07-09 02:01:00,2024-07-09 02:01:00,2024-07-09 01:59:00,2024-07-09 02:01:00,-2,0,
143,-2852794612513594288-2407090131-17,6,Köln-Nippes|Köln Hansaring|Köln Hbf|Köln Messe/Deutz|Köln-Buchforst|Köln-Mülheim|Köln-Stammheim|Leverkusen Chempark|Leverkusen Mitte|Leverkusen-Küppersteg|Leverkusen-Rheindorf|Langenfeld(Rhld)|Langenfeld(Rhld)-Berghausen|Düsseldorf-Hellerhof|Düsseldorf-Garath|Düsseldorf-Benrath,8001594,4,Düsseldorf-Reisholz,Nordrhein-Westfalen,Düsseldorf,40599,6.860953,51.180782,2024-07-09 02:18:00,2024-07-09 02:18:00,2024-07-09 02:19:00,2024-07-09 02:19:00,1,1,Bauarbeiten. (Quelle: zuginfo.nrw)
144,-7674996274242949336-2407090051-27,1,Dortmund Hbf|Dortmund-Dorstfeld|Dortmund-Dorstfeld Süd|Dortmund Universität|Dortmund-Oespel|Dortmund-Kley|Bochum-Langendreer|Bochum-Langendreer West|Bochum Hbf|Bochum-Ehrenfeld|Wattenscheid-Höntrop|Essen-Eiberg|Essen-Steele Ost|Essen-Steele|Essen Hbf|Essen West|Essen-Frohnhausen|Mülheim(Ruhr)Hbf|Mülheim(Ruhr)Styrum|Duisburg Hbf|Duisburg-Schlenk|Duisburg-Buchholz|Duisburg-Großenbaum|Duisburg-Rahm|Angermund|Düsseldorf Flughafen,8001595,4,Düsseldorf-Unterrath,Nordrhein-Westfalen,Düsseldorf,40468,6.788783,51.276732,2024-07-09 02:14:00,2024-07-09 02:14:00,2024-07-09 02:14:00,2024-07-09 02:14:00,0,0,Information. (Quelle: zuginfo.nrw)
145,8250438427699303315-2407090120-7,,Kettwig|Kettwig Stausee|Hösel|Ratingen Ost|Düsseldorf-Rath|Düsseldorf-Rath Mitte,8001595,4,Düsseldorf-Unterrath,Nordrhein-Westfalen,Düsseldorf,40468,6.788783,51.276732,2024-07-09 02:08:00,,2024-07-09 02:04:00,,-4,0,
146,-2418336209701037993-2407090044-35,,Tutzing|Feldafing|Possenhofen|Starnberg|Starnberg Nord|Gauting|Stockdorf|Planegg|Gräfelfing|Lochham|München-Westkreuz|München-Pasing|München-Laim|München Hirschgarten|München Donnersbergerbrücke|München Hackerbrücke|München Hbf (tief)|München Karlsplatz|München Marienplatz|München Isartor|München Rosenheimer Platz|München Ost|München Leuchtenbergring|München-Berg am Laim|München-Trudering|Gronsdorf|Haar|Vaterstetten|Baldham|Zorneding|Eglharting|Kirchseeon|Grafing Bahnhof|Grafing Stadt,8001634,4,Ebersberg (Oberbay),Bayern,Ebersberg (Oberbay),85560,11.970243,48.07497,2024-07-09 02:16:00,,2024-07-09 02:16:00,,0,0,Bauarbeiten
147,1095665159166765495-2407090131-18,1,München Leuchtenbergring|München Ost|München Rosenheimer Platz|München Isartor|München Marienplatz|München Karlsplatz|München Hbf (tief)|München Hackerbrücke|München Donnersbergerbrücke|München Hirschgarten|München-Laim|München-Moosach|München-Fasanerie|München-Feldmoching|Oberschleißheim|Unterschleißheim|Lohhof,8001647,5,Eching,Bayern,Eching,84174,11.616754,48.302992,2024-07-09 02:12:00,2024-07-09 02:12:00,2024-07-09 02:14:00,2024-07-09 02:15:00,2,3,
148,-2418336209701037993-2407090044-31,6,Tutzing|Feldafing|Possenhofen|Starnberg|Starnberg Nord|Gauting|Stockdorf|Planegg|Gräfelfing|Lochham|München-Westkreuz|München-Pasing|München-Laim|München Hirschgarten|München Donnersbergerbrücke|München Hackerbrücke|München Hbf (tief)|München Karlsplatz|München Marienplatz|München Isartor|München Rosenheimer Platz|München Ost|München Leuchtenbergring|München-Berg am Laim|München-Trudering|Gronsdorf|Haar|Vaterstetten|Baldham|Zorneding,8001682,4,Eglharting,Bayern,Kirchseeon,85614,11.864291,48.082348,2024-07-09 01:59:00,2024-07-09 02:00:00,2024-07-09 01:59:00,2024-07-09 02:00:00,0,0,Bauarbeiten
149,2331841857895539712-2407090131-15,4,München Ost|München Rosenheimer Platz|München Isartor|München Marienplatz|München Karlsplatz|München Hbf (tief)|München Hackerbrücke|München Donnersbergerbrücke|München Hirschgarten|München-Laim|München-Pasing|München Leienfelsstr.|München-Aubing|Puchheim,8001702,5,Eichenau (Oberbay),Bayern,Eichenau (Oberbay),82223,11.328277,48.179324,2024-07-09 02:03:00,2024-07-09 02:03:00,2024-07-09 02:03:00,2024-07-09 02:04:00,0,1,
150,8635180695645416209-2407090014-2,,Frankfurt(Main)Hbf,8010097,3,Eisenach,Thüringen,Eisenach,99817,10.331986,50.976922,2024-07-09 02:08:00,2024-07-09 02:10:00,2024-07-09 02:04:00,2024-07-09 02:10:00,-4,0,
151,-3927096025170759993-2407090143-4,7,Hamburg Hbf|Hamburg Dammtor|Pinneberg,8000092,3,Elmshorn,Schleswig-Holstein,Elmshorn,25335,9.659408,53.754025,2024-07-09 02:10:00,2024-07-09 02:11:00,2024-07-09 02:10:00,2024-07-09 02:11:00,0,0,
152,4471729078023853954-2407090025-6,,Berlin Hbf|Berlin Südkreuz|Lutherstadt Wittenberg Hbf|Bitterfeld|Leipzig Hbf,8010101,2,Erfurt Hbf,Thüringen,Erfurt,99084,11.0379928,50.9723561,2024-07-09 02:50:00,,2024-07-09 02:44:00,,-6,0,Information
153,5345924912571245273-2407082134-12,,Hamburg-Altona|Hamburg Dammtor|Hamburg Hbf|Büchen|Ludwigslust|Wittenberge|Berlin-Spandau|Berlin Hbf|Berlin Südkreuz|Lutherstadt Wittenberg Hbf|Leipzig Hbf,8010101,2,Erfurt Hbf,Thüringen,Erfurt,99084,11.0379928,50.9723561,2024-07-09 02:11:00,2024-07-09 02:13:00,2024-07-09 02:12:00,2024-07-09 02:14:00,1,1,
154,8635180695645416209-2407090014-4,,Frankfurt(Main)Hbf|Eisenach|Gotha,8010101,2,Erfurt Hbf,Thüringen,Erfurt,99084,11.0379928,50.9723561,2024-07-09 02:39:00,2024-07-09 02:41:00,2024-07-09 02:38:00,2024-07-09 02:41:00,-1,0,
155,-1251565744844871983-2407090236-4,19,Aachen Hbf|Aachen-Rothe Erde|Stolberg(Rheinl)Hbf,8001886,4,Eschweiler Hbf,Nordrhein-Westfalen,Eschweiler,52249,6.251937,50.813532,2024-07-09 02:52:00,2024-07-09 02:52:00,,,0,0,Bauarbeiten. (Quelle: zuginfo.nrw)
156,-5224680247171799867-2407090209-7,19,Horrem|Sindorf|Buir|Merzenich|Düren|Langerwehe,8001886,4,Eschweiler Hbf,Nordrhein-Westfalen,Eschweiler,52249,6.251937,50.813532,2024-07-09 02:38:00,2024-07-09 02:39:00,2024-07-09 02:39:00,2024-07-09 02:39:00,1,0,Bauarbeiten. (Quelle: zuginfo.nrw)
157,8573811631662133764-2407082041-14,,München Hbf|Ingolstadt Hbf|Nürnberg Hbf|Würzburg Hbf|Aschaffenburg Hbf|Frankfurt(Main)Hbf|Frankfurt(M) Flughafen Fernbf|Limburg Süd|Montabaur|Siegburg/Bonn|Köln Messe/Deutz Gl.11-12|Düsseldorf Hbf|Duisburg Hbf,8000098,1,Essen Hbf,Nordrhein-Westfalen,Essen,45127,7.014793,51.451355,2024-07-09 02:54:00,2024-07-09 02:56:00,2024-07-09 03:24:00,2024-07-09 03:25:00,30,29,Information
158,2774174590951633862-2407082228-11,,Hamburg-Altona|Hamburg Dammtor|Hamburg Hbf|Hamburg-Harburg|Bremen Hbf|Osnabrück Hbf|Münster(Westf)Hbf|Hamm(Westf)Hbf|Dortmund Hbf|Bochum Hbf,8000098,1,Essen Hbf,Nordrhein-Westfalen,Essen,45127,7.014793,51.451355,2024-07-09 02:07:00,2024-07-09 02:09:00,2024-07-09 02:08:00,2024-07-09 02:10:00,1,1,Information
159,2851551822660401321-2407090151-15,,Dortmund Hbf|Dortmund-Dorstfeld|Dortmund-Dorstfeld Süd|Dortmund Universität|Dortmund-Oespel|Dortmund-Kley|Bochum-Langendreer|Bochum-Langendreer West|Bochum Hbf|Bochum-Ehrenfeld|Wattenscheid-Höntrop|Essen-Eiberg|Essen-Steele Ost|Essen-Steele,8000098,1,Essen Hbf,Nordrhein-Westfalen,Essen,45127,7.014793,51.451355,2024-07-09 02:35:00,,2024-07-09 02:35:00,,0,0,Information. (Quelle: zuginfo.nrw)
160,-4068911222865023920-2407090222-5,1,Düsseldorf Hbf|Düsseldorf Flughafen|Duisburg Hbf|Mülheim(Ruhr)Hbf,8000098,1,Essen Hbf,Nordrhein-Westfalen,Essen,45127,7.014793,51.451355,2024-07-09 02:50:00,2024-07-09 02:52:00,2024-07-09 02:50:00,2024-07-09 02:52:00,0,0,
161,-5463405634008665571-2407090137-17,1,Düsseldorf Hbf|Düsseldorf Wehrhahn|Düsseldorf-Zoo|Düsseldorf-Derendorf|Düsseldorf-Unterrath|Düsseldorf Flughafen|Angermund|Duisburg-Rahm|Duisburg-Großenbaum|Duisburg-Buchholz|Duisburg-Schlenk|Duisburg Hbf|Mülheim(Ruhr)Styrum|Mülheim(Ruhr)Hbf|Essen-Frohnhausen|Essen West,8000098,1,Essen Hbf,Nordrhein-Westfalen,Essen,45127,7.014793,51.451355,2024-07-09 02:25:00,2024-07-09 02:26:00,2024-07-09 02:25:00,2024-07-09 02:26:00,0,0,Information. (Quelle: zuginfo.nrw)
162,1031466248248489431-2407090117-14,,Dortmund Hbf|Dortmund-Dorstfeld|Dortmund-Wischlingen|Dortmund-Huckarde|Dortmund-Westerfilde|Dortmund-Nette/Oestrich|Dortmund-Mengede|Castrop-Rauxel Hbf|Herne|Wanne-Eickel Hbf|Gelsenkirchen Hbf|Gelsenkirchen-Rotthausen|Essen-Kray Nord,8000098,1,Essen Hbf,Nordrhein-Westfalen,Essen,45127,7.014793,51.451355,2024-07-09 02:06:00,,2024-07-09 02:08:00,,2,0,Bauarbeiten. (Quelle: zuginfo.nrw)
163,-1738621519980832698-2407090156-6,,Kettwig|Essen-Werden|Essen-Hügel|Essen Stadtwald|Essen Süd,8000098,1,Essen Hbf,Nordrhein-Westfalen,Essen,45127,7.014793,51.451355,2024-07-09 02:12:00,,2024-07-09 02:12:00,,0,0,Bauarbeiten. (Quelle: zuginfo.nrw)
164,3839062782000571422-2407090151-10,S6,Düsseldorf-Unterrath|Düsseldorf-Rath Mitte|Düsseldorf-Rath|Ratingen Ost|Hösel|Kettwig Stausee|Kettwig|Essen-Werden|Essen-Hügel,8001896,4,Essen Stadtwald,Nordrhein-Westfalen,Essen,45134,7.023296,51.422853,2024-07-09 02:54:00,2024-07-09 02:54:00,2024-07-09 02:54:00,2024-07-09 02:54:00,0,0,
165,-1738621519980832698-2407090156-4,6,Kettwig|Essen-Werden|Essen-Hügel,8001896,4,Essen Stadtwald,Nordrhein-Westfalen,Essen,45134,7.023296,51.422853,2024-07-09 02:06:00,2024-07-09 02:06:00,2024-07-09 02:06:00,2024-07-09 02:06:00,0,0,Bauarbeiten. (Quelle: zuginfo.nrw)
166,-1738621519980832698-2407090156-5,6,Kettwig|Essen-Werden|Essen-Hügel|Essen Stadtwald,8001897,5,Essen Süd,Nordrhein-Westfalen,Essen,45136,7.023098,51.439295,2024-07-09 02:08:00,2024-07-09 02:09:00,2024-07-09 02:08:00,2024-07-09 02:10:00,0,1,Bauarbeiten. (Quelle: zuginfo.nrw)
167,-5463405634008665571-2407090137-16,1,Düsseldorf Hbf|Düsseldorf Wehrhahn|Düsseldorf-Zoo|Düsseldorf-Derendorf|Düsseldorf-Unterrath|Düsseldorf Flughafen|Angermund|Duisburg-Rahm|Duisburg-Großenbaum|Duisburg-Buchholz|Duisburg-Schlenk|Duisburg Hbf|Mülheim(Ruhr)Styrum|Mülheim(Ruhr)Hbf|Essen-Frohnhausen,8001898,4,Essen West,Nordrhein-Westfalen,Essen,45144,6.979798,51.454497,2024-07-09 02:22:00,2024-07-09 02:22:00,2024-07-09 02:22:00,2024-07-09 02:22:00,0,0,Information. (Quelle: zuginfo.nrw)
168,-1692443697590914603-2407090121-6,EM24,Dortmund Hbf|Castrop-Rauxel Hbf|Herne|Wanne-Eickel Hbf|Gelsenkirchen Hbf,8001900,5,Essen-Altenessen,Nordrhein-Westfalen,Essen,45326,7.007252,51.48437,2024-07-09 02:04:00,2024-07-09 02:04:00,2024-07-09 02:05:00,2024-07-09 02:04:00,1,0,
169,-1391171448654195053-2407090109-6,EM24,Köln Hbf|Köln Messe/Deutz|Düsseldorf Hbf|Duisburg Hbf|Oberhausen Hbf,8001900,5,Essen-Altenessen,Nordrhein-Westfalen,Essen,45326,7.007252,51.48437,2024-07-09 02:08:00,2024-07-09 02:09:00,,,0,0,
170,2851551822660401321-2407090151-12,1,Dortmund Hbf|Dortmund-Dorstfeld|Dortmund-Dorstfeld Süd|Dortmund Universität|Dortmund-Oespel|Dortmund-Kley|Bochum-Langendreer|Bochum-Langendreer West|Bochum Hbf|Bochum-Ehrenfeld|Wattenscheid-Höntrop,8001905,5,Essen-Eiberg,Nordrhein-Westfalen,Essen,45279,7.109691,51.441814,2024-07-09 02:25:00,2024-07-09 02:26:00,2024-07-09 02:26:00,2024-07-09 02:27:00,1,1,Information. (Quelle: zuginfo.nrw)
171,-5463405634008665571-2407090137-20,1,Düsseldorf Hbf|Düsseldorf Wehrhahn|Düsseldorf-Zoo|Düsseldorf-Derendorf|Düsseldorf-Unterrath|Düsseldorf Flughafen|Angermund|Duisburg-Rahm|Duisburg-Großenbaum|Duisburg-Buchholz|Duisburg-Schlenk|Duisburg Hbf|Mülheim(Ruhr)Styrum|Mülheim(Ruhr)Hbf|Essen-Frohnhausen|Essen West|Essen Hbf|Essen-Steele|Essen-Steele Ost,8001905,5,Essen-Eiberg,Nordrhein-Westfalen,Essen,45279,7.109691,51.441814,2024-07-09 02:34:00,2024-07-09 02:34:00,2024-07-09 02:34:00,2024-07-09 02:35:00,0,1,Information. (Quelle: zuginfo.nrw)
172,-5463405634008665571-2407090137-15,1,Düsseldorf Hbf|Düsseldorf Wehrhahn|Düsseldorf-Zoo|Düsseldorf-Derendorf|Düsseldorf-Unterrath|Düsseldorf Flughafen|Angermund|Duisburg-Rahm|Duisburg-Großenbaum|Duisburg-Buchholz|Duisburg-Schlenk|Duisburg Hbf|Mülheim(Ruhr)Styrum|Mülheim(Ruhr)Hbf,8001906,4,Essen-Frohnhausen,Nordrhein-Westfalen,Essen,45144,6.965285,51.455113,2024-07-09 02:20:00,2024-07-09 02:20:00,2024-07-09 02:20:00,2024-07-09 02:21:00,0,1,Information. (Quelle: zuginfo.nrw)
173,3839062782000571422-2407090151-9,S6,Düsseldorf-Unterrath|Düsseldorf-Rath Mitte|Düsseldorf-Rath|Ratingen Ost|Hösel|Kettwig Stausee|Kettwig|Essen-Werden,8001908,5,Essen-Hügel,Nordrhein-Westfalen,Essen,45133,7.00882137,51.4045167,2024-07-09 02:50:00,2024-07-09 02:50:00,2024-07-09 02:50:00,2024-07-09 02:50:00,0,0,
174,-1738621519980832698-2407090156-3,6,Kettwig|Essen-Werden,8001908,5,Essen-Hügel,Nordrhein-Westfalen,Essen,45133,7.00882137,51.4045167,2024-07-09 02:03:00,2024-07-09 02:03:00,2024-07-09 02:03:00,2024-07-09 02:04:00,0,1,Bauarbeiten. (Quelle: zuginfo.nrw)
175,2851551822660401321-2407090151-14,1,Dortmund Hbf|Dortmund-Dorstfeld|Dortmund-Dorstfeld Süd|Dortmund Universität|Dortmund-Oespel|Dortmund-Kley|Bochum-Langendreer|Bochum-Langendreer West|Bochum Hbf|Bochum-Ehrenfeld|Wattenscheid-Höntrop|Essen-Eiberg|Essen-Steele Ost,8000099,4,Essen-Steele,Nordrhein-Westfalen,Essen,45276,7.075552,51.450684,2024-07-09 02:30:00,2024-07-09 02:31:00,2024-07-09 02:31:00,2024-07-09 02:32:00,1,1,Information. (Quelle: zuginfo.nrw)
176,-5463405634008665571-2407090137-18,1,Düsseldorf Hbf|Düsseldorf Wehrhahn|Düsseldorf-Zoo|Düsseldorf-Derendorf|Düsseldorf-Unterrath|Düsseldorf Flughafen|Angermund|Duisburg-Rahm|Duisburg-Großenbaum|Duisburg-Buchholz|Duisburg-Schlenk|Duisburg Hbf|Mülheim(Ruhr)Styrum|Mülheim(Ruhr)Hbf|Essen-Frohnhausen|Essen West|Essen Hbf,8000099,4,Essen-Steele,Nordrhein-Westfalen,Essen,45276,7.075552,51.450684,2024-07-09 02:30:00,2024-07-09 02:30:00,2024-07-09 02:30:00,2024-07-09 02:31:00,0,1,Information. (Quelle: zuginfo.nrw)
177,2851551822660401321-2407090151-13,1,Dortmund Hbf|Dortmund-Dorstfeld|Dortmund-Dorstfeld Süd|Dortmund Universität|Dortmund-Oespel|Dortmund-Kley|Bochum-Langendreer|Bochum-Langendreer West|Bochum Hbf|Bochum-Ehrenfeld|Wattenscheid-Höntrop|Essen-Eiberg,8001913,4,Essen-Steele Ost,Nordrhein-Westfalen,Essen,45276,7.088561,51.444201,2024-07-09 02:28:00,2024-07-09 02:29:00,2024-07-09 02:28:00,2024-07-09 02:29:00,0,0,Information. (Quelle: zuginfo.nrw)
178,-5463405634008665571-2407090137-19,1,Düsseldorf Hbf|Düsseldorf Wehrhahn|Düsseldorf-Zoo|Düsseldorf-Derendorf|Düsseldorf-Unterrath|Düsseldorf Flughafen|Angermund|Duisburg-Rahm|Duisburg-Großenbaum|Duisburg-Buchholz|Duisburg-Schlenk|Duisburg Hbf|Mülheim(Ruhr)Styrum|Mülheim(Ruhr)Hbf|Essen-Frohnhausen|Essen West|Essen Hbf|Essen-Steele,8001913,4,Essen-Steele Ost,Nordrhein-Westfalen,Essen,45276,7.088561,51.444201,2024-07-09 02:32:00,2024-07-09 02:32:00,2024-07-09 02:32:00,2024-07-09 02:33:00,0,1,Information. (Quelle: zuginfo.nrw)
179,3839062782000571422-2407090151-8,S6,Düsseldorf-Unterrath|Düsseldorf-Rath Mitte|Düsseldorf-Rath|Ratingen Ost|Hösel|Kettwig Stausee|Kettwig,8001915,5,Essen-Werden,Nordrhein-Westfalen,Essen,45239,6.997845,51.386828,2024-07-09 02:47:00,2024-07-09 02:47:00,2024-07-09 02:47:00,2024-07-09 02:47:00,0,0,
180,-1738621519980832698-2407090156-2,6,Kettwig,8001915,5,Essen-Werden,Nordrhein-Westfalen,Essen,45239,6.997845,51.386828,2024-07-09 02:00:00,2024-07-09 02:00:00,2024-07-09 02:00:00,2024-07-09 02:01:00,0,1,Bauarbeiten. (Quelle: zuginfo.nrw)
181,-2129993292912858999-2407090056-27,3,Holzkirchen|Otterfing|Sauerlach|Deisenhofen|Furth(b Deisenhofen)|Taufkirchen|Unterhaching|Fasanenpark|München-Fasangarten|München-Giesing|München St.Martin-Str.|München Ost|München Rosenheimer Platz|München Isartor|München Marienplatz|München Karlsplatz|München Hbf (tief)|München Hackerbrücke|München Donnersbergerbrücke|München Hirschgarten|München-Laim|München-Pasing|München-Langwied|München-Lochhausen|Gröbenzell|Olching,8001996,4,Esting,Bayern,Esting,82140,11.317322,48.212196,2024-07-09 02:02:00,2024-07-09 02:03:00,2024-07-09 02:02:00,2024-07-09 02:03:00,0,0,Bauarbeiten
182,-2739961280303132791-2407090109-8,RB84,Kiel Hbf|Kiel-Elmschenhagen|Raisdorf|Preetz|Ascheberg(Holst)|Plön|Bad Malente-Gremsmühlen,8001941,5,Eutin,Schleswig-Holstein,Eutin,23701,10.610123,54.135343,2024-07-09 01:59:00,2024-07-09 02:00:00,2024-07-09 01:58:00,2024-07-09 02:00:00,-1,0,
183,7451169596740133223-2407090139-12,8,Flughafen BER|Berlin Ostkreuz|Berlin Ostbahnhof|Berlin Alexanderplatz|Berlin Friedrichstraße|Berlin Hbf|Berlin Zoologischer Garten|Berlin-Charlottenburg|Berlin-Spandau|Albrechtshof|Seegefeld,8013479,5,Falkensee,Brandenburg,Falkensee,14612,13.089636,52.559772,2024-07-09 02:42:00,2024-07-09 02:43:00,2024-07-09 02:42:00,2024-07-09 02:43:00,0,0,
184,2177444777121604897-2407090202-4,8,Nauen|Brieselang|Finkenkrug,8013479,5,Falkensee,Brandenburg,Falkensee,14612,13.089636,52.559772,2024-07-09 02:16:00,2024-07-09 02:17:00,2024-07-09 02:16:00,2024-07-09 02:17:00,0,0,
185,2081981143221818074-2407090042-34,6,Ebersberg(Oberbay)|Grafing Stadt|Grafing Bahnhof|Kirchseeon|Eglharting|Zorneding|Baldham|Vaterstetten|Haar|Gronsdorf|München-Trudering|München-Berg am Laim|München Leuchtenbergring|München Ost|München Rosenheimer Platz|München Isartor|München Marienplatz|München Karlsplatz|München Hbf (tief)|München Hackerbrücke|München Donnersbergerbrücke|München Hirschgarten|München-Laim|München-Pasing|München-Westkreuz|Lochham|Gräfelfing|Planegg|Stockdorf|Gauting|Starnberg Nord|Starnberg|Possenhofen,8001970,5,Feldafing,Bayern,Feldafing,82340,11.290224,47.946938,2024-07-09 02:11:00,2024-07-09 02:11:00,2024-07-09 02:11:00,2024-07-09 02:12:00,0,1,Bauarbeiten
186,-375193516917097449-2407082330-3,,Hamburg Hbf|Schleswig,8000103,3,Flensburg,Schleswig-Holstein,Flensburg,24937,9.436526,54.774039,2024-07-09 02:05:00,2024-07-09 02:57:00,2024-07-09 02:00:00,2024-07-09 02:57:00,-5,0,Information
187,6083777965903075352-2407090045-32,,Herrsching|Seefeld-Hechendorf|Steinebach|Weßling(Oberbay)|Neugilching|Gilching-Argelsried|Geisenbrunn|Germering-Unterpfaffenhofen|Harthaus|München-Freiham|München-Neuaubing|München-Westkreuz|München-Pasing|München-Laim|München Hirschgarten|München Donnersbergerbrücke|München Hackerbrücke|München Hbf (tief)|München Karlsplatz|München Marienplatz|München Isartor|München Rosenheimer Platz|München Ost|München Leuchtenbergring|München-Daglfing|München-Englschalking|München-Johanneskirchen|Unterföhring|Ismaning|Hallbergmoos|München Flughafen Besucherpark,8004168,4,Flughafen München,Bayern,Oberding,85356,11.78597,48.353728,2024-07-09 02:15:00,,2024-07-09 02:15:00,,0,0,
188,6083777965903075352-2407090045-31,8,Herrsching|Seefeld-Hechendorf|Steinebach|Weßling(Oberbay)|Neugilching|Gilching-Argelsried|Geisenbrunn|Germering-Unterpfaffenhofen|Harthaus|München-Freiham|München-Neuaubing|München-Westkreuz|München-Pasing|München-Laim|München Hirschgarten|München Donnersbergerbrücke|München Hackerbrücke|München Hbf (tief)|München Karlsplatz|München Marienplatz|München Isartor|München Rosenheimer Platz|München Ost|München Leuchtenbergring|München-Daglfing|München-Englschalking|München-Johanneskirchen|Unterföhring|Ismaning|Hallbergmoos,8004167,4,Flughafen München Besucherpark,Bayern,Freising,85354,11.764185,48.352095,2024-07-09 02:13:00,2024-07-09 02:13:00,2024-07-09 02:13:00,2024-07-09 02:13:00,0,0,
189,-4826584964964001816-2407090148-12,8,Wiesbaden Hbf|Wiesbaden Ost|Mainz Nord|Mainz Hbf|Mainz Römisches Theater|Mainz-Gustavsburg|Mainz-Bischofsheim|Rüsselsheim Opelwerk|Rüsselsheim|Raunheim|Kelsterbach,8070004,3,Frankfurt (Main) Flughafen Regionalbahnhof,Hessen,Frankfurt am Main,60549,8.571251,50.051219,2024-07-09 02:28:00,2024-07-09 02:30:00,2024-07-09 02:29:00,2024-07-09 02:30:00,1,0,
190,-6082121702503471423-2407090241-8,8,Frankfurt(M)Konstablerwache|Frankfurt(M)Hauptwache|Frankfurt(M)Taunusanlage|Frankfurt Hbf (tief)|Frankfurt-Niederrad|Frankfurt am Main - Stadion|Frankfurt(Main)-Gateway Gardens,8070004,3,Frankfurt (Main) Flughafen Regionalbahnhof,Hessen,Frankfurt am Main,60549,8.571251,50.051219,2024-07-09 02:58:00,2024-07-09 03:00:00,,,0,0,
191,3514472050270834834-2407090146-18,8,Hanau Hbf|Steinheim(Main)|Mühlheim(Main)-Dietesheim|Mühlheim(Main)|Offenbach(Main)Ost|Offenbach(Main) Marktplatz|Offenbach(Main) Ledermuseum|Offenbach(Main) Kaiserlei|Frankfurt(M)Mühlberg|Frankfurt(M)Ostendstraße|Frankfurt(M)Konstablerwache|Frankfurt(M)Hauptwache|Frankfurt(M)Taunusanlage|Frankfurt Hbf (tief)|Frankfurt-Niederrad|Frankfurt am Main - Stadion|Frankfurt(Main)-Gateway Gardens,8070004,3,Frankfurt (Main) Flughafen Regionalbahnhof,Hessen,Frankfurt am Main,60549,8.571251,50.051219,2024-07-09 02:28:00,2024-07-09 02:30:00,2024-07-09 02:29:00,2024-07-09 02:30:00,1,0,
192,501314707182108660-2407090254-2,8,Kelsterbach,8070004,3,Frankfurt (Main) Flughafen Regionalbahnhof,Hessen,Frankfurt am Main,60549,8.571251,50.051219,2024-07-09 02:58:00,2024-07-09 03:00:00,,,0,0,
193,3515187764246756729-2407090154-2,8,Kelsterbach,8070004,3,Frankfurt (Main) Flughafen Regionalbahnhof,Hessen,Frankfurt am Main,60549,8.571251,50.051219,2024-07-09 01:58:00,2024-07-09 02:00:00,2024-07-09 01:58:00,2024-07-09 02:00:00,0,0,
194,-2935403299626827438-2407090116-18,8,Hanau Hbf|Steinheim(Main)|Mühlheim(Main)-Dietesheim|Mühlheim(Main)|Offenbach(Main)Ost|Offenbach(Main) Marktplatz|Offenbach(Main) Ledermuseum|Offenbach(Main) Kaiserlei|Frankfurt(M)Mühlberg|Frankfurt(M)Ostendstraße|Frankfurt(M)Konstablerwache|Frankfurt(M)Hauptwache|Frankfurt(M)Taunusanlage|Frankfurt Hbf (tief)|Frankfurt-Niederrad|Frankfurt am Main - Stadion|Frankfurt(Main)-Gateway Gardens,8070004,3,Frankfurt (Main) Flughafen Regionalbahnhof,Hessen,Frankfurt am Main,60549,8.571251,50.051219,2024-07-09 01:58:00,2024-07-09 02:00:00,2024-07-09 02:00:00,2024-07-09 02:00:00,2,0,
195,-4826584964964001816-2407090148-21,8,Wiesbaden Hbf|Wiesbaden Ost|Mainz Nord|Mainz Hbf|Mainz Römisches Theater|Mainz-Gustavsburg|Mainz-Bischofsheim|Rüsselsheim Opelwerk|Rüsselsheim|Raunheim|Kelsterbach|Frankfurt(M) Flughafen Regionalbf|Frankfurt(Main)-Gateway Gardens|Frankfurt am Main - Stadion|Frankfurt-Niederrad|Frankfurt Hbf (tief)|Frankfurt(M)Taunusanlage|Frankfurt(M)Hauptwache|Frankfurt(M)Konstablerwache|Frankfurt(M)Ostendstraße,8002034,4,Frankfurt (Main) Mühlberg,Hessen,Frankfurt am Main,60599,8.701504,50.101609,2024-07-09 02:53:00,2024-07-09 02:53:00,2024-07-09 02:53:00,2024-07-09 02:53:00,0,0,
196,3514472050270834834-2407090146-9,8,Hanau Hbf|Steinheim(Main)|Mühlheim(Main)-Dietesheim|Mühlheim(Main)|Offenbach(Main)Ost|Offenbach(Main) Marktplatz|Offenbach(Main) Ledermuseum|Offenbach(Main) Kaiserlei,8002034,4,Frankfurt (Main) Mühlberg,Hessen,Frankfurt am Main,60599,8.701504,50.101609,2024-07-09 02:06:00,2024-07-09 02:07:00,2024-07-09 02:07:00,2024-07-09 02:08:00,1,1,
197,-4826584964964001816-2407090148-20,8,Wiesbaden Hbf|Wiesbaden Ost|Mainz Nord|Mainz Hbf|Mainz Römisches Theater|Mainz-Gustavsburg|Mainz-Bischofsheim|Rüsselsheim Opelwerk|Rüsselsheim|Raunheim|Kelsterbach|Frankfurt(M) Flughafen Regionalbf|Frankfurt(Main)-Gateway Gardens|Frankfurt am Main - Stadion|Frankfurt-Niederrad|Frankfurt Hbf (tief)|Frankfurt(M)Taunusanlage|Frankfurt(M)Hauptwache|Frankfurt(M)Konstablerwache,8002058,3,Frankfurt (Main) Ostendstraße,Hessen,Frankfurt am Main,60314,8.696987,50.112562,2024-07-09 02:51:00,2024-07-09 02:51:00,2024-07-09 02:51:00,2024-07-09 02:51:00,0,0,
198,3514472050270834834-2407090146-10,8,Hanau Hbf|Steinheim(Main)|Mühlheim(Main)-Dietesheim|Mühlheim(Main)|Offenbach(Main)Ost|Offenbach(Main) Marktplatz|Offenbach(Main) Ledermuseum|Offenbach(Main) Kaiserlei|Frankfurt(M)Mühlberg,8002058,3,Frankfurt (Main) Ostendstraße,Hessen,Frankfurt am Main,60314,8.696987,50.112562,2024-07-09 02:09:00,2024-07-09 02:09:00,2024-07-09 02:09:00,2024-07-09 02:10:00,0,1,
199,3514472050270834834-2407090146-16,8,Hanau Hbf|Steinheim(Main)|Mühlheim(Main)-Dietesheim|Mühlheim(Main)|Offenbach(Main)Ost|Offenbach(Main) Marktplatz|Offenbach(Main) Ledermuseum|Offenbach(Main) Kaiserlei|Frankfurt(M)Mühlberg|Frankfurt(M)Ostendstraße|Frankfurt(M)Konstablerwache|Frankfurt(M)Hauptwache|Frankfurt(M)Taunusanlage|Frankfurt Hbf (tief)|Frankfurt-Niederrad,8002040,3,Frankfurt am Main Stadion,Hessen,Frankfurt am Main,60528,8.633247,50.068228,2024-07-09 02:23:00,2024-07-09 02:23:00,2024-07-09 02:23:00,2024-07-09 02:23:00,0,0,
200,3515187764246756729-2407090154-4,8,Kelsterbach|Frankfurt(M) Flughafen Regionalbf|Frankfurt(Main)-Gateway Gardens,8002040,3,Frankfurt am Main Stadion,Hessen,Frankfurt am Main,60528,8.633247,50.068228,2024-07-09 02:06:00,2024-07-09 02:06:00,2024-07-09 02:05:00,2024-07-09 02:06:00,-1,0,
201,-4826584964964001816-2407090148-14,8,Wiesbaden Hbf|Wiesbaden Ost|Mainz Nord|Mainz Hbf|Mainz Römisches Theater|Mainz-Gustavsburg|Mainz-Bischofsheim|Rüsselsheim Opelwerk|Rüsselsheim|Raunheim|Kelsterbach|Frankfurt(M) Flughafen Regionalbf|Frankfurt(Main)-Gateway Gardens,8002040,3,Frankfurt am Main Stadion,Hessen,Frankfurt am Main,60528,8.633247,50.068228,2024-07-09 02:36:00,2024-07-09 02:36:00,2024-07-09 02:35:00,2024-07-09 02:36:00,-1,0,
202,-6082121702503471423-2407090241-6,8,Frankfurt(M)Konstablerwache|Frankfurt(M)Hauptwache|Frankfurt(M)Taunusanlage|Frankfurt Hbf (tief)|Frankfurt-Niederrad,8002040,3,Frankfurt am Main Stadion,Hessen,Frankfurt am Main,60528,8.633247,50.068228,2024-07-09 02:53:00,2024-07-09 02:53:00,,,0,0,
203,8633487569083947263-2407082018-5,,Berlin Hbf|Berlin Südkreuz|Halle(Saale)Hbf|Erfurt Hbf,8002041,2,Frankfurt (Main) Süd,Hessen,Frankfurt am Main,60594,8.686457,50.099365,2024-07-09 02:10:00,2024-07-09 02:12:00,,,0,0,Information
204,-8413702927124024000-2407082018-5,,Berlin Hbf|Berlin Südkreuz|Halle(Saale)Hbf|Erfurt Hbf,8002041,2,Frankfurt (Main) Süd,Hessen,Frankfurt am Main,60594,8.686457,50.099365,2024-07-09 02:10:00,2024-07-09 02:12:00,,,0,0,Bauarbeiten
205,1003446772902483359-2407082059-11,,Zürich HB|Basel SBB|Basel Bad Bf|Freiburg(Breisgau) Hbf|Offenburg|Baden-Baden|Karlsruhe Hbf|Bruchsal|Heidelberg Hbf|Darmstadt Hbf,8002041,2,Frankfurt (Main) Süd,Hessen,Frankfurt am Main,60594,8.686457,50.099365,2024-07-09 02:09:00,2024-07-09 02:14:00,2024-07-09 02:14:00,2024-07-09 02:17:00,5,3,Bauarbeiten
206,-5591597380485360579-2407082059-11,,Zürich HB|Basel SBB|Basel Bad Bf|Freiburg(Breisgau) Hbf|Offenburg|Baden-Baden|Karlsruhe Hbf|Bruchsal|Heidelberg Hbf|Darmstadt Hbf,8002041,2,Frankfurt (Main) Süd,Hessen,Frankfurt am Main,60594,8.686457,50.099365,2024-07-09 02:09:00,2024-07-09 02:14:00,2024-07-09 02:14:00,2024-07-09 02:17:00,5,3,
207,-4826584964964001816-2407090148-17,8,Wiesbaden Hbf|Wiesbaden Ost|Mainz Nord|Mainz Hbf|Mainz Römisches Theater|Mainz-Gustavsburg|Mainz-Bischofsheim|Rüsselsheim Opelwerk|Rüsselsheim|Raunheim|Kelsterbach|Frankfurt(M) Flughafen Regionalbf|Frankfurt(Main)-Gateway Gardens|Frankfurt am Main - Stadion|Frankfurt-Niederrad|Frankfurt Hbf (tief),8006691,3,Frankfurt (Main) Taunusanlage,Hessen,Frankfurt am Main,60325,8.668864,50.113565,2024-07-09 02:46:00,2024-07-09 02:46:00,2024-07-09 02:46:00,2024-07-09 02:46:00,0,0,
208,-6082121702503471423-2407090241-3,8,Frankfurt(M)Konstablerwache|Frankfurt(M)Hauptwache,8006691,3,Frankfurt (Main) Taunusanlage,Hessen,Frankfurt am Main,60325,8.668864,50.113565,2024-07-09 02:44:00,2024-07-09 02:44:00,,,0,0,
209,3514472050270834834-2407090146-13,8,Hanau Hbf|Steinheim(Main)|Mühlheim(Main)-Dietesheim|Mühlheim(Main)|Offenbach(Main)Ost|Offenbach(Main) Marktplatz|Offenbach(Main) Ledermuseum|Offenbach(Main) Kaiserlei|Frankfurt(M)Mühlberg|Frankfurt(M)Ostendstraße|Frankfurt(M)Konstablerwache|Frankfurt(M)Hauptwache,8006691,3,Frankfurt (Main) Taunusanlage,Hessen,Frankfurt am Main,60325,8.668864,50.113565,2024-07-09 02:14:00,2024-07-09 02:14:00,2024-07-09 02:14:00,2024-07-09 02:15:00,0,1,
210,3515187764246756729-2407090154-7,8,Kelsterbach|Frankfurt(M) Flughafen Regionalbf|Frankfurt(Main)-Gateway Gardens|Frankfurt am Main - Stadion|Frankfurt-Niederrad|Frankfurt Hbf (tief),8006691,3,Frankfurt (Main) Taunusanlage,Hessen,Frankfurt am Main,60325,8.668864,50.113565,2024-07-09 02:16:00,2024-07-09 02:16:00,2024-07-09 02:16:00,2024-07-09 02:16:00,0,0,
211,-4260303879357693186-2407090206-3,1,Frankfurt(M)Konstablerwache|Frankfurt(M)Hauptwache,8006691,3,Frankfurt (Main) Taunusanlage,Hessen,Frankfurt am Main,60325,8.668864,50.113565,2024-07-09 02:09:00,2024-07-09 02:09:00,2024-07-09 02:09:00,2024-07-09 02:09:00,0,0,
212,58133983524038883-2407082321-36,,Magdeburg Hbf|Magdeburg-Neustadt|Magdeburg Herrenkrug|Biederitz|Gerwisch|Möser|Burg(Magdeburg)|Güsen(b Genthin)|Genthin|Wusterwitz|Kirchmöser|Brandenburg Hbf|Götz|Groß Kreutz|Werder(Havel)|Potsdam Park Sanssouci|Potsdam Charlottenhof|Potsdam Hbf|Berlin-Wannsee|Berlin-Charlottenburg|Berlin Zoologischer Garten|Berlin Hbf|Berlin Friedrichstraße|Berlin Alexanderplatz|Berlin Ostbahnhof|Berlin Ostkreuz|Erkner|Fangschleuse|Hangelsberg|Fürstenwalde(Spree)|Berkenbrück|Briesen(Mark)|Jacobsdorf(Mark)|Pillgram|Frankfurt(Oder)-Rosengarten,8010113,2,Frankfurt (Oder),Brandenburg,Frankfurt (Oder),15230,14.546496,52.336416,2024-07-09 02:37:00,,2024-07-09 02:37:00,,0,0,
213,-4826584964964001816-2407090148-18,8,Wiesbaden Hbf|Wiesbaden Ost|Mainz Nord|Mainz Hbf|Mainz Römisches Theater|Mainz-Gustavsburg|Mainz-Bischofsheim|Rüsselsheim Opelwerk|Rüsselsheim|Raunheim|Kelsterbach|Frankfurt(M) Flughafen Regionalbf|Frankfurt(Main)-Gateway Gardens|Frankfurt am Main - Stadion|Frankfurt-Niederrad|Frankfurt Hbf (tief)|Frankfurt(M)Taunusanlage,8006692,3,Frankfurt (Main) Hauptwache,Hessen,Frankfurt am Main,60313,8.678947,50.113926,2024-07-09 02:47:00,2024-07-09 02:48:00,2024-07-09 02:47:00,2024-07-09 02:48:00,0,0,
214,-6082121702503471423-2407090241-2,8,Frankfurt(M)Konstablerwache,8006692,3,Frankfurt (Main) Hauptwache,Hessen,Frankfurt am Main,60313,8.678947,50.113926,2024-07-09 02:42:00,2024-07-09 02:43:00,,,0,0,
215,3514472050270834834-2407090146-12,8,Hanau Hbf|Steinheim(Main)|Mühlheim(Main)-Dietesheim|Mühlheim(Main)|Offenbach(Main)Ost|Offenbach(Main) Marktplatz|Offenbach(Main) Ledermuseum|Offenbach(Main) Kaiserlei|Frankfurt(M)Mühlberg|Frankfurt(M)Ostendstraße|Frankfurt(M)Konstablerwache,8006692,3,Frankfurt (Main) Hauptwache,Hessen,Frankfurt am Main,60313,8.678947,50.113926,2024-07-09 02:12:00,2024-07-09 02:13:00,2024-07-09 02:12:00,2024-07-09 02:13:00,0,0,
216,3515187764246756729-2407090154-8,8,Kelsterbach|Frankfurt(M) Flughafen Regionalbf|Frankfurt(Main)-Gateway Gardens|Frankfurt am Main - Stadion|Frankfurt-Niederrad|Frankfurt Hbf (tief)|Frankfurt(M)Taunusanlage,8006692,3,Frankfurt (Main) Hauptwache,Hessen,Frankfurt am Main,60313,8.678947,50.113926,2024-07-09 02:17:00,2024-07-09 02:18:00,2024-07-09 02:17:00,2024-07-09 02:18:00,0,0,
217,-4260303879357693186-2407090206-2,1,Frankfurt(M)Konstablerwache,8006692,3,Frankfurt (Main) Hauptwache,Hessen,Frankfurt am Main,60313,8.678947,50.113926,2024-07-09 02:07:00,2024-07-09 02:08:00,2024-07-09 02:06:00,2024-07-09 02:08:00,-1,0,
218,-4826584964964001816-2407090148-19,8,Wiesbaden Hbf|Wiesbaden Ost|Mainz Nord|Mainz Hbf|Mainz Römisches Theater|Mainz-Gustavsburg|Mainz-Bischofsheim|Rüsselsheim Opelwerk|Rüsselsheim|Raunheim|Kelsterbach|Frankfurt(M) Flughafen Regionalbf|Frankfurt(Main)-Gateway Gardens|Frankfurt am Main - Stadion|Frankfurt-Niederrad|Frankfurt Hbf (tief)|Frankfurt(M)Taunusanlage|Frankfurt(M)Hauptwache,8004429,3,Frankfurt (Main) Konstablerwache,Hessen,Frankfurt am Main,60313,8.687098,50.114623,2024-07-09 02:49:00,2024-07-09 02:50:00,2024-07-09 02:49:00,2024-07-09 02:50:00,0,0,
219,-6082121702503471423-2407090241-1,8,,8004429,3,Frankfurt (Main) Konstablerwache,Hessen,Frankfurt am Main,60313,8.687098,50.114623,,2024-07-09 02:41:00,,,0,0,
220,3514472050270834834-2407090146-11,8,Hanau Hbf|Steinheim(Main)|Mühlheim(Main)-Dietesheim|Mühlheim(Main)|Offenbach(Main)Ost|Offenbach(Main) Marktplatz|Offenbach(Main) Ledermuseum|Offenbach(Main) Kaiserlei|Frankfurt(M)Mühlberg|Frankfurt(M)Ostendstraße,8004429,3,Frankfurt (Main) Konstablerwache,Hessen,Frankfurt am Main,60313,8.687098,50.114623,2024-07-09 02:11:00,2024-07-09 02:11:00,2024-07-09 02:11:00,2024-07-09 02:12:00,0,1,
221,3515187764246756729-2407090154-9,,Kelsterbach|Frankfurt(M) Flughafen Regionalbf|Frankfurt(Main)-Gateway Gardens|Frankfurt am Main - Stadion|Frankfurt-Niederrad|Frankfurt Hbf (tief)|Frankfurt(M)Taunusanlage|Frankfurt(M)Hauptwache,8004429,3,Frankfurt (Main) Konstablerwache,Hessen,Frankfurt am Main,60313,8.687098,50.114623,2024-07-09 02:19:00,,2024-07-09 02:19:00,,0,0,
222,-4260303879357693186-2407090206-1,1,,8004429,3,Frankfurt (Main) Konstablerwache,Hessen,Frankfurt am Main,60313,8.687098,50.114623,,2024-07-09 02:06:00,,2024-07-09 02:06:00,0,0,
223,-7138074359361066746-2407081919-12,,Hamburg-Altona|Hamburg Dammtor|Hamburg Hbf|Berlin-Spandau|Berlin Hbf|Berlin Südkreuz|Lutherstadt Wittenberg Hbf|Bitterfeld|Leipzig Hbf|Erfurt Hbf|Eisenach,8000105,1,Frankfurt (Main) Hbf,Hessen,Frankfurt am Main,60329,8.663789,50.107145,2024-07-09 02:11:00,2024-07-09 02:25:00,2024-07-09 02:12:00,2024-07-09 02:27:00,1,2,
224,7108274583246193747-2407082151-9,,München Hbf|Augsburg Hbf|Günzburg|Ulm Hbf|Stuttgart Hbf|Heidelberg Hbf|Mannheim Hbf|Frankfurt(M) Flughafen Fernbf,8000105,1,Frankfurt (Main) Hbf,Hessen,Frankfurt am Main,60329,8.663789,50.107145,2024-07-09 02:40:00,2024-07-09 02:49:00,2024-07-09 02:40:00,2024-07-09 02:49:00,0,0,Information
225,4753870957390372842-2407082159-9,,Zürich HB|Basel SBB|Basel Bad Bf|Freiburg(Breisgau) Hbf|Offenburg|Baden-Baden|Karlsruhe Hbf|Mannheim Hbf,8000105,1,Frankfurt (Main) Hbf,Hessen,Frankfurt am Main,60329,8.663789,50.107145,2024-07-09 02:45:00,2024-07-09 03:13:00,2024-07-09 02:41:00,2024-07-09 03:13:00,-4,0,
226,8868050453695511606-2407082159-9,,Zürich HB|Basel SBB|Basel Bad Bf|Freiburg(Breisgau) Hbf|Offenburg|Baden-Baden|Karlsruhe Hbf|Mannheim Hbf,8000105,1,Frankfurt (Main) Hbf,Hessen,Frankfurt am Main,60329,8.663789,50.107145,2024-07-09 02:45:00,2024-07-09 03:13:00,2024-07-09 02:41:00,2024-07-09 03:13:00,-4,0,Information
227,7582314568044505717-2407082028-12,,Amsterdam Centraal|Utrecht Centraal|Arnhem Centraal|Oberhausen Hbf|Duisburg Hbf|Düsseldorf Hbf|Köln Hbf|Bonn Hbf|Koblenz Hbf|Mainz Hbf|Frankfurt(M) Flughafen Fernbf,8000105,1,Frankfurt (Main) Hbf,Hessen,Frankfurt am Main,60329,8.663789,50.107145,2024-07-09 02:20:00,2024-07-09 02:45:00,2024-07-09 02:26:00,2024-07-09 02:47:00,6,2,Information
228,-5851721557238592488-2407082028-12,,Amsterdam Centraal|Utrecht Centraal|Arnhem Centraal|Oberhausen Hbf|Duisburg Hbf|Düsseldorf Hbf|Köln Hbf|Bonn Hbf|Koblenz Hbf|Mainz Hbf|Frankfurt(M) Flughafen Fernbf,8000105,1,Frankfurt (Main) Hbf,Hessen,Frankfurt am Main,60329,8.663789,50.107145,2024-07-09 02:20:00,2024-07-09 02:45:00,2024-07-09 02:26:00,2024-07-09 02:47:00,6,2,Information
229,-4260303879357693186-2407090206-5,1,Frankfurt(M)Konstablerwache|Frankfurt(M)Hauptwache|Frankfurt(M)Taunusanlage|Frankfurt Hbf (tief),8002046,4,Frankfurt-Griesheim,Hessen,Frankfurt am Main,65933,8.606394,50.094334,2024-07-09 02:16:00,2024-07-09 02:16:00,2024-07-09 02:16:00,2024-07-09 02:16:00,0,0,
230,-4260303879357693186-2407090206-7,,Frankfurt(M)Konstablerwache|Frankfurt(M)Hauptwache|Frankfurt(M)Taunusanlage|Frankfurt Hbf (tief)|Frankfurt-Griesheim|Frankfurt-Nied,8000106,3,Frankfurt-Höchst,Hessen,Frankfurt am Main,65929,8.54237,50.102634,2024-07-09 02:22:00,,2024-07-09 02:21:00,,-1,0,
231,-4260303879357693186-2407090206-6,1,Frankfurt(M)Konstablerwache|Frankfurt(M)Hauptwache|Frankfurt(M)Taunusanlage|Frankfurt Hbf (tief)|Frankfurt-Griesheim,8002049,5,Frankfurt-Nied,Hessen,Frankfurt am Main,60325,8.570734,50.102519,2024-07-09 02:18:00,2024-07-09 02:19:00,2024-07-09 02:18:00,2024-07-09 02:19:00,0,0,
232,3514472050270834834-2407090146-15,8,Hanau Hbf|Steinheim(Main)|Mühlheim(Main)-Dietesheim|Mühlheim(Main)|Offenbach(Main)Ost|Offenbach(Main) Marktplatz|Offenbach(Main) Ledermuseum|Offenbach(Main) Kaiserlei|Frankfurt(M)Mühlberg|Frankfurt(M)Ostendstraße|Frankfurt(M)Konstablerwache|Frankfurt(M)Hauptwache|Frankfurt(M)Taunusanlage|Frankfurt Hbf (tief),8002050,3,Frankfurt (Main) Niederrad,Hessen,Frankfurt am Main,60528,8.637075,50.081283,2024-07-09 02:21:00,2024-07-09 02:21:00,2024-07-09 02:21:00,2024-07-09 02:21:00,0,0,
233,3515187764246756729-2407090154-5,8,Kelsterbach|Frankfurt(M) Flughafen Regionalbf|Frankfurt(Main)-Gateway Gardens|Frankfurt am Main - Stadion,8002050,3,Frankfurt (Main) Niederrad,Hessen,Frankfurt am Main,60528,8.637075,50.081283,2024-07-09 02:08:00,2024-07-09 02:08:00,2024-07-09 02:08:00,2024-07-09 02:08:00,0,0,
234,-4826584964964001816-2407090148-15,8,Wiesbaden Hbf|Wiesbaden Ost|Mainz Nord|Mainz Hbf|Mainz Römisches Theater|Mainz-Gustavsburg|Mainz-Bischofsheim|Rüsselsheim Opelwerk|Rüsselsheim|Raunheim|Kelsterbach|Frankfurt(M) Flughafen Regionalbf|Frankfurt(Main)-Gateway Gardens|Frankfurt am Main - Stadion,8002050,3,Frankfurt (Main) Niederrad,Hessen,Frankfurt am Main,60528,8.637075,50.081283,2024-07-09 02:38:00,2024-07-09 02:38:00,2024-07-09 02:38:00,2024-07-09 02:38:00,0,0,
235,-6082121702503471423-2407090241-5,8,Frankfurt(M)Konstablerwache|Frankfurt(M)Hauptwache|Frankfurt(M)Taunusanlage|Frankfurt Hbf (tief),8002050,3,Frankfurt (Main) Niederrad,Hessen,Frankfurt am Main,60528,8.637075,50.081283,2024-07-09 02:51:00,2024-07-09 02:51:00,,,0,0,
236,5069589255347072550-2407082230-8,,Stuttgart Hbf|Ulm Hbf|Augsburg Hbf|München-Pasing|München Ost|Rosenheim|Traunstein,8000108,3,Freilassing,Bayern,Freilassing,83395,12.977193,47.836916,2024-07-09 02:38:00,2024-07-09 02:40:00,2024-07-09 02:38:00,2024-07-09 02:42:00,0,2,Information
237,1095665159166765495-2407090131-21,,München Leuchtenbergring|München Ost|München Rosenheimer Platz|München Isartor|München Marienplatz|München Karlsplatz|München Hbf (tief)|München Hackerbrücke|München Donnersbergerbrücke|München Hirschgarten|München-Laim|München-Moosach|München-Fasanerie|München-Feldmoching|Oberschleißheim|Unterschleißheim|Lohhof|Eching|Neufahrn(b Freising)|Pulling(b Freising),8002078,3,Freising,Bayern,Freising,85354,11.744539,48.395195,2024-07-09 02:24:00,,2024-07-09 02:26:00,,2,0,
238,4384964956351906439-2407090144-7,RE19,Duisburg Hbf|Oberhausen Hbf|Oberhausen-Sterkrade|Oberhausen-Holten|Dinslaken|Voerde(Niederrhein),8002109,5,Friedrichsfeld (Niederrhein),Nordrhein-Westfalen,Voerde,46562,6.645499,51.628486,2024-07-09 02:10:00,2024-07-09 02:11:00,2024-07-09 02:23:00,2024-07-09 02:24:00,13,13,
239,1983981787191650824-2407082228-8,,Hamburg Hbf|Hamburg-Harburg|Lüneburg|Uelzen|Celle|Hannover Hbf|Göttingen,8000115,2,Fulda,Hessen,Fulda,36037,9.683977,50.554723,2024-07-09 02:42:00,2024-07-09 02:44:00,2024-07-09 02:38:00,2024-07-09 02:44:00,-4,0,Information
240,-8572647521164952896-2407081828-11,,Praha hl.n.|Praha-Holesovice|Usti nad Labem hl.n.|Decin hl.n.|Bad Schandau|Dresden Hbf|Dresden-Neustadt|Riesa|Leipzig Hbf|Erfurt Hbf,8000115,2,Fulda,Hessen,Fulda,36037,9.683977,50.554723,2024-07-09 02:45:00,2024-07-09 02:47:00,2024-07-09 02:45:00,2024-07-09 02:49:00,0,2,Information
241,5331894847185138451-2407082101-8,,Berlin Hbf|Berlin Südkreuz|Lutherstadt Wittenberg Hbf|Bitterfeld|Halle(Saale)Hbf|Leipzig Hbf|Erfurt Hbf,8000115,2,Fulda,Hessen,Fulda,36037,9.683977,50.554723,2024-07-09 02:45:00,2024-07-09 02:47:00,2024-07-09 02:45:00,2024-07-09 02:49:00,0,2,
242,-1197270886930040789-2407082101-8,,Berlin Hbf|Berlin Südkreuz|Lutherstadt Wittenberg Hbf|Bitterfeld|Halle(Saale)Hbf|Leipzig Hbf|Erfurt Hbf,8000115,2,Fulda,Hessen,Fulda,36037,9.683977,50.554723,2024-07-09 02:45:00,2024-07-09 02:47:00,2024-07-09 02:45:00,2024-07-09 02:49:00,0,2,
243,-8716776747589038458-2407081828-11,,Praha hl.n.|Praha-Holesovice|Usti nad Labem hl.n.|Decin hl.n.|Bad Schandau|Dresden Hbf|Dresden-Neustadt|Riesa|Leipzig Hbf|Erfurt Hbf,8000115,2,Fulda,Hessen,Fulda,36037,9.683977,50.554723,2024-07-09 02:45:00,2024-07-09 02:47:00,2024-07-09 02:45:00,2024-07-09 02:49:00,0,2,Information
244,2331841857895539712-2407090131-16,4,München Ost|München Rosenheimer Platz|München Isartor|München Marienplatz|München Karlsplatz|München Hbf (tief)|München Hackerbrücke|München Donnersbergerbrücke|München Hirschgarten|München-Laim|München-Pasing|München Leienfelsstr.|München-Aubing|Puchheim|Eichenau(Oberbay),8002141,4,Fürstenfeldbruck,Bayern,Fürstenfeldbruck,82256,11.262148,48.171656,2024-07-09 02:07:00,2024-07-09 02:07:00,2024-07-09 02:07:00,2024-07-09 02:08:00,0,1,
245,58133983524038883-2407082321-30,1,Magdeburg Hbf|Magdeburg-Neustadt|Magdeburg Herrenkrug|Biederitz|Gerwisch|Möser|Burg(Magdeburg)|Güsen(b Genthin)|Genthin|Wusterwitz|Kirchmöser|Brandenburg Hbf|Götz|Groß Kreutz|Werder(Havel)|Potsdam Park Sanssouci|Potsdam Charlottenhof|Potsdam Hbf|Berlin-Wannsee|Berlin-Charlottenburg|Berlin Zoologischer Garten|Berlin Hbf|Berlin Friedrichstraße|Berlin Alexanderplatz|Berlin Ostbahnhof|Berlin Ostkreuz|Erkner|Fangschleuse|Hangelsberg,8010120,4,Fürstenwalde (Spree),Brandenburg,Fürstenwalde (Spree),15517,14.05964,52.366858,2024-07-09 02:09:00,2024-07-09 02:10:00,2024-07-09 02:09:00,2024-07-09 02:10:00,0,0,
246,-2238166171655545371-2407090156-4,2,Essen Hbf|Essen-Kray Nord|Gelsenkirchen-Rotthausen,8000118,2,Gelsenkirchen Hbf,Nordrhein-Westfalen,Gelsenkirchen,45879,7.102455,51.504903,2024-07-09 02:06:00,2024-07-09 02:07:00,2024-07-09 02:07:00,2024-07-09 02:08:00,1,1,Bauarbeiten. (Quelle: zuginfo.nrw)
247,-1391171448654195053-2407090109-7,EM24,Köln Hbf|Köln Messe/Deutz|Düsseldorf Hbf|Duisburg Hbf|Oberhausen Hbf|Essen-Altenessen,8000118,2,Gelsenkirchen Hbf,Nordrhein-Westfalen,Gelsenkirchen,45879,7.102455,51.504903,2024-07-09 02:13:00,2024-07-09 02:15:00,,,0,0,
248,4584806807655155350-2407090217-11,2,Dortmund Hbf|Dortmund-Dorstfeld|Dortmund-Wischlingen|Dortmund-Huckarde|Dortmund-Westerfilde|Dortmund-Nette/Oestrich|Dortmund-Mengede|Castrop-Rauxel Hbf|Herne|Wanne-Eickel Hbf,8000118,2,Gelsenkirchen Hbf,Nordrhein-Westfalen,Gelsenkirchen,45879,7.102455,51.504903,2024-07-09 02:53:00,2024-07-09 02:54:00,2024-07-09 02:53:00,2024-07-09 02:54:00,0,0,Bauarbeiten. (Quelle: zuginfo.nrw)
249,2331841857895539712-2407090131-21,,München Ost|München Rosenheimer Platz|München Isartor|München Marienplatz|München Karlsplatz|München Hbf (tief)|München Hackerbrücke|München Donnersbergerbrücke|München Hirschgarten|München-Laim|München-Pasing|München Leienfelsstr.|München-Aubing|Puchheim|Eichenau(Oberbay)|Fürstenfeldbruck|Buchenau(Oberbay)|Schöngeising|Grafrath|Türkenfeld,8000119,3,Geltendorf,Bayern,Geltendorf,82269,11.0374552,48.1059912,2024-07-09 02:24:00,,2024-07-09 02:25:00,,1,0,
250,-2129993292912858999-2407090056-28,3,Holzkirchen|Otterfing|Sauerlach|Deisenhofen|Furth(b Deisenhofen)|Taufkirchen|Unterhaching|Fasanenpark|München-Fasangarten|München-Giesing|München St.Martin-Str.|München Ost|München Rosenheimer Platz|München Isartor|München Marienplatz|München Karlsplatz|München Hbf (tief)|München Hackerbrücke|München Donnersbergerbrücke|München Hirschgarten|München-Laim|München-Pasing|München-Langwied|München-Lochhausen|Gröbenzell|Olching|Esting,8002247,4,Gernlinden,Bayern,Maisach,82216,11.300378,48.212765,2024-07-09 02:04:00,2024-07-09 02:05:00,2024-07-09 02:04:00,2024-07-09 02:05:00,0,0,Bauarbeiten
251,-3124775578026648680-2407090038-12,,Euskirchen|Satzvey|Mechernich|Scheven|Kall|Nettersheim|Blankenheim(Wald)|Dahlem(Eifel)|Jünkerath|Lissendorf|Oberbettingen-Hillesheim,8000123,4,Gerolstein,Rheinland-Pfalz,Gerolstein,54568,6.660372,50.224006,2024-07-09 02:53:00,,,,0,0,
252,-8752132754902042279-2407082021-14,,Rostock Hbf|Waren(Müritz)|Neustrelitz Hbf|Oranienburg|Berlin Gesundbrunnen|Berlin Hbf|Berlin Südkreuz|Lutherstadt Wittenberg Hbf|Bitterfeld|Leipzig Hbf|Halle(Saale)Hbf|Naumburg(Saale)Hbf|Jena Paradies,8010133,3,Jena-Göschwitz,Thüringen,Jena,7745,11.593537,50.883942,2024-07-09 02:19:00,2024-07-09 02:21:00,2024-07-09 02:19:00,2024-07-09 02:21:00,0,0,Bauarbeiten
253,8635180695645416209-2407090014-3,,Frankfurt(Main)Hbf|Eisenach,8010136,3,Gotha,Thüringen,Gotha,99867,10.712568,50.93907,2024-07-09 02:22:00,2024-07-09 02:24:00,2024-07-09 02:22:00,2024-07-09 02:25:00,0,1,
254,-2320340282101811304-2407082043-12,,München Hbf|München-Pasing|Augsburg Hbf|Günzburg|Ulm Hbf|Stuttgart Hbf|Mannheim Hbf|Frankfurt(Main)Hbf|Hanau Hbf|Fulda|Bad Hersfeld,8000128,2,Göttingen,Niedersachsen,Göttingen,37073,9.926072,51.536815,2024-07-09 02:44:00,2024-07-09 02:46:00,2024-07-09 02:53:00,2024-07-09 02:55:00,9,9,
255,-2418336209701037993-2407090044-33,6,Tutzing|Feldafing|Possenhofen|Starnberg|Starnberg Nord|Gauting|Stockdorf|Planegg|Gräfelfing|Lochham|München-Westkreuz|München-Pasing|München-Laim|München Hirschgarten|München Donnersbergerbrücke|München Hackerbrücke|München Hbf (tief)|München Karlsplatz|München Marienplatz|München Isartor|München Rosenheimer Platz|München Ost|München Leuchtenbergring|München-Berg am Laim|München-Trudering|Gronsdorf|Haar|Vaterstetten|Baldham|Zorneding|Eglharting|Kirchseeon,8002347,3,Grafing Bahnhof,Bayern,Grafing,85567,11.940423,48.043226,2024-07-09 02:07:00,2024-07-09 02:08:00,2024-07-09 02:06:00,2024-07-09 02:08:00,-1,0,Bauarbeiten
256,-2418336209701037993-2407090044-34,6,Tutzing|Feldafing|Possenhofen|Starnberg|Starnberg Nord|Gauting|Stockdorf|Planegg|Gräfelfing|Lochham|München-Westkreuz|München-Pasing|München-Laim|München Hirschgarten|München Donnersbergerbrücke|München Hackerbrücke|München Hbf (tief)|München Karlsplatz|München Marienplatz|München Isartor|München Rosenheimer Platz|München Ost|München Leuchtenbergring|München-Berg am Laim|München-Trudering|Gronsdorf|Haar|Vaterstetten|Baldham|Zorneding|Eglharting|Kirchseeon|Grafing Bahnhof,8002348,5,Grafing Stadt,Bayern,Grafing,85567,11.962758,48.047217,2024-07-09 02:11:00,2024-07-09 02:11:00,2024-07-09 02:11:00,2024-07-09 02:12:00,0,1,Bauarbeiten
257,2331841857895539712-2407090131-19,4,München Ost|München Rosenheimer Platz|München Isartor|München Marienplatz|München Karlsplatz|München Hbf (tief)|München Hackerbrücke|München Donnersbergerbrücke|München Hirschgarten|München-Laim|München-Pasing|München Leienfelsstr.|München-Aubing|Puchheim|Eichenau(Oberbay)|Fürstenfeldbruck|Buchenau(Oberbay)|Schöngeising,8002351,5,Grafrath,Bayern,Grafrath,82284,11.153259,48.132096,2024-07-09 02:16:00,2024-07-09 02:16:00,2024-07-09 02:17:00,2024-07-09 02:17:00,1,1,
258,-6113638558481616445-2407090119-16,3,Leipzig-Stötteritz|Leipzig Völkerschlachtdenkmal|Leipzig MDR|Leipzig Bayerischer Bahnhof|Leipzig Wilhelm-Leuschner-Platz|Leipzig Markt|Leipzig Hbf (tief)|Leipzig-Gohlis|Leipzig Olbrichtstraße|Leipzig Slevogtstraße|Leipzig-Wahren|Leipzig-Lützschena|Schkeuditz|Schkeuditz West|Großkugel,8011711,5,Gröbers,Sachsen-Anhalt,Gröbers,6184,12.1168256,51.4323471,2024-07-09 02:00:00,2024-07-09 02:00:00,2024-07-09 02:00:00,2024-07-09 02:01:00,0,1,
259,-8971950794847929531-2407090217-2,S19,Horrem,8002389,5,Frechen-Königsdorf,Nordrhein-Westfalen,Frechen,50226,6.777846,50.936501,2024-07-09 02:27:00,2024-07-09 02:27:00,2024-07-09 02:27:00,2024-07-09 02:27:00,0,0,
260,5633065177467074680-2407090226-4,S19,Köln-Müngersdorf Technologiepark|Lövenich|Köln-Weiden West,8002389,5,Frechen-Königsdorf,Nordrhein-Westfalen,Frechen,50226,6.777846,50.936501,2024-07-09 02:52:00,2024-07-09 02:52:00,,,0,0,
261,2485486529533460933-2407090156-4,S19,Köln-Müngersdorf Technologiepark|Lövenich|Köln-Weiden West,8002389,5,Frechen-Königsdorf,Nordrhein-Westfalen,Frechen,50226,6.777846,50.936501,2024-07-09 02:22:00,2024-07-09 02:22:00,2024-07-09 02:22:00,2024-07-09 02:22:00,0,0,
262,-6730667469098092032-2407090237-3,S19,Sindorf|Horrem,8002389,5,Frechen-Königsdorf,Nordrhein-Westfalen,Frechen,50226,6.777846,50.936501,2024-07-09 02:57:00,2024-07-09 02:57:00,,,0,0,
