,ID,train,path,eva_nr,category,name,state,city,zip,long,lat,arrival_plan,departure_plan,arrival_change,departure_change,arrival_delay_m,depature_delay_m,info
0,-5397583228103808993-2407090316-1,19,,8000001,2,Aachen Hbf,Nordrhein-Westfalen,Aachen,52064,6.091499,50.7678,,2024-07-09 03:16:00,,2024-07-09 03:16:00,0,0,Bauarbeiten. (Quelle: zuginfo.nrw)
1,-5397583228103808993-2407090316-2,19,Aachen Hbf,8000406,4,Aachen-Rothe Erde,Nordrhein-Westfalen,Aachen,52066,6.116475,50.770202,2024-07-09 03:20:00,2024-07-09 03:20:00,2024-07-09 03:19:00,2024-07-09 03:20:00,-1,0,Bauarbeiten. (Quelle: zuginfo.nrw)
2,700156942723660705-2407090334-5,8,Berlin-Charlottenburg|Berlin Zoologischer Garten|Berlin Hbf|Berlin Friedrichstraße,8011155,3,Alexanderplatz,Berlin,Berlin,10179,13.410961,52.521481,2024-07-09 03:51:00,2024-07-09 03:52:00,2024-07-09 03:51:00,2024-07-09 03:52:00,0,0,
3,3262097249322916769-2407090241-4,8,Flughafen BER|Berlin Ostkreuz|Berlin Ostbahnhof,8011155,3,Alexanderplatz,Berlin,Berlin,10179,13.410961,52.521481,2024-07-09 03:06:00,2024-07-09 03:07:00,2024-07-09 03:07:00,2024-07-09 03:08:00,1,1,
4,1507163401013910914-2407090305-5,,Berlin-Charlottenburg|Berlin Zoologischer Garten|Berlin Hbf|Berlin Friedrichstraße,8011155,3,Alexanderplatz,Berlin,Berlin,10179,13.410961,52.521481,2024-07-09 03:20:00,2024-07-09 03:21:00,2024-07-09 03:20:00,2024-07-09 03:21:00,0,0,
5,-199422321941227724-2407090320-5,,Berlin-Charlottenburg|Berlin Zoologischer Garten|Berlin Hbf|Berlin Friedrichstraße,8011155,3,Alexanderplatz,Berlin,Berlin,10179,13.410961,52.521481,2024-07-09 03:34:00,2024-07-09 03:35:00,2024-07-09 03:34:00,2024-07-09 03:35:00,0,0,
6,4693049160569863660-2407090353-2,1,Plochingen,8000508,3,Altbach,Baden-Württemberg,Altbach,73776,9.382384,48.720393,2024-07-09 03:55:00,2024-07-09 03:55:00,,,0,0,Information
7,-6545478523499479289-2407090337-1,S5,,8010003,5,Altenburg,Thüringen,Altenburg,4600,12.444019,50.996648,,2024-07-09 03:37:00,,2024-07-09 03:37:00,0,0,
8,-869553568704520980-2407090305-11,9,Berlin Alexanderplatz (S)|Berlin Jannowitzbrücke|Berlin Ostbahnhof (S)|Berlin Warschauer Straße|Berlin Treptower Park|Berlin Plänterwald|Berlin Baumschulenweg|Berlin-Schöneweide (S)|Berlin-Johannisthal|Berlin-Adlershof,8089054,4,Altglienicke,Berlin,Berlin,12524,13.558753,52.407299,2024-07-09 03:32:00,2024-07-09 03:32:00,2024-07-09 03:32:00,2024-07-09 03:32:00,0,0,
9,7265579896316843783-2407090302-19,9,Berlin Charlottenburg (S)|Berlin Savignyplatz|Berlin Zoologischer Garten (S)|Berlin-Tiergarten|Berlin Bellevue|Berlin Hbf (S-Bahn)|Berlin Friedrichstraße (S)|Berlin Hackescher Markt|Berlin Alexanderplatz (S)|Berlin Jannowitzbrücke|Berlin Ostbahnhof (S)|Berlin Warschauer Straße|Berlin Treptower Park|Berlin Plänterwald|Berlin Baumschulenweg|Berlin-Schöneweide (S)|Berlin-Johannisthal|Berlin-Adlershof,8089054,4,Altglienicke,Berlin,Berlin,12524,13.558753,52.407299,2024-07-09 03:47:00,2024-07-09 03:47:00,2024-07-09 03:47:00,2024-07-09 03:47:00,0,0,
10,8457975387529600893-2407090020-11,,Dortmund Hbf|Gelsenkirchen Hbf|Essen Hbf|Düsseldorf Hbf|Köln Messe/Deutz Gl.11-12|Montabaur|Limburg Süd|Frankfurt(M) Flughafen Fernbf|Frankfurt(Main)Hbf|Hanau Hbf,8000010,2,Aschaffenburg Hbf,Bayern,Aschaffenburg,63739,9.143697,49.980557,2024-07-09 03:58:00,2024-07-09 04:00:00,2024-07-09 03:57:00,2024-07-09 04:00:00,-1,0,
11,1348020220601344513-2407090352-3,5,Bietigheim-Bissingen|Tamm(Württ),8000630,4,Asperg,Baden-Württemberg,Asperg,71679,9.147797,48.907359,2024-07-09 03:57:00,2024-07-09 03:58:00,,,0,0,Information
12,5049461118844353393-2407082155-19,,Wien Hbf|Wien Meidling|Tullnerfeld|St.Pölten Hbf|Amstetten NÖ|St. Valentin|Linz Hbf|Wels Hbf|Attnang-Puchheim|Vöcklabruck|Neumarkt am Wallersee|Salzburg Hbf|Freilassing|Traunstein|Rosenheim|München Ost|München Hbf Gl.5-10|München-Pasing,8000013,1,Augsburg Hbf,Bayern,Augsburg,86150,10.88557,48.365441,2024-07-09 03:11:00,2024-07-09 03:13:00,2024-07-09 03:16:00,2024-07-09 03:18:00,5,5,Information
13,-1623994736072630433-2407090253-8,4,Aachen Hbf|Aachen Schanz|Aachen West|Herzogenrath|Übach-Palenberg|Geilenkirchen|Lindern,8000677,4,Hückelhoven-Baal,Nordrhein-Westfalen,Hückelhoven-Baal,41836,6.27280712,51.0329743,2024-07-09 03:27:00,2024-07-09 03:28:00,2024-07-09 03:29:00,2024-07-09 03:30:00,2,2,
14,-3405121308737868986-2407090356-1,3,,8000016,3,Backnang,Baden-Württemberg,Backnang,71522,9.425989,48.942676,,2024-07-09 03:56:00,,,0,0,Information
15,-2548994183414850777-2407090314-3,5,Bebra|Ludwigsau-Friedlos,8000020,3,Bad Hersfeld,Hessen,Bad Hersfeld,36251,9.716182,50.869632,2024-07-09 03:23:00,2024-07-09 03:24:00,2024-07-09 03:23:00,2024-07-09 03:24:00,0,0,
16,-6527908731319902016-2407090338-3,5,Friedrichsdorf(Taunus)|Seulberg,8000712,3,Bad Homburg,Hessen,Bad Homburg,61352,8.620624,50.219904,2024-07-09 03:44:00,2024-07-09 03:45:00,,,0,0,
17,-8745930355234119378-2407090033-5,,Berlin Hbf|Berlin Ostbahnhof|Dresden-Neustadt|Dresden Hbf,8010022,3,Bad Schandau,Sachsen,Bad Schandau,1814,14.1375375,50.9192886,2024-07-09 03:28:00,2024-07-09 03:29:00,2024-07-09 03:27:00,2024-07-09 03:29:00,-1,0,
18,-138132356153188144-2407090317-9,1,Karlsruhe Hbf|Karlsruhe-Durlach|Weingarten(Baden)|Untergrombach|Bruchsal Bildungszentrum|Bruchsal|Ubstadt-Weiher|Stettfeld-Weiher,8003533,4,Bad Schönborn Süd,Baden-Württemberg,Bad Schönborn,76669,8.641924,49.200001,2024-07-09 03:44:00,2024-07-09 03:44:00,,,0,0,Störung
19,2230826486094175778-2407090351-2,RE83,Lübeck Hbf,8000749,5,Bad Schwartau,Schleswig-Holstein,Bad Schwartau,23611,10.702722,53.916276,2024-07-09 03:56:00,2024-07-09 03:56:00,2024-07-09 03:56:00,2024-07-09 03:56:00,0,0,
20,155992079699948133-2407090345-1,3,,8000752,5,Bad Soden (Taunus),Hessen,Bad Soden (Taunus),65812,8.50442648,50.1429607,,2024-07-09 03:45:00,,,0,0,
21,5345924912571245273-2407082134-14,,Hamburg-Altona|Hamburg Dammtor|Hamburg Hbf|Büchen|Ludwigslust|Wittenberge|Berlin-Spandau|Berlin Hbf|Berlin Südkreuz|Lutherstadt Wittenberg Hbf|Leipzig Hbf|Erfurt Hbf|Coburg,8000025,2,Bamberg,Bayern,Bamberg,96052,10.899489,49.900759,2024-07-09 03:13:00,2024-07-09 03:15:00,2024-07-09 03:15:00,2024-07-09 03:17:00,2,2,
22,-5974037389702895596-2407090342-5,9,Berlin-Grünau|Berlin-Adlershof|Berlin-Johannisthal|Berlin-Schöneweide (S),8089004,4,Baumschulenweg,Berlin,Berlin,12437,13.490097,52.467244,2024-07-09 03:55:00,2024-07-09 03:56:00,,,0,0,
23,-869553568704520980-2407090305-7,9,Berlin Alexanderplatz (S)|Berlin Jannowitzbrücke|Berlin Ostbahnhof (S)|Berlin Warschauer Straße|Berlin Treptower Park|Berlin Plänterwald,8089004,4,Baumschulenweg,Berlin,Berlin,12437,13.490097,52.467244,2024-07-09 03:19:00,2024-07-09 03:19:00,2024-07-09 03:19:00,2024-07-09 03:19:00,0,0,
24,-4264599631284267039-2407090312-16,9,Berlin Westkreuz|Berlin Charlottenburg (S)|Berlin Savignyplatz|Berlin Zoologischer Garten (S)|Berlin-Tiergarten|Berlin Bellevue|Berlin Hbf (S-Bahn)|Berlin Friedrichstraße (S)|Berlin Hackescher Markt|Berlin Alexanderplatz (S)|Berlin Jannowitzbrücke|Berlin Ostbahnhof (S)|Berlin Warschauer Straße|Berlin Treptower Park|Berlin Plänterwald,8089004,4,Baumschulenweg,Berlin,Berlin,12437,13.490097,52.467244,2024-07-09 03:47:00,2024-07-09 03:50:00,2024-07-09 03:47:00,2024-07-09 03:50:00,0,0,
25,7265579896316843783-2407090302-15,9,Berlin Charlottenburg (S)|Berlin Savignyplatz|Berlin Zoologischer Garten (S)|Berlin-Tiergarten|Berlin Bellevue|Berlin Hbf (S-Bahn)|Berlin Friedrichstraße (S)|Berlin Hackescher Markt|Berlin Alexanderplatz (S)|Berlin Jannowitzbrücke|Berlin Ostbahnhof (S)|Berlin Warschauer Straße|Berlin Treptower Park|Berlin Plänterwald,8089004,4,Baumschulenweg,Berlin,Berlin,12437,13.490097,52.467244,2024-07-09 03:34:00,2024-07-09 03:34:00,2024-07-09 03:34:00,2024-07-09 03:34:00,0,0,
26,-1693889192300063185-2407090359-1,50,,8000029,3,Bebra,Hessen,Bebra,36179,9.797788,50.969568,,2024-07-09 03:59:00,,,0,0,
27,-2548994183414850777-2407090314-1,5,,8000029,3,Bebra,Hessen,Bebra,36179,9.797788,50.969568,,2024-07-09 03:14:00,,2024-07-09 03:14:00,0,0,
28,2964630978341565241-2407090332-6,9,Berlin Westkreuz|Berlin Charlottenburg (S)|Berlin Savignyplatz|Berlin Zoologischer Garten (S)|Berlin-Tiergarten,8089005,4,Bellevue,Berlin,Berlin,10557,13.348263,52.519955,2024-07-09 03:42:00,2024-07-09 03:43:00,,,0,0,
29,-4264599631284267039-2407090312-6,9,Berlin Westkreuz|Berlin Charlottenburg (S)|Berlin Savignyplatz|Berlin Zoologischer Garten (S)|Berlin-Tiergarten,8089005,4,Bellevue,Berlin,Berlin,10557,13.348263,52.519955,2024-07-09 03:22:00,2024-07-09 03:23:00,2024-07-09 03:22:00,2024-07-09 03:23:00,0,0,
30,-2063351183120734574-2407090344-7,5,Berlin-Grunewald|Berlin Westkreuz|Berlin Charlottenburg (S)|Berlin Savignyplatz|Berlin Zoologischer Garten (S)|Berlin-Tiergarten,8089005,4,Bellevue,Berlin,Berlin,10557,13.348263,52.519955,2024-07-09 03:57:00,2024-07-09 03:58:00,,,0,0,
31,7265579896316843783-2407090302-5,9,Berlin Charlottenburg (S)|Berlin Savignyplatz|Berlin Zoologischer Garten (S)|Berlin-Tiergarten,8089005,4,Bellevue,Berlin,Berlin,10557,13.348263,52.519955,2024-07-09 03:10:00,2024-07-09 03:10:00,2024-07-09 03:10:00,2024-07-09 03:10:00,0,0,
32,-2665435153022489553-2407090341-1,7,,8010031,5,Bad Belzig,Brandenburg,Belzig,14806,12.594981,52.135969,,2024-07-09 03:41:00,,,0,0,
33,-2528850404755729-2407090355-2,4,Marbach(Neckar),8000873,5,Benningen (Neckar),Baden-Württemberg,Benningen am Neckar,71726,9.244504,48.943614,2024-07-09 03:57:00,2024-07-09 03:57:00,,,0,0,Information
34,-2910165204535689153-2407090353-3,42,Berlin Treptower Park|Berlin Ostkreuz (S),8089013,3,Berlin Frankfurter Allee,Berlin,Berlin,10247,13.47441,52.515168,2024-07-09 03:58:00,2024-07-09 03:58:00,,,0,0,
35,-5867842893510111922-2407090345-7,41,Berlin Gesundbrunnen(S)|Berlin Schönhauser Allee|Berlin Prenzlauer Allee|Berlin Greifswalder Str|Berlin Landsberger Allee|Berlin Storkower Str,8089013,3,Berlin Frankfurter Allee,Berlin,Berlin,10247,13.47441,52.515168,2024-07-09 03:57:00,2024-07-09 03:58:00,,,0,0,
36,3609130455711901954-2407090343-3,42,Berlin Treptower Park|Berlin Ostkreuz (S),8089013,3,Berlin Frankfurter Allee,Berlin,Berlin,10247,13.47441,52.515168,2024-07-09 03:48:00,2024-07-09 03:48:00,,,0,0,
37,-199422321941227724-2407090320-4,,Berlin-Charlottenburg|Berlin Zoologischer Garten|Berlin Hbf,8011306,2,Berlin-Friedrichstraße,Berlin,Berlin,10117,13.3872056,52.520373,2024-07-09 03:31:00,2024-07-09 03:32:00,2024-07-09 03:31:00,2024-07-09 03:32:00,0,0,
38,700156942723660705-2407090334-4,8,Berlin-Charlottenburg|Berlin Zoologischer Garten|Berlin Hbf,8011306,2,Berlin-Friedrichstraße,Berlin,Berlin,10117,13.3872056,52.520373,2024-07-09 03:47:00,2024-07-09 03:48:00,2024-07-09 03:47:00,2024-07-09 03:48:00,0,0,
39,3262097249322916769-2407090241-5,8,Flughafen BER|Berlin Ostkreuz|Berlin Ostbahnhof|Berlin Alexanderplatz,8011306,2,Berlin-Friedrichstraße,Berlin,Berlin,10117,13.3872056,52.520373,2024-07-09 03:10:00,2024-07-09 03:11:00,2024-07-09 03:10:00,2024-07-09 03:11:00,0,0,
40,1507163401013910914-2407090305-4,,Berlin-Charlottenburg|Berlin Zoologischer Garten|Berlin Hbf,8011306,2,Berlin-Friedrichstraße,Berlin,Berlin,10117,13.3872056,52.520373,2024-07-09 03:17:00,2024-07-09 03:18:00,2024-07-09 03:17:00,2024-07-09 03:18:00,0,0,
41,4063429164769473916-2407090351-2,,Berlin Hbf,8011102,1,Berlin Gesundbrunnen,Berlin,Berlin,13357,13.388513,52.548963,2024-07-09 03:57:00,2024-07-09 04:00:00,,,0,0,Information
42,3609130455711901954-2407090343-6,42,Berlin Treptower Park|Berlin Ostkreuz (S)|Berlin Frankfurter Allee|Berlin Storkower Str|Berlin Landsberger Allee,8089011,4,Greifswalder Straße,Berlin,Berlin,10409,13.439561,52.54002,2024-07-09 03:54:00,2024-07-09 03:54:00,,,0,0,
43,-5867842893510111922-2407090345-4,41,Berlin Gesundbrunnen(S)|Berlin Schönhauser Allee|Berlin Prenzlauer Allee,8089011,4,Greifswalder Straße,Berlin,Berlin,10409,13.439561,52.54002,2024-07-09 03:51:00,2024-07-09 03:51:00,,,0,0,
44,700156942723660705-2407090334-6,8,Berlin-Charlottenburg|Berlin Zoologischer Garten|Berlin Hbf|Berlin Friedrichstraße|Berlin Alexanderplatz,8010255,1,Berlin Ostbahnhof,Berlin,Berlin,10243,13.4346807,52.5104881,2024-07-09 03:55:00,2024-07-09 03:56:00,2024-07-09 03:55:00,2024-07-09 03:56:00,0,0,
45,3262097249322916769-2407090241-3,8,Flughafen BER|Berlin Ostkreuz,8010255,1,Berlin Ostbahnhof,Berlin,Berlin,10243,13.4346807,52.5104881,2024-07-09 03:02:00,2024-07-09 03:03:00,2024-07-09 03:02:00,2024-07-09 03:04:00,0,1,
46,7767891768695459007-2407090355-2,7,Berlin Ostkreuz,8010255,1,Berlin Ostbahnhof,Berlin,Berlin,10243,13.4346807,52.5104881,2024-07-09 03:57:00,2024-07-09 03:59:00,,,0,0,
47,1507163401013910914-2407090305-6,,Berlin-Charlottenburg|Berlin Zoologischer Garten|Berlin Hbf|Berlin Friedrichstraße|Berlin Alexanderplatz,8010255,1,Berlin Ostbahnhof,Berlin,Berlin,10243,13.4346807,52.5104881,2024-07-09 03:25:00,2024-07-09 03:26:00,2024-07-09 03:25:00,2024-07-09 03:26:00,0,0,
48,-199422321941227724-2407090320-6,,Berlin-Charlottenburg|Berlin Zoologischer Garten|Berlin Hbf|Berlin Friedrichstraße|Berlin Alexanderplatz,8010255,1,Berlin Ostbahnhof,Berlin,Berlin,10243,13.4346807,52.5104881,2024-07-09 03:39:00,2024-07-09 03:40:00,2024-07-09 03:38:00,2024-07-09 03:40:00,-1,0,
49,700156942723660705-2407090334-2,8,Berlin-Charlottenburg,8010406,2,Berlin Zoologischer Garten,Berlin,Berlin,10623,13.3324447,52.5073407,2024-07-09 03:37:00,2024-07-09 03:39:00,2024-07-09 03:37:00,2024-07-09 03:39:00,0,0,
50,3262097249322916769-2407090241-7,8,Flughafen BER|Berlin Ostkreuz|Berlin Ostbahnhof|Berlin Alexanderplatz|Berlin Friedrichstraße|Berlin Hbf,8010406,2,Berlin Zoologischer Garten,Berlin,Berlin,10623,13.3324447,52.5073407,2024-07-09 03:20:00,2024-07-09 03:21:00,2024-07-09 03:20:00,2024-07-09 03:21:00,0,0,
51,1507163401013910914-2407090305-2,,Berlin-Charlottenburg,8010406,2,Berlin Zoologischer Garten,Berlin,Berlin,10623,13.3324447,52.5073407,2024-07-09 03:08:00,2024-07-09 03:09:00,2024-07-09 03:08:00,2024-07-09 03:09:00,0,0,
52,-199422321941227724-2407090320-2,,Berlin-Charlottenburg,8010406,2,Berlin Zoologischer Garten,Berlin,Berlin,10623,13.3324447,52.5073407,2024-07-09 03:22:00,2024-07-09 03:23:00,2024-07-09 03:22:00,2024-07-09 03:23:00,0,0,
53,-869553568704520980-2407090305-10,9,Berlin Alexanderplatz (S)|Berlin Jannowitzbrücke|Berlin Ostbahnhof (S)|Berlin Warschauer Straße|Berlin Treptower Park|Berlin Plänterwald|Berlin Baumschulenweg|Berlin-Schöneweide (S)|Berlin-Johannisthal,8089052,4,Berlin-Adlershof,Berlin,Berlin,12489,13.541129,52.435031,2024-07-09 03:27:00,2024-07-09 03:28:00,2024-07-09 03:27:00,2024-07-09 03:28:00,0,0,
54,4301970976136169411-2407090356-2,46,Berlin-Grünau,8089052,4,Berlin-Adlershof,Berlin,Berlin,12489,13.541129,52.435031,2024-07-09 03:59:00,2024-07-09 04:00:00,,,0,0,
55,-4264599631284267039-2407090312-19,9,Berlin Westkreuz|Berlin Charlottenburg (S)|Berlin Savignyplatz|Berlin Zoologischer Garten (S)|Berlin-Tiergarten|Berlin Bellevue|Berlin Hbf (S-Bahn)|Berlin Friedrichstraße (S)|Berlin Hackescher Markt|Berlin Alexanderplatz (S)|Berlin Jannowitzbrücke|Berlin Ostbahnhof (S)|Berlin Warschauer Straße|Berlin Treptower Park|Berlin Plänterwald|Berlin Baumschulenweg|Berlin-Schöneweide (S)|Berlin-Johannisthal,8089052,4,Berlin-Adlershof,Berlin,Berlin,12489,13.541129,52.435031,2024-07-09 03:58:00,2024-07-09 03:58:00,2024-07-09 03:58:00,2024-07-09 03:58:00,0,0,
56,-5974037389702895596-2407090342-2,9,Berlin-Grünau,8089052,4,Berlin-Adlershof,Berlin,Berlin,12489,13.541129,52.435031,2024-07-09 03:46:00,2024-07-09 03:47:00,,,0,0,
57,7265579896316843783-2407090302-18,9,Berlin Charlottenburg (S)|Berlin Savignyplatz|Berlin Zoologischer Garten (S)|Berlin-Tiergarten|Berlin Bellevue|Berlin Hbf (S-Bahn)|Berlin Friedrichstraße (S)|Berlin Hackescher Markt|Berlin Alexanderplatz (S)|Berlin Jannowitzbrücke|Berlin Ostbahnhof (S)|Berlin Warschauer Straße|Berlin Treptower Park|Berlin Plänterwald|Berlin Baumschulenweg|Berlin-Schöneweide (S)|Berlin-Johannisthal,8089052,4,Berlin-Adlershof,Berlin,Berlin,12489,13.541129,52.435031,2024-07-09 03:42:00,2024-07-09 03:43:00,2024-07-09 03:42:00,2024-07-09 03:43:00,0,0,
58,-199422321941227724-2407090320-1,,,8010403,3,Berlin-Charlottenburg,Berlin,Berlin,10627,13.3023298,52.5042126,,2024-07-09 03:20:00,,2024-07-09 03:20:00,0,0,
59,700156942723660705-2407090334-1,8,,8010403,3,Berlin-Charlottenburg,Berlin,Berlin,10627,13.3023298,52.5042126,,2024-07-09 03:34:00,,2024-07-09 03:34:00,0,0,
60,3262097249322916769-2407090241-8,,Flughafen BER|Berlin Ostkreuz|Berlin Ostbahnhof|Berlin Alexanderplatz|Berlin Friedrichstraße|Berlin Hbf|Berlin Zoologischer Garten,8010403,3,Berlin-Charlottenburg,Berlin,Berlin,10627,13.3023298,52.5042126,2024-07-09 03:24:00,,2024-07-09 03:24:00,,0,0,
61,1507163401013910914-2407090305-1,,,8010403,3,Berlin-Charlottenburg,Berlin,Berlin,10627,13.3023298,52.5042126,,2024-07-09 03:05:00,,2024-07-09 03:05:00,0,0,
62,-7395193857295471280-2407090324-4,3,Erkner (S)|Berlin-Wilhelmshagen|Berlin-Rahnsdorf,8089060,4,Berlin-Friedrichshagen,Berlin,Berlin,12587,13.6246,52.457247,2024-07-09 03:35:00,2024-07-09 03:35:00,,,0,0,
63,-2334258063280761431-2407090344-4,3,Erkner (S)|Berlin-Wilhelmshagen|Berlin-Rahnsdorf,8089060,4,Berlin-Friedrichshagen,Berlin,Berlin,12587,13.6246,52.457247,2024-07-09 03:55:00,2024-07-09 03:55:00,,,0,0,
64,4301970976136169411-2407090356-1,46,,8089063,4,Berlin-Grünau,Berlin,Berlin,12527,13.573497,52.413028,,2024-07-09 03:56:00,,,0,0,
65,-5974037389702895596-2407090342-1,9,,8089063,4,Berlin-Grünau,Berlin,Berlin,12527,13.573497,52.413028,,2024-07-09 03:42:00,,,0,0,
66,-3802326444321179536-2407090358-1,3,,8089062,4,Berlin-Grunewald,Berlin,Berlin,14193,13.26172,52.488693,,2024-07-09 03:58:00,,,0,0,
67,-2063351183120734574-2407090344-1,5,,8089062,4,Berlin-Grunewald,Berlin,Berlin,14193,13.26172,52.488693,,2024-07-09 03:44:00,,,0,0,
68,4452597677740860356-2407090355-2,42,Berlin Charlottenburg (S),8089109,4,Berlin-Halensee,Berlin,Berlin,10711,13.290326,52.496254,2024-07-09 03:58:00,2024-07-09 03:58:00,,,0,0,
69,-7395193857295471280-2407090324-6,3,Erkner (S)|Berlin-Wilhelmshagen|Berlin-Rahnsdorf|Berlin-Friedrichshagen|Berlin-Hirschgarten,8089069,4,Berlin-Köpenick,Berlin,Berlin,12555,13.580942,52.45861,2024-07-09 03:39:00,2024-07-09 03:40:00,,,0,0,
70,-2334258063280761431-2407090344-6,3,Erkner (S)|Berlin-Wilhelmshagen|Berlin-Rahnsdorf|Berlin-Friedrichshagen|Berlin-Hirschgarten,8089069,4,Berlin-Köpenick,Berlin,Berlin,12555,13.580942,52.45861,2024-07-09 03:59:00,2024-07-09 04:00:00,,,0,0,
71,1042297618291463943-2407090356-2,42,Berlin Hermannstraße,8089077,3,Berlin-Neukölln,Berlin,Berlin,12055,13.44306,52.46942,2024-07-09 03:58:00,2024-07-09 03:58:00,,,0,0,
72,-7395193857295471280-2407090324-10,3,Erkner (S)|Berlin-Wilhelmshagen|Berlin-Rahnsdorf|Berlin-Friedrichshagen|Berlin-Hirschgarten|Berlin-Köpenick|Berlin-Wuhlheide|Berlin-Karlshorst (S)|Berlin Betriebsbf Rummelsburg,8089084,4,Berlin-Rummelsburg,Berlin,Berlin,10317,13.478362,52.501309,2024-07-09 03:51:00,2024-07-09 03:51:00,,,0,0,
73,-1753987334077969698-2407090357-1,1,,8089474,4,Schöneberg,Berlin,Berlin,10827,13.352068,52.479377,,2024-07-09 03:57:00,,,0,0,
74,-4100659615061494590-2407090355-1,46,,8089090,4,Berlin-Tempelhof,Berlin,Berlin,12099,13.384547,52.470967,,2024-07-09 03:55:00,,,0,0,
75,-7395193857295471280-2407090324-9,3,Erkner (S)|Berlin-Wilhelmshagen|Berlin-Rahnsdorf|Berlin-Friedrichshagen|Berlin-Hirschgarten|Berlin-Köpenick|Berlin-Wuhlheide|Berlin-Karlshorst (S),8089006,4,Betriebsbahnhof Berlin-Rummelsburg,Berlin,Berlin,10317,13.497786,52.493827,2024-07-09 03:49:00,2024-07-09 03:49:00,,,0,0,
76,-869553568704520980-2407090305-9,9,Berlin Alexanderplatz (S)|Berlin Jannowitzbrücke|Berlin Ostbahnhof (S)|Berlin Warschauer Straße|Berlin Treptower Park|Berlin Plänterwald|Berlin Baumschulenweg|Berlin-Schöneweide (S),8089007,4,Johannisthal,Berlin,Berlin,12439,13.52368,52.446905,2024-07-09 03:25:00,2024-07-09 03:25:00,2024-07-09 03:25:00,2024-07-09 03:25:00,0,0,
77,-4264599631284267039-2407090312-18,9,Berlin Westkreuz|Berlin Charlottenburg (S)|Berlin Savignyplatz|Berlin Zoologischer Garten (S)|Berlin-Tiergarten|Berlin Bellevue|Berlin Hbf (S-Bahn)|Berlin Friedrichstraße (S)|Berlin Hackescher Markt|Berlin Alexanderplatz (S)|Berlin Jannowitzbrücke|Berlin Ostbahnhof (S)|Berlin Warschauer Straße|Berlin Treptower Park|Berlin Plänterwald|Berlin Baumschulenweg|Berlin-Schöneweide (S),8089007,4,Johannisthal,Berlin,Berlin,12439,13.52368,52.446905,2024-07-09 03:55:00,2024-07-09 03:56:00,2024-07-09 03:55:00,2024-07-09 03:56:00,0,0,
78,-5974037389702895596-2407090342-3,9,Berlin-Grünau|Berlin-Adlershof,8089007,4,Johannisthal,Berlin,Berlin,12439,13.52368,52.446905,2024-07-09 03:49:00,2024-07-09 03:50:00,,,0,0,
79,7265579896316843783-2407090302-17,9,Berlin Charlottenburg (S)|Berlin Savignyplatz|Berlin Zoologischer Garten (S)|Berlin-Tiergarten|Berlin Bellevue|Berlin Hbf (S-Bahn)|Berlin Friedrichstraße (S)|Berlin Hackescher Markt|Berlin Alexanderplatz (S)|Berlin Jannowitzbrücke|Berlin Ostbahnhof (S)|Berlin Warschauer Straße|Berlin Treptower Park|Berlin Plänterwald|Berlin Baumschulenweg|Berlin-Schöneweide (S),8089007,4,Johannisthal,Berlin,Berlin,12439,13.52368,52.446905,2024-07-09 03:40:00,2024-07-09 03:40:00,2024-07-09 03:40:00,2024-07-09 03:40:00,0,0,
80,-3102517065725640217-2407090335-6,642S,"Biblis Wendehammer beim Kreuz|Hochhaus, Biblis|Freiherr-vom-Stein-Straße, Biblis|Evangelische Kirche, Biblis|Katholische Kirche, Biblis",8000503,4,Biblis,Hessen,Biblis,68647,8.450413,49.688881,2024-07-09 03:45:00,2024-07-09 03:45:00,,,0,0,
81,1348020220601344513-2407090352-1,5,,8000038,2,Bietigheim-Bissingen,Baden-Württemberg,Bietigheim-Bissingen,74321,9.137557,48.947933,,2024-07-09 03:52:00,,,0,0,Information
82,-9110295229692614184-2407090340-6,5,Strausberg (S)|Petershagen Nord|Fredersdorf(b Berlin)|Neuenhagen(b Berlin)|Hoppegarten(Mark),8070002,4,Birkenstein,Brandenburg,Hoppegarten,15366,13.647187,52.515601,2024-07-09 03:57:00,2024-07-09 03:57:00,,,0,0,
83,8635180695645416209-2407090014-6,,Frankfurt(Main)Hbf|Eisenach|Gotha|Erfurt Hbf|Leipzig Hbf,8010050,3,Bitterfeld,Sachsen-Anhalt,Bitterfeld-Wolfen,6749,12.31685,51.622861,2024-07-09 03:51:00,2024-07-09 03:53:00,2024-07-09 03:49:00,2024-07-09 03:53:00,-2,0,
84,-817120186960617906-2407090327-3,9,Karlsruhe Hbf|Karlsruhe-Hagsfeld,8001009,5,Blankenloch,Baden-Württemberg, Stutensee,76297,8.464729,49.066528,2024-07-09 03:35:00,2024-07-09 03:35:00,2024-07-09 03:35:00,2024-07-09 03:35:00,0,0,Information
85,8573811631662133764-2407082041-15,,München Hbf|Ingolstadt Hbf|Nürnberg Hbf|Würzburg Hbf|Aschaffenburg Hbf|Frankfurt(Main)Hbf|Frankfurt(M) Flughafen Fernbf|Limburg Süd|Montabaur|Siegburg/Bonn|Köln Messe/Deutz Gl.11-12|Düsseldorf Hbf|Duisburg Hbf|Essen Hbf,8000041,2,Bochum Hbf,Nordrhein-Westfalen,Bochum,44787,7.223275,51.478609,2024-07-09 03:04:00,2024-07-09 03:06:00,2024-07-09 03:43:00,2024-07-09 03:44:00,39,38,Information
86,8503777394879306018-2407082324-13,,Frankfurt(Main)Hbf|Frankfurt(M) Flughafen Fernbf|Mainz Hbf|Bingen(Rhein) Hbf|Koblenz Hbf|Remagen|Bonn Hbf|Köln Hbf|Düsseldorf Hbf|Düsseldorf Flughafen|Duisburg Hbf|Essen Hbf,8000041,2,Bochum Hbf,Nordrhein-Westfalen,Bochum,44787,7.223275,51.478609,2024-07-09 03:14:00,2024-07-09 03:16:00,2024-07-09 03:14:00,2024-07-09 03:16:00,0,0,Information
87,-4068911222865023920-2407090222-7,1,Düsseldorf Hbf|Düsseldorf Flughafen|Duisburg Hbf|Mülheim(Ruhr)Hbf|Essen Hbf|Wattenscheid,8000041,2,Bochum Hbf,Nordrhein-Westfalen,Bochum,44787,7.223275,51.478609,2024-07-09 03:02:00,2024-07-09 03:03:00,2024-07-09 03:02:00,2024-07-09 03:03:00,0,0,
88,-5761135966346571235-2407090317-8,1,Hamm(Westf)Hbf|Bönen-Nordbögge|Kamen|Kamen-Methler|Dortmund-Kurl|Dortmund-Scharnhorst|Dortmund Hbf,8000041,2,Bochum Hbf,Nordrhein-Westfalen,Bochum,44787,7.223275,51.478609,2024-07-09 03:54:00,2024-07-09 03:55:00,2024-07-09 03:54:00,2024-07-09 03:55:00,0,0,
89,-2819238151300076653-2407090316-4,6,Borna(Leipzig)|Lobstädt|Neukieritzsch,8011222,5,Böhlen Werke,Sachsen,Böhlen,4564,12.384024,51.184702,2024-07-09 03:27:00,2024-07-09 03:27:00,2024-07-09 03:27:00,2024-07-09 03:27:00,0,0,Bauarbeiten
90,-2702170392548868455-2407090333-1,26,,8000044,2,Bonn Hbf,Nordrhein-Westfalen,Bonn,53111,7.097136,50.732008,,2024-07-09 03:33:00,,2024-07-09 03:33:00,0,0,Bauarbeiten. (Quelle: zuginfo.nrw)
91,-7356420156445510434-2407090238-10,,Köln/Bonn Flughafen|Köln Messe/Deutz|Köln Hbf|Köln West|Köln Süd|Hürth-Kalscheuren|Brühl|Sechtem|Roisdorf,8000044,2,Bonn Hbf,Nordrhein-Westfalen,Bonn,53111,7.097136,50.732008,2024-07-09 03:25:00,,2024-07-09 03:25:00,,0,0,Bauarbeiten. (Quelle: zuginfo.nrw)
92,-5967924537871298080-2407090314-2,70,Kiel Hbf,8001092,5,Bordesholm,Schleswig-Holstein,Bordesholm,24582,10.043711,54.174373,2024-07-09 03:24:00,2024-07-09 03:25:00,2024-07-09 03:24:00,2024-07-09 03:25:00,0,0,
93,-2819238151300076653-2407090316-1,6,,8011242,5,Borna (b Leipzig),Sachsen,Borna,4552,12.486291,51.117926,,2024-07-09 03:16:00,,2024-07-09 03:16:00,0,0,Bauarbeiten
94,-4674302681811850992-2407081913-21,,Basel SBB|Basel Bad Bf|Freiburg(Breisgau) Hbf|Offenburg|Baden-Baden|Karlsruhe Hbf|Mannheim Hbf|Frankfurt(M) Flughafen Fernbf|Siegburg/Bonn|Köln Hbf|Düsseldorf Hbf|Düsseldorf Flughafen|Duisburg Hbf|Essen Hbf|Bochum Hbf|Dortmund Hbf|Hamm(Westf)Hbf|Bielefeld Hbf|Minden(Westf)|Hannover Hbf,8000049,2,Braunschweig Hbf,Niedersachsen,Braunschweig,38102,10.540295,52.252218,2024-07-09 03:14:00,2024-07-09 03:16:00,2024-07-09 03:14:00,2024-07-09 03:17:00,0,1,Information
95,8322424274180843926-2407081928-16,,München Hbf|München-Pasing|Augsburg Hbf|Ulm Hbf|Stuttgart Hbf|Mannheim Hbf|Frankfurt(M) Flughafen Fernbf|Siegburg/Bonn|Köln Hbf|Düsseldorf Hbf|Duisburg Hbf|Essen Hbf|Dortmund Hbf|Münster(Westf)Hbf|Osnabrück Hbf,8000050,2,Bremen Hbf,Bremen,Bremen,28195,8.813834,53.083481,2024-07-09 03:18:00,2024-07-09 03:20:00,2024-07-09 03:16:00,2024-07-09 03:20:00,-2,0,Information
96,-8475165044633207486-2407090343-2,6,Friedberg(Hess),8001196,5,Bruchenbrücken,Hessen,Friedberg (Hess.),61169,8.788402,50.301965,2024-07-09 03:47:00,2024-07-09 03:47:00,,,0,0,
97,7162647213947565562-2407090226-5,,Stuttgart Hbf|Ludwigsburg|Pforzheim Hbf|Karlsruhe Hbf,8000055,2,Bruchsal,Baden-Württemberg,Bruchsal,76646,8.589649,49.124622,2024-07-09 03:45:00,2024-07-09 03:47:00,2024-07-09 03:45:00,2024-07-09 03:47:00,0,0,
98,-138132356153188144-2407090317-6,1,Karlsruhe Hbf|Karlsruhe-Durlach|Weingarten(Baden)|Untergrombach|Bruchsal Bildungszentrum,8000055,2,Bruchsal,Baden-Württemberg,Bruchsal,76646,8.589649,49.124622,2024-07-09 03:35:00,2024-07-09 03:36:00,,,0,0,Störung
99,-2702170392548868455-2407090333-4,26,Bonn Hbf|Roisdorf|Sechtem,8001215,4,Brühl,Nordrhein-Westfalen,Brühl,50321,6.912718,50.829249,2024-07-09 03:44:00,2024-07-09 03:45:00,2024-07-09 03:44:00,2024-07-09 03:45:00,0,0,Bauarbeiten. (Quelle: zuginfo.nrw)
100,-7356420156445510434-2407090238-7,26,Köln/Bonn Flughafen|Köln Messe/Deutz|Köln Hbf|Köln West|Köln Süd|Hürth-Kalscheuren,8001215,4,Brühl,Nordrhein-Westfalen,Brühl,50321,6.912718,50.829249,2024-07-09 03:11:00,2024-07-09 03:12:00,2024-07-09 03:11:00,2024-07-09 03:12:00,0,0,Bauarbeiten. (Quelle: zuginfo.nrw)
101,-1250569488410439385-2407090335-8,3,Darmstadt Hbf|Darmstadt-Arheilgen|Darmstadt-Wixhausen|Erzhausen|Egelsbach|Langen(Hess)|Langen-Flugsicherung,8001236,4,Dreieich-Buchschlag,Hessen,Dreieich,63303,8.66115063,50.0224771,2024-07-09 03:53:00,2024-07-09 03:53:00,,,0,0,
102,-1251565744844871983-2407090236-8,19,Aachen Hbf|Aachen-Rothe Erde|Stolberg(Rheinl)Hbf|Eschweiler Hbf|Langerwehe|Düren|Merzenich,8001264,5,Buir,Nordrhein-Westfalen,Kerpen,50170,6.574514,50.862401,2024-07-09 03:11:00,2024-07-09 03:11:00,2024-07-09 03:16:00,2024-07-09 03:16:00,5,5,Bauarbeiten. (Quelle: zuginfo.nrw)
103,-3350829285278508323-2407090324-3,19,Horrem|Sindorf,8001264,5,Buir,Nordrhein-Westfalen,Kerpen,50170,6.574514,50.862401,2024-07-09 03:32:00,2024-07-09 03:33:00,2024-07-09 03:32:00,2024-07-09 03:33:00,0,0,Bauarbeiten. (Quelle: zuginfo.nrw)
104,-5397583228103808993-2407090316-8,19,Aachen Hbf|Aachen-Rothe Erde|Stolberg(Rheinl)Hbf|Eschweiler Hbf|Langerwehe|Düren|Merzenich,8001264,5,Buir,Nordrhein-Westfalen,Kerpen,50170,6.574514,50.862401,2024-07-09 03:51:00,2024-07-09 03:51:00,2024-07-09 03:51:00,2024-07-09 03:52:00,0,1,Bauarbeiten. (Quelle: zuginfo.nrw)
105,-2047243926671335434-2407090329-4,30,Köthen|Wulfen(Anh)|Sachsendorf(Calbe),8010070,5,Calbe (Saale) Ost,Sachsen-Anhalt,Calbe (Saale),39240,11.810527,51.920693,2024-07-09 03:45:00,2024-07-09 03:45:00,2024-07-09 03:45:00,2024-07-09 03:45:00,0,0,
106,-7132331045655510435-2407090359-1,RE6,,8010184,2,Chemnitz Hbf,Sachsen,Chemnitz ,9111,12.930877,50.839696,,2024-07-09 03:59:00,,,0,0,Bauarbeiten
107,-199422321941227724-2407090320-3,,Berlin-Charlottenburg|Berlin Zoologischer Garten,8011160,1,Berlin Hauptbahnhof,Berlin,Berlin,10557,13.369545,52.525592,2024-07-09 03:28:00,2024-07-09 03:29:00,2024-07-09 03:28:00,2024-07-09 03:29:00,0,0,
108,700156942723660705-2407090334-3,8,Berlin-Charlottenburg|Berlin Zoologischer Garten,8011160,1,Berlin Hauptbahnhof,Berlin,Berlin,10557,13.369545,52.525592,2024-07-09 03:43:00,2024-07-09 03:45:00,2024-07-09 03:43:00,2024-07-09 03:45:00,0,0,
109,3262097249322916769-2407090241-6,8,Flughafen BER|Berlin Ostkreuz|Berlin Ostbahnhof|Berlin Alexanderplatz|Berlin Friedrichstraße,8011160,1,Berlin Hauptbahnhof,Berlin,Berlin,10557,13.369545,52.525592,2024-07-09 03:13:00,2024-07-09 03:15:00,2024-07-09 03:13:00,2024-07-09 03:15:00,0,0,
110,1507163401013910914-2407090305-3,,Berlin-Charlottenburg|Berlin Zoologischer Garten,8011160,1,Berlin Hauptbahnhof,Berlin,Berlin,10557,13.369545,52.525592,2024-07-09 03:13:00,2024-07-09 03:15:00,2024-07-09 03:13:00,2024-07-09 03:15:00,0,0,
111,-783114804571488319-2407090347-1,2,,8010073,2,Cottbus Hbf,Brandenburg,Cottbus,3048,14.324162,51.750957,,2024-07-09 03:47:00,,,0,0,
112,-1052154697880603635-2407090307-1,2,,8010073,2,Cottbus Hbf,Brandenburg,Cottbus,3048,14.324162,51.750957,,2024-07-09 03:07:00,,,0,0,
113,-1250569488410439385-2407090335-1,3,,8000068,2,Darmstadt Hbf,Hessen,Darmstadt,64293,8.629636,49.872503,,2024-07-09 03:35:00,,,0,0,
114,-3284257143829618631-2407090358-1,13,,8010077,3,Dessau Hbf,Sachsen-Anhalt,Dessau-Roßlau,6844,12.234945,51.839865,,2024-07-09 03:58:00,,,0,0,
115,-389765114355125159-2407090343-4,RE19,Wesel|Friedrichsfeld(Niederrhein)|Voerde(Niederrhein),8001469,4,Dinslaken,Nordrhein-Westfalen,Dinslaken,46535,6.73803,51.567458,2024-07-09 03:53:00,2024-07-09 03:54:00,,,0,0,
116,3646559143861574448-2407090313-4,6,Düsseldorf Hbf|Düsseldorf-Bilk|Neuss Hbf,8001506,4,Dormagen,Nordrhein-Westfalen,Dormagen,41540,6.814837,51.099495,2024-07-09 03:36:00,2024-07-09 03:37:00,2024-07-09 03:36:00,2024-07-09 03:37:00,0,0,
117,-8475165044633207486-2407090343-6,6,Friedberg(Hess)|Bruchenbrücken|Nieder Wöllstadt|Okarben|Groß Karben,8001514,5,Dortelweil,Hessen,Bad Vilbel,61118,8.751145,50.207503,2024-07-09 03:59:00,2024-07-09 04:00:00,,,0,0,
118,1025611722263176185-2407090303-1,3,,8000080,1,Dortmund Hbf,Nordrhein-Westfalen,Dortmund,44137,7.45929,51.517896,,2024-07-09 03:03:00,,2024-07-09 03:03:00,0,0,Bauarbeiten. (Quelle: zuginfo.nrw)
119,8573811631662133764-2407082041-16,,München Hbf|Ingolstadt Hbf|Nürnberg Hbf|Würzburg Hbf|Aschaffenburg Hbf|Frankfurt(Main)Hbf|Frankfurt(M) Flughafen Fernbf|Limburg Süd|Montabaur|Siegburg/Bonn|Köln Messe/Deutz Gl.11-12|Düsseldorf Hbf|Duisburg Hbf|Essen Hbf|Bochum Hbf,8000080,1,Dortmund Hbf,Nordrhein-Westfalen,Dortmund,44137,7.45929,51.517896,2024-07-09 03:21:00,,2024-07-09 03:55:00,,34,0,Information
120,8503777394879306018-2407082324-14,,Frankfurt(Main)Hbf|Frankfurt(M) Flughafen Fernbf|Mainz Hbf|Bingen(Rhein) Hbf|Koblenz Hbf|Remagen|Bonn Hbf|Köln Hbf|Düsseldorf Hbf|Düsseldorf Flughafen|Duisburg Hbf|Essen Hbf|Bochum Hbf,8000080,1,Dortmund Hbf,Nordrhein-Westfalen,Dortmund,44137,7.45929,51.517896,2024-07-09 03:27:00,2024-07-09 03:32:00,2024-07-09 03:27:00,2024-07-09 03:32:00,0,0,Information
121,-4068911222865023920-2407090222-8,,Düsseldorf Hbf|Düsseldorf Flughafen|Duisburg Hbf|Mülheim(Ruhr)Hbf|Essen Hbf|Wattenscheid|Bochum Hbf,8000080,1,Dortmund Hbf,Nordrhein-Westfalen,Dortmund,44137,7.45929,51.517896,2024-07-09 03:14:00,,2024-07-09 03:14:00,,0,0,
122,-5463405634008665571-2407090137-31,,Düsseldorf Hbf|Düsseldorf Wehrhahn|Düsseldorf-Zoo|Düsseldorf-Derendorf|Düsseldorf-Unterrath|Düsseldorf Flughafen|Angermund|Duisburg-Rahm|Duisburg-Großenbaum|Duisburg-Buchholz|Duisburg-Schlenk|Duisburg Hbf|Mülheim(Ruhr)Styrum|Mülheim(Ruhr)Hbf|Essen-Frohnhausen|Essen West|Essen Hbf|Essen-Steele|Essen-Steele Ost|Essen-Eiberg|Wattenscheid-Höntrop|Bochum-Ehrenfeld|Bochum Hbf|Bochum-Langendreer West|Bochum-Langendreer|Dortmund-Kley|Dortmund-Oespel|Dortmund Universität|Dortmund-Dorstfeld Süd|Dortmund-Dorstfeld,8000080,1,Dortmund Hbf,Nordrhein-Westfalen,Dortmund,44137,7.45929,51.517896,2024-07-09 03:10:00,,2024-07-09 03:10:00,,0,0,Information. (Quelle: zuginfo.nrw)
123,8665711080315122274-2407090351-1,1,,8000080,1,Dortmund Hbf,Nordrhein-Westfalen,Dortmund,44137,7.45929,51.517896,,2024-07-09 03:51:00,,,0,0,Information. (Quelle: zuginfo.nrw)
124,-5761135966346571235-2407090317-7,1,Hamm(Westf)Hbf|Bönen-Nordbögge|Kamen|Kamen-Methler|Dortmund-Kurl|Dortmund-Scharnhorst,8000080,1,Dortmund Hbf,Nordrhein-Westfalen,Dortmund,44137,7.45929,51.517896,2024-07-09 03:43:00,2024-07-09 03:45:00,2024-07-09 03:43:00,2024-07-09 03:45:00,0,0,
125,8665711080315122274-2407090351-4,1,Dortmund Hbf|Dortmund-Dorstfeld|Dortmund-Dorstfeld Süd,8004419,4,Dortmund-Universität,Nordrhein-Westfalen,Dortmund,44227,7.417708,51.49274,2024-07-09 03:59:00,2024-07-09 04:00:00,,,0,0,Information. (Quelle: zuginfo.nrw)
126,-5463405634008665571-2407090137-30,1,Düsseldorf Hbf|Düsseldorf Wehrhahn|Düsseldorf-Zoo|Düsseldorf-Derendorf|Düsseldorf-Unterrath|Düsseldorf Flughafen|Angermund|Duisburg-Rahm|Duisburg-Großenbaum|Duisburg-Buchholz|Duisburg-Schlenk|Duisburg Hbf|Mülheim(Ruhr)Styrum|Mülheim(Ruhr)Hbf|Essen-Frohnhausen|Essen West|Essen Hbf|Essen-Steele|Essen-Steele Ost|Essen-Eiberg|Wattenscheid-Höntrop|Bochum-Ehrenfeld|Bochum Hbf|Bochum-Langendreer West|Bochum-Langendreer|Dortmund-Kley|Dortmund-Oespel|Dortmund Universität|Dortmund-Dorstfeld Süd,8000081,3,Dortmund-Dorstfeld,Nordrhein-Westfalen,Dortmund,44149,7.424864,51.509376,2024-07-09 03:02:00,2024-07-09 03:03:00,2024-07-09 03:03:00,2024-07-09 03:04:00,1,1,Information. (Quelle: zuginfo.nrw)
127,8665711080315122274-2407090351-2,1,Dortmund Hbf,8000081,3,Dortmund-Dorstfeld,Nordrhein-Westfalen,Dortmund,44149,7.424864,51.509376,2024-07-09 03:53:00,2024-07-09 03:56:00,,,0,0,Information. (Quelle: zuginfo.nrw)
128,-5463405634008665571-2407090137-29,1,Düsseldorf Hbf|Düsseldorf Wehrhahn|Düsseldorf-Zoo|Düsseldorf-Derendorf|Düsseldorf-Unterrath|Düsseldorf Flughafen|Angermund|Duisburg-Rahm|Duisburg-Großenbaum|Duisburg-Buchholz|Duisburg-Schlenk|Duisburg Hbf|Mülheim(Ruhr)Styrum|Mülheim(Ruhr)Hbf|Essen-Frohnhausen|Essen West|Essen Hbf|Essen-Steele|Essen-Steele Ost|Essen-Eiberg|Wattenscheid-Höntrop|Bochum-Ehrenfeld|Bochum Hbf|Bochum-Langendreer West|Bochum-Langendreer|Dortmund-Kley|Dortmund-Oespel|Dortmund Universität,8004230,4,Dortmund-Dorstfeld Süd,Nordrhein-Westfalen,Dortmund,44149,7.420017,51.500632,2024-07-09 03:00:00,2024-07-09 03:01:00,2024-07-09 03:01:00,2024-07-09 03:02:00,1,1,Information. (Quelle: zuginfo.nrw)
129,8665711080315122274-2407090351-3,1,Dortmund Hbf|Dortmund-Dorstfeld,8004230,4,Dortmund-Dorstfeld Süd,Nordrhein-Westfalen,Dortmund,44149,7.420017,51.500632,2024-07-09 03:57:00,2024-07-09 03:58:00,,,0,0,Information. (Quelle: zuginfo.nrw)
130,-5761135966346571235-2407090317-5,1,Hamm(Westf)Hbf|Bönen-Nordbögge|Kamen|Kamen-Methler,8001537,4,Dortmund-Kurl,Nordrhein-Westfalen,Dortmund,44319,7.585291,51.556979,2024-07-09 03:34:00,2024-07-09 03:35:00,2024-07-09 03:34:00,2024-07-09 03:35:00,0,0,
131,-5761135966346571235-2407090317-6,1,Hamm(Westf)Hbf|Bönen-Nordbögge|Kamen|Kamen-Methler|Dortmund-Kurl,8001515,5,Dortmund-Scharnhorst,Nordrhein-Westfalen,Dortmund,44328,7.536564,51.538373,2024-07-09 03:38:00,2024-07-09 03:38:00,2024-07-09 03:38:00,2024-07-09 03:38:00,0,0,
132,-3539849397710705080-2407090355-1,RB60,,8010085,1,Dresden Hbf,Sachsen,Dresden,1069,13.732035,51.040563,,2024-07-09 03:55:00,,2024-07-09 03:55:00,0,0,
133,6922614967570009295-2407090330-1,3,,8010085,1,Dresden Hbf,Sachsen,Dresden,1069,13.732035,51.040563,,2024-07-09 03:30:00,,2024-07-09 03:30:00,0,0,
134,-8745930355234119378-2407090033-4,,Berlin Hbf|Berlin Ostbahnhof|Dresden-Neustadt,8010085,1,Dresden Hbf,Sachsen,Dresden,1069,13.732035,51.040563,2024-07-09 02:53:00,2024-07-09 03:01:00,2024-07-09 02:54:00,2024-07-09 03:03:00,1,2,
135,-3539849397710705080-2407090355-2,RB60,Dresden Hbf,8013444,4,Dresden Mitte,Sachsen,Dresden,1067,13.724109,51.056168,2024-07-09 03:57:00,2024-07-09 03:58:00,2024-07-09 03:57:00,2024-07-09 03:58:00,0,0,
136,6922614967570009295-2407090330-2,3,Dresden Hbf,8013476,5,Dresden-Plauen,Sachsen,Dresden,1187,13.70317,51.02963,2024-07-09 03:34:00,2024-07-09 03:35:00,2024-07-09 03:34:00,2024-07-09 03:35:00,0,0,
137,1857411337300333873-2407090328-4,1,Rödermark-Ober Roden|Rodgau-Rollwald|Rodgau-Nieder Roden,8001567,5,Rodgau-Dudenhofen,Hessen,Rodgau-Dudenhofen (b Offe,63110,8.884482,50.010661,2024-07-09 03:35:00,2024-07-09 03:36:00,2024-07-09 03:35:00,2024-07-09 03:36:00,0,0,
138,3648612567491980959-2407090318-3,73,Saarbrücken Hbf|Jägersfreude,8001570,5,Dudweiler,Saarland,Saarbrücken,66125,7.027351,49.277299,2024-07-09 03:24:00,2024-07-09 03:24:00,2024-07-09 03:24:00,2024-07-09 03:24:00,0,0,
139,1025611722263176185-2407090303-6,3,Dortmund Hbf|Wanne-Eickel Hbf|Gelsenkirchen Hbf|Essen-Altenessen|Oberhausen Hbf,8000086,1,Duisburg Hbf,Nordrhein-Westfalen,Duisburg,47051,6.775903,51.429785,2024-07-09 03:50:00,2024-07-09 03:53:00,2024-07-09 03:50:00,2024-07-09 03:53:00,0,0,Bauarbeiten. (Quelle: zuginfo.nrw)
140,-6058665356135913865-2407090209-16,2,Münster(Westf)Hbf|Münster-Albachten|Senden-Bösensell|Nottuln-Appelhülsen|Buldern|Dülmen|Sythen|Haltern am See|Marl-Sinsen|Recklinghausen Hbf|Recklinghausen Süd|Wanne-Eickel Hbf|Gelsenkirchen Hbf|Essen Hbf|Mülheim(Ruhr)Hbf,8000086,1,Duisburg Hbf,Nordrhein-Westfalen,Duisburg,47051,6.775903,51.429785,2024-07-09 03:34:00,2024-07-09 03:36:00,2024-07-09 03:34:00,2024-07-09 03:36:00,0,0,
141,-2850536344288765402-2407090245-6,1,Dortmund Hbf|Bochum Hbf|Wattenscheid|Essen Hbf|Mülheim(Ruhr)Hbf,8000086,1,Duisburg Hbf,Nordrhein-Westfalen,Duisburg,47051,6.775903,51.429785,2024-07-09 03:21:00,2024-07-09 03:23:00,2024-07-09 03:25:00,2024-07-09 03:26:00,4,3,
142,-7957821270062947808-2407090336-6,1,Essen Hbf|Essen West|Essen-Frohnhausen|Mülheim(Ruhr)Hbf|Mülheim(Ruhr)Styrum,8000086,1,Duisburg Hbf,Nordrhein-Westfalen,Duisburg,47051,6.775903,51.429785,2024-07-09 03:54:00,2024-07-09 03:55:00,,,0,0,Information. (Quelle: zuginfo.nrw)
143,-7957821270062947808-2407090336-7,1,Essen Hbf|Essen West|Essen-Frohnhausen|Mülheim(Ruhr)Hbf|Mülheim(Ruhr)Styrum|Duisburg Hbf,8001596,5,Duisburg Schlenk,Nordrhein-Westfalen,Duisburg,47055,6.773206,51.401781,2024-07-09 03:57:00,2024-07-09 03:58:00,,,0,0,Information. (Quelle: zuginfo.nrw)
144,-6460516812909385421-2407090337-9,1,Düsseldorf Hbf|Düsseldorf Wehrhahn|Düsseldorf-Zoo|Düsseldorf-Derendorf|Düsseldorf-Unterrath|Düsseldorf Flughafen|Angermund|Duisburg-Rahm,8001602,4,Duisburg-Großenbaum,Nordrhein-Westfalen,Duisburg,47269,6.77747,51.364774,2024-07-09 03:56:00,2024-07-09 03:58:00,,,0,0,Information. (Quelle: zuginfo.nrw)
145,-6460516812909385421-2407090337-8,1,Düsseldorf Hbf|Düsseldorf Wehrhahn|Düsseldorf-Zoo|Düsseldorf-Derendorf|Düsseldorf-Unterrath|Düsseldorf Flughafen|Angermund,8001609,5,Duisburg-Rahm,Nordrhein-Westfalen,Duisburg,47269,6.779924,51.346835,2024-07-09 03:54:00,2024-07-09 03:54:00,,,0,0,Information. (Quelle: zuginfo.nrw)
146,-3350829285278508323-2407090324-5,,Horrem|Sindorf|Buir|Merzenich,8000084,3,Düren,Nordrhein-Westfalen,Düren,52351,6.482451,50.809517,2024-07-09 03:41:00,,2024-07-09 03:41:00,,0,0,Bauarbeiten. (Quelle: zuginfo.nrw)
147,-1251565744844871983-2407090236-6,19,Aachen Hbf|Aachen-Rothe Erde|Stolberg(Rheinl)Hbf|Eschweiler Hbf|Langerwehe,8000084,3,Düren,Nordrhein-Westfalen,Düren,52351,6.482451,50.809517,2024-07-09 03:04:00,2024-07-09 03:05:00,2024-07-09 03:08:00,2024-07-09 03:09:00,4,4,Bauarbeiten. (Quelle: zuginfo.nrw)
148,-5397583228103808993-2407090316-6,19,Aachen Hbf|Aachen-Rothe Erde|Stolberg(Rheinl)Hbf|Eschweiler Hbf|Langerwehe,8000084,3,Düren,Nordrhein-Westfalen,Düren,52351,6.482451,50.809517,2024-07-09 03:44:00,2024-07-09 03:45:00,2024-07-09 03:44:00,2024-07-09 03:45:00,0,0,Bauarbeiten. (Quelle: zuginfo.nrw)
149,8446536631229204539-2407090346-5,6,Langenfeld(Rhld)|Langenfeld(Rhld)-Berghausen|Düsseldorf-Hellerhof|Düsseldorf-Garath,8001584,3,Düsseldorf-Benrath,Nordrhein-Westfalen,Düsseldorf,40597,6.878931,51.162293,2024-07-09 03:56:00,2024-07-09 03:56:00,,,0,0,Bauarbeiten. (Quelle: zuginfo.nrw)
150,-2850536344288765402-2407090245-9,1,Dortmund Hbf|Bochum Hbf|Wattenscheid|Essen Hbf|Mülheim(Ruhr)Hbf|Duisburg Hbf|Düsseldorf Flughafen|Düsseldorf Hbf,8001584,3,Düsseldorf-Benrath,Nordrhein-Westfalen,Düsseldorf,40597,6.878931,51.162293,2024-07-09 03:45:00,2024-07-09 03:46:00,2024-07-09 03:48:00,2024-07-09 03:49:00,3,3,
151,-6058665356135913865-2407090209-17,2,Münster(Westf)Hbf|Münster-Albachten|Senden-Bösensell|Nottuln-Appelhülsen|Buldern|Dülmen|Sythen|Haltern am See|Marl-Sinsen|Recklinghausen Hbf|Recklinghausen Süd|Wanne-Eickel Hbf|Gelsenkirchen Hbf|Essen Hbf|Mülheim(Ruhr)Hbf|Duisburg Hbf,8000082,3,Düsseldorf Flughafen,Nordrhein-Westfalen,Düsseldorf,40474,6.786836,51.292009,2024-07-09 03:45:00,2024-07-09 03:46:00,2024-07-09 03:45:00,2024-07-09 03:47:00,0,1,
152,-2850536344288765402-2407090245-7,1,Dortmund Hbf|Bochum Hbf|Wattenscheid|Essen Hbf|Mülheim(Ruhr)Hbf|Duisburg Hbf,8000082,3,Düsseldorf Flughafen,Nordrhein-Westfalen,Düsseldorf,40474,6.786836,51.292009,2024-07-09 03:31:00,2024-07-09 03:32:00,2024-07-09 03:34:00,2024-07-09 03:35:00,3,3,
153,-6460516812909385421-2407090337-6,1,Düsseldorf Hbf|Düsseldorf Wehrhahn|Düsseldorf-Zoo|Düsseldorf-Derendorf|Düsseldorf-Unterrath,8000082,3,Düsseldorf Flughafen,Nordrhein-Westfalen,Düsseldorf,40474,6.786836,51.292009,2024-07-09 03:48:00,2024-07-09 03:48:00,,,0,0,Information. (Quelle: zuginfo.nrw)
154,-6460516812909385421-2407090337-1,1,,8000085,1,Düsseldorf Hbf,Nordrhein-Westfalen,Düsseldorf,40210,6.794319,51.219962,,2024-07-09 03:37:00,,,0,0,Information. (Quelle: zuginfo.nrw)
155,-6148792718782100272-2407090224-9,,Solingen Hbf|Solingen Vogelpark|Hilden Süd|Hilden|Düsseldorf-Eller|Düsseldorf-Eller Mitte|Düsseldorf-Oberbilk|Düsseldorf Volksgarten,8000085,1,Düsseldorf Hbf,Nordrhein-Westfalen,Düsseldorf,40210,6.794319,51.219962,2024-07-09 03:27:00,,,,0,0,
156,3646559143861574448-2407090313-1,6,,8000085,1,Düsseldorf Hbf,Nordrhein-Westfalen,Düsseldorf,40210,6.794319,51.219962,,2024-07-09 03:13:00,,2024-07-09 03:13:00,0,0,
157,7052633517207750651-2407082339-5,,Stuttgart Hbf|Frankfurt(M) Flughafen Fernbf|Köln Messe/Deutz|Köln Hbf,8000085,1,Düsseldorf Hbf,Nordrhein-Westfalen,Düsseldorf,40210,6.794319,51.219962,2024-07-09 03:12:00,,2024-07-09 03:05:00,,-7,0,
158,-6058665356135913865-2407090209-18,,Münster(Westf)Hbf|Münster-Albachten|Senden-Bösensell|Nottuln-Appelhülsen|Buldern|Dülmen|Sythen|Haltern am See|Marl-Sinsen|Recklinghausen Hbf|Recklinghausen Süd|Wanne-Eickel Hbf|Gelsenkirchen Hbf|Essen Hbf|Mülheim(Ruhr)Hbf|Duisburg Hbf|Düsseldorf Flughafen,8000085,1,Düsseldorf Hbf,Nordrhein-Westfalen,Düsseldorf,40210,6.794319,51.219962,2024-07-09 03:53:00,,2024-07-09 03:53:00,,0,0,
159,-2850536344288765402-2407090245-8,1,Dortmund Hbf|Bochum Hbf|Wattenscheid|Essen Hbf|Mülheim(Ruhr)Hbf|Duisburg Hbf|Düsseldorf Flughafen,8000085,1,Düsseldorf Hbf,Nordrhein-Westfalen,Düsseldorf,40210,6.794319,51.219962,2024-07-09 03:38:00,2024-07-09 03:40:00,2024-07-09 03:41:00,2024-07-09 03:43:00,3,3,
160,-7077376547267783966-2407090216-26,,Hagen Hbf|Hagen-Wehringhausen|Hagen-Heubing|Hagen-Westerbauer|Gevelsberg-Knapp|Gevelsberg Hbf|Gevelsberg-Kipp|Gevelsberg West|Schwelm|Schwelm West|Wuppertal-Langerfeld|Wuppertal-Oberbarmen|Wuppertal-Barmen|Wuppertal-Unterbarmen|Wuppertal Hbf|Wuppertal-Steinbeck|Wuppertal-Zoologischer Garten|Wuppertal-Sonnborn|Wuppertal-Vohwinkel|Haan-Gruiten|Hochdahl-Millrath|Hochdahl|Erkrath|Düsseldorf-Gerresheim|Düsseldorf-Flingern,8000085,1,Düsseldorf Hbf,Nordrhein-Westfalen,Düsseldorf,40210,6.794319,51.219962,2024-07-09 03:30:00,,2024-07-09 03:31:00,,1,0,Information. (Quelle: zuginfo.nrw)
161,-4964921095657007412-2407090335-1,8,,8000085,1,Düsseldorf Hbf,Nordrhein-Westfalen,Düsseldorf,40210,6.794319,51.219962,,2024-07-09 03:35:00,,,0,0,Information. (Quelle: zuginfo.nrw)
162,-6148792718782100272-2407090224-8,S1,Solingen Hbf|Solingen Vogelpark|Hilden Süd|Hilden|Düsseldorf-Eller|Düsseldorf-Eller Mitte|Düsseldorf-Oberbilk,8001581,5,Düsseldorf Volksgarten,Nordrhein-Westfalen,Düsseldorf,40227,6.791978,51.210138,2024-07-09 03:22:00,2024-07-09 03:22:00,,,0,0,
163,-6460516812909385421-2407090337-2,1,Düsseldorf Hbf,8001582,4,Düsseldorf Wehrhahn,Nordrhein-Westfalen,Düsseldorf,40211,6.798173,51.228447,2024-07-09 03:38:00,2024-07-09 03:39:00,,,0,0,Information. (Quelle: zuginfo.nrw)
164,-6460516812909385421-2407090337-3,1,Düsseldorf Hbf|Düsseldorf Wehrhahn,8001583,4,Düsseldorf Zoo,Nordrhein-Westfalen,Düsseldorf,40211,6.796924,51.236962,2024-07-09 03:40:00,2024-07-09 03:41:00,,,0,0,Information. (Quelle: zuginfo.nrw)
165,3646559143861574448-2407090313-2,6,Düsseldorf Hbf,8001585,4,Düsseldorf-Bilk,Nordrhein-Westfalen,Düsseldorf,40217,6.775578,51.207994,2024-07-09 03:15:00,2024-07-09 03:16:00,2024-07-09 03:15:00,2024-07-09 03:16:00,0,0,
166,-6460516812909385421-2407090337-4,1,Düsseldorf Hbf|Düsseldorf Wehrhahn|Düsseldorf-Zoo,8001586,3,Düsseldorf-Derendorf,Nordrhein-Westfalen,Düsseldorf,40470,6.794512,51.247624,2024-07-09 03:42:00,2024-07-09 03:43:00,,,0,0,Information. (Quelle: zuginfo.nrw)
167,-6148792718782100272-2407090224-5,S1,Solingen Hbf|Solingen Vogelpark|Hilden Süd|Hilden,8001587,5,Düsseldorf-Eller,Nordrhein-Westfalen,Düsseldorf,40627,6.851927,51.20267,2024-07-09 03:07:00,2024-07-09 03:07:00,,,0,0,
168,-6148792718782100272-2407090224-6,S1,Solingen Hbf|Solingen Vogelpark|Hilden Süd|Hilden|Düsseldorf-Eller,8001308,5,Düsseldorf-Eller Mitte,Nordrhein-Westfalen,Düsseldorf,40229,6.838607,51.202058,2024-07-09 03:12:00,2024-07-09 03:12:00,,,0,0,
169,-7077376547267783966-2407090216-25,8,Hagen Hbf|Hagen-Wehringhausen|Hagen-Heubing|Hagen-Westerbauer|Gevelsberg-Knapp|Gevelsberg Hbf|Gevelsberg-Kipp|Gevelsberg West|Schwelm|Schwelm West|Wuppertal-Langerfeld|Wuppertal-Oberbarmen|Wuppertal-Barmen|Wuppertal-Unterbarmen|Wuppertal Hbf|Wuppertal-Steinbeck|Wuppertal-Zoologischer Garten|Wuppertal-Sonnborn|Wuppertal-Vohwinkel|Haan-Gruiten|Hochdahl-Millrath|Hochdahl|Erkrath|Düsseldorf-Gerresheim,8001598,5,Düsseldorf-Flingern,Nordrhein-Westfalen,Düsseldorf,40235,6.81028426,51.2262413,2024-07-09 03:27:00,2024-07-09 03:28:00,2024-07-09 03:28:00,2024-07-09 03:29:00,1,1,Information. (Quelle: zuginfo.nrw)
170,8446536631229204539-2407090346-4,6,Langenfeld(Rhld)|Langenfeld(Rhld)-Berghausen|Düsseldorf-Hellerhof,8001589,5,Düsseldorf-Garath,Nordrhein-Westfalen,Düsseldorf,40595,6.897675,51.143626,2024-07-09 03:53:00,2024-07-09 03:53:00,,,0,0,Bauarbeiten. (Quelle: zuginfo.nrw)
171,-7077376547267783966-2407090216-24,8,Hagen Hbf|Hagen-Wehringhausen|Hagen-Heubing|Hagen-Westerbauer|Gevelsberg-Knapp|Gevelsberg Hbf|Gevelsberg-Kipp|Gevelsberg West|Schwelm|Schwelm West|Wuppertal-Langerfeld|Wuppertal-Oberbarmen|Wuppertal-Barmen|Wuppertal-Unterbarmen|Wuppertal Hbf|Wuppertal-Steinbeck|Wuppertal-Zoologischer Garten|Wuppertal-Sonnborn|Wuppertal-Vohwinkel|Haan-Gruiten|Hochdahl-Millrath|Hochdahl|Erkrath,8001590,5,Düsseldorf-Gerresheim,Nordrhein-Westfalen,Düsseldorf,40625,6.863933,51.220361,2024-07-09 03:23:00,2024-07-09 03:24:00,2024-07-09 03:23:00,2024-07-09 03:25:00,0,1,Information. (Quelle: zuginfo.nrw)
172,8446536631229204539-2407090346-3,6,Langenfeld(Rhld)|Langenfeld(Rhld)-Berghausen,8004920,5,Düsseldorf-Hellerhof,Nordrhein-Westfalen,Düsseldorf,40595,6.908277,51.133036,2024-07-09 03:51:00,2024-07-09 03:51:00,,,0,0,Bauarbeiten. (Quelle: zuginfo.nrw)
173,-6148792718782100272-2407090224-7,S1,Solingen Hbf|Solingen Vogelpark|Hilden Süd|Hilden|Düsseldorf-Eller|Düsseldorf-Eller Mitte,8001591,5,Düsseldorf-Oberbilk,Nordrhein-Westfalen,Düsseldorf,40591,6.808678,51.208047,2024-07-09 03:17:00,2024-07-09 03:17:00,,,0,0,
174,8446536631229204539-2407090346-6,6,Langenfeld(Rhld)|Langenfeld(Rhld)-Berghausen|Düsseldorf-Hellerhof|Düsseldorf-Garath|Düsseldorf-Benrath,8001594,4,Düsseldorf-Reisholz,Nordrhein-Westfalen,Düsseldorf,40599,6.860953,51.180782,2024-07-09 03:58:00,2024-07-09 03:59:00,,,0,0,Bauarbeiten. (Quelle: zuginfo.nrw)
175,-6460516812909385421-2407090337-5,1,Düsseldorf Hbf|Düsseldorf Wehrhahn|Düsseldorf-Zoo|Düsseldorf-Derendorf,8001595,4,Düsseldorf-Unterrath,Nordrhein-Westfalen,Düsseldorf,40468,6.788783,51.276732,2024-07-09 03:45:00,2024-07-09 03:46:00,,,0,0,Information. (Quelle: zuginfo.nrw)
176,-3623794154046630099-2407090353-1,63,,8010093,3,Eberswalde Hbf,Brandenburg,Eberswalde,16225,13.797062,52.834021,,2024-07-09 03:53:00,,,0,0,
177,5299446454939444539-2407090356-1,60,,8010093,3,Eberswalde Hbf,Brandenburg,Eberswalde,16225,13.797062,52.834021,,2024-07-09 03:56:00,,,0,0,
178,-7620500510844558750-2407090359-1,62,,8010093,3,Eberswalde Hbf,Brandenburg,Eberswalde,16225,13.797062,52.834021,,2024-07-09 03:59:00,,,0,0,
179,5165487457649339724-2407090335-6,1,Wiesbaden Hbf|Wiesbaden Ost|Mainz-Kastel|Hochheim(Main)|Flörsheim(Main),8001659,5,Eddersheim,Hessen,Hattersheim am Main,65795,8.456741,50.039492,2024-07-09 03:55:00,2024-07-09 03:55:00,,,0,0,
180,-1250569488410439385-2407090335-5,3,Darmstadt Hbf|Darmstadt-Arheilgen|Darmstadt-Wixhausen|Erzhausen,8001672,5,Egelsbach,Hessen,Egelsbach,63329,8.6536324,49.9691127,2024-07-09 03:46:00,2024-07-09 03:46:00,2024-07-09 03:46:00,2024-07-09 03:46:00,0,0,
181,-6554056229928634067-2407090319-5,22,Regensburg Hbf|Obertraubling|Köfering|Hagelstadt,8001679,5,Eggmühl,Bayern,Schierling,84069,12.182192,48.836497,2024-07-09 03:38:00,2024-07-09 03:38:00,2024-07-09 03:38:00,2024-07-09 03:39:00,0,1,
182,5320445485425096447-2407090349-1,EV,,8010097,3,Eisenach,Thüringen,Eisenach,99817,10.331986,50.976922,,2024-07-09 03:49:00,,2024-07-09 03:49:00,0,0,Information
183,-5364253239316331542-2407090330-5,,Hamburg-Altona|Pinneberg|Prisdorf|Tornesch,8000092,3,Elmshorn,Schleswig-Holstein,Elmshorn,25335,9.659408,53.754025,2024-07-09 03:53:00,,2024-07-09 03:53:00,,0,0,
184,-5967924537871298080-2407090314-6,70,Kiel Hbf|Bordesholm|Neumünster|Brokstedt|Wrist,8000092,3,Elmshorn,Schleswig-Holstein,Elmshorn,25335,9.659408,53.754025,2024-07-09 03:59:00,2024-07-09 04:00:00,2024-07-09 03:59:00,2024-07-09 04:01:00,0,1,
185,7016804452829305661-2407081959-10,,Zürich HB|Basel SBB|Basel Bad Bf|Freiburg(Breisgau) Hbf|Offenburg|Karlsruhe Hbf|Mannheim Hbf|Frankfurt(Main)Hbf|Fulda,8010101,2,Erfurt Hbf,Thüringen,Erfurt,99084,11.0379928,50.9723561,2024-07-09 03:14:00,2024-07-09 03:16:00,2024-07-09 03:13:00,2024-07-09 03:16:00,-1,0,
186,2116822086564594631-2407090009-8,,Berlin Gesundbrunnen|Berlin Hbf|Berlin Südkreuz|Lutherstadt Wittenberg Hbf|Bitterfeld|Halle(Saale)Hbf|Leipzig Hbf,8010101,2,Erfurt Hbf,Thüringen,Erfurt,99084,11.0379928,50.9723561,2024-07-09 03:25:00,2024-07-09 03:57:00,2024-07-09 03:26:00,2024-07-09 04:00:00,1,3,Bauarbeiten
187,5981134875112714787-2407081959-10,,Zürich HB|Basel SBB|Basel Bad Bf|Freiburg(Breisgau) Hbf|Offenburg|Karlsruhe Hbf|Mannheim Hbf|Frankfurt(Main)Hbf|Fulda,8010101,2,Erfurt Hbf,Thüringen,Erfurt,99084,11.0379928,50.9723561,2024-07-09 03:14:00,2024-07-09 03:16:00,2024-07-09 03:13:00,2024-07-09 03:16:00,-1,0,
188,1961181705396261168-2407081959-10,,Zürich HB|Basel SBB|Basel Bad Bf|Freiburg(Breisgau) Hbf|Offenburg|Karlsruhe Hbf|Mannheim Hbf|Frankfurt(Main)Hbf|Fulda,8010101,2,Erfurt Hbf,Thüringen,Erfurt,99084,11.0379928,50.9723561,2024-07-09 03:14:00,2024-07-09 03:16:00,2024-07-09 03:13:00,2024-07-09 03:16:00,-1,0,
189,-2494453527783146128-2407081959-10,,Zürich HB|Basel SBB|Basel Bad Bf|Freiburg(Breisgau) Hbf|Offenburg|Karlsruhe Hbf|Mannheim Hbf|Frankfurt(Main)Hbf|Fulda,8010101,2,Erfurt Hbf,Thüringen,Erfurt,99084,11.0379928,50.9723561,2024-07-09 03:14:00,2024-07-09 03:16:00,2024-07-09 03:13:00,2024-07-09 03:16:00,-1,0,
190,2452490716313299869-2407090021-6,,München Hbf|Nürnberg Hbf|Erlangen|Bamberg|Coburg,8010101,2,Erfurt Hbf,Thüringen,Erfurt,99084,11.0379928,50.9723561,2024-07-09 03:07:00,2024-07-09 03:09:00,2024-07-09 03:31:00,2024-07-09 03:33:00,24,24,
191,-6554056229928634067-2407090319-7,22,Regensburg Hbf|Obertraubling|Köfering|Hagelstadt|Eggmühl|Neufahrn(Niederbay),8001835,5,Ergoldsbach,Bayern,Ergoldsbach,84061,12.201874,48.693868,2024-07-09 03:51:00,2024-07-09 03:51:00,2024-07-09 03:51:00,2024-07-09 03:52:00,0,1,
192,-1623994736072630433-2407090253-9,4,Aachen Hbf|Aachen Schanz|Aachen West|Herzogenrath|Übach-Palenberg|Geilenkirchen|Lindern|Hückelhoven-Baal,8001839,4,Erkelenz,Nordrhein-Westfalen,Erkelenz,41812,6.32163405,51.0765972,2024-07-09 03:33:00,2024-07-09 03:34:00,2024-07-09 03:36:00,2024-07-09 03:37:00,3,3,
193,-7077376547267783966-2407090216-23,8,Hagen Hbf|Hagen-Wehringhausen|Hagen-Heubing|Hagen-Westerbauer|Gevelsberg-Knapp|Gevelsberg Hbf|Gevelsberg-Kipp|Gevelsberg West|Schwelm|Schwelm West|Wuppertal-Langerfeld|Wuppertal-Oberbarmen|Wuppertal-Barmen|Wuppertal-Unterbarmen|Wuppertal Hbf|Wuppertal-Steinbeck|Wuppertal-Zoologischer Garten|Wuppertal-Sonnborn|Wuppertal-Vohwinkel|Haan-Gruiten|Hochdahl-Millrath|Hochdahl,8001841,5,Erkrath,Nordrhein-Westfalen,Erkrath,40699,6.902412,51.220458,2024-07-09 03:19:00,2024-07-09 03:20:00,2024-07-09 03:19:00,2024-07-09 03:21:00,0,1,Information. (Quelle: zuginfo.nrw)
194,5345924912571245273-2407082134-15,,Hamburg-Altona|Hamburg Dammtor|Hamburg Hbf|Büchen|Ludwigslust|Wittenberge|Berlin-Spandau|Berlin Hbf|Berlin Südkreuz|Lutherstadt Wittenberg Hbf|Leipzig Hbf|Erfurt Hbf|Coburg|Bamberg,8001844,3,Erlangen,Bayern,Erlangen,91054,11.0016382,49.5958303,2024-07-09 03:36:00,2024-07-09 03:38:00,2024-07-09 03:36:00,2024-07-09 03:38:00,0,0,
195,-1250569488410439385-2407090335-4,3,Darmstadt Hbf|Darmstadt-Arheilgen|Darmstadt-Wixhausen,8001864,4,Erzhausen,Hessen,Erzhausen,64390,8.65099311,49.9508678,2024-07-09 03:43:00,2024-07-09 03:44:00,2024-07-09 03:43:00,2024-07-09 03:44:00,0,0,
196,155992079699948133-2407090345-6,3,Bad Soden(Taunus)|Sulzbach(Taunus)Nord|Schwalbach(Taunus)Limes|Schwalbach(Taunus)Nord|Niederhöchstadt,8001870,5,Eschborn,Hessen,Eschborn,65760,8.560971,50.143618,2024-07-09 03:55:00,2024-07-09 03:56:00,,,0,0,
197,155992079699948133-2407090345-7,3,Bad Soden(Taunus)|Sulzbach(Taunus)Nord|Schwalbach(Taunus)Limes|Schwalbach(Taunus)Nord|Niederhöchstadt|Eschborn,8001871,5,Eschborn Süd,Hessen,Eschborn,65760,8.578487,50.133563,2024-07-09 03:58:00,2024-07-09 03:58:00,,,0,0,
198,-5397583228103808993-2407090316-4,19,Aachen Hbf|Aachen-Rothe Erde|Stolberg(Rheinl)Hbf,8001886,4,Eschweiler Hbf,Nordrhein-Westfalen,Eschweiler,52249,6.251937,50.813532,2024-07-09 03:32:00,2024-07-09 03:32:00,2024-07-09 03:31:00,2024-07-09 03:32:00,-1,0,Bauarbeiten. (Quelle: zuginfo.nrw)
199,8503777394879306018-2407082324-12,,Frankfurt(Main)Hbf|Frankfurt(M) Flughafen Fernbf|Mainz Hbf|Bingen(Rhein) Hbf|Koblenz Hbf|Remagen|Bonn Hbf|Köln Hbf|Düsseldorf Hbf|Düsseldorf Flughafen|Duisburg Hbf,8000098,1,Essen Hbf,Nordrhein-Westfalen,Essen,45127,7.014793,51.451355,2024-07-09 03:03:00,2024-07-09 03:05:00,2024-07-09 03:03:00,2024-07-09 03:05:00,0,0,Information
200,-6058665356135913865-2407090209-14,2,Münster(Westf)Hbf|Münster-Albachten|Senden-Bösensell|Nottuln-Appelhülsen|Buldern|Dülmen|Sythen|Haltern am See|Marl-Sinsen|Recklinghausen Hbf|Recklinghausen Süd|Wanne-Eickel Hbf|Gelsenkirchen Hbf,8000098,1,Essen Hbf,Nordrhein-Westfalen,Essen,45127,7.014793,51.451355,2024-07-09 03:19:00,2024-07-09 03:21:00,2024-07-09 03:20:00,2024-07-09 03:22:00,1,1,
201,-2850536344288765402-2407090245-4,1,Dortmund Hbf|Bochum Hbf|Wattenscheid,8000098,1,Essen Hbf,Nordrhein-Westfalen,Essen,45127,7.014793,51.451355,2024-07-09 03:07:00,2024-07-09 03:09:00,2024-07-09 03:13:00,2024-07-09 03:14:00,6,5,
202,-7392083881617593822-2407090356-1,2,,8000098,1,Essen Hbf,Nordrhein-Westfalen,Essen,45127,7.014793,51.451355,,2024-07-09 03:56:00,,,0,0,Bauarbeiten. (Quelle: zuginfo.nrw)
203,-7957821270062947808-2407090336-1,1,,8000098,1,Essen Hbf,Nordrhein-Westfalen,Essen,45127,7.014793,51.451355,,2024-07-09 03:36:00,,,0,0,Information. (Quelle: zuginfo.nrw)
204,3839062782000571422-2407090151-12,,Düsseldorf-Unterrath|Düsseldorf-Rath Mitte|Düsseldorf-Rath|Ratingen Ost|Hösel|Kettwig Stausee|Kettwig|Essen-Werden|Essen-Hügel|Essen Stadtwald|Essen Süd,8000098,1,Essen Hbf,Nordrhein-Westfalen,Essen,45127,7.014793,51.451355,2024-07-09 03:11:00,,2024-07-09 03:11:00,,0,0,
205,4584806807655155350-2407090217-14,,Dortmund Hbf|Dortmund-Dorstfeld|Dortmund-Wischlingen|Dortmund-Huckarde|Dortmund-Westerfilde|Dortmund-Nette/Oestrich|Dortmund-Mengede|Castrop-Rauxel Hbf|Herne|Wanne-Eickel Hbf|Gelsenkirchen Hbf|Gelsenkirchen-Rotthausen|Essen-Kray Nord,8000098,1,Essen Hbf,Nordrhein-Westfalen,Essen,45127,7.014793,51.451355,2024-07-09 03:06:00,,2024-07-09 03:06:00,,0,0,Bauarbeiten. (Quelle: zuginfo.nrw)
206,3839062782000571422-2407090151-11,S6,Düsseldorf-Unterrath|Düsseldorf-Rath Mitte|Düsseldorf-Rath|Ratingen Ost|Hösel|Kettwig Stausee|Kettwig|Essen-Werden|Essen-Hügel|Essen Stadtwald,8001897,5,Essen Süd,Nordrhein-Westfalen,Essen,45136,7.023098,51.439295,2024-07-09 03:01:00,2024-07-09 03:01:00,2024-07-09 03:01:00,2024-07-09 03:01:00,0,0,
207,-7957821270062947808-2407090336-2,1,Essen Hbf,8001898,4,Essen West,Nordrhein-Westfalen,Essen,45144,6.979798,51.454497,2024-07-09 03:38:00,2024-07-09 03:39:00,,,0,0,Information. (Quelle: zuginfo.nrw)
208,1025611722263176185-2407090303-4,3,Dortmund Hbf|Wanne-Eickel Hbf|Gelsenkirchen Hbf,8001900,5,Essen-Altenessen,Nordrhein-Westfalen,Essen,45326,7.007252,51.48437,2024-07-09 03:34:00,2024-07-09 03:35:00,2024-07-09 03:34:00,2024-07-09 03:35:00,0,0,Bauarbeiten. (Quelle: zuginfo.nrw)
209,-7957821270062947808-2407090336-3,1,Essen Hbf|Essen West,8001906,4,Essen-Frohnhausen,Nordrhein-Westfalen,Essen,45144,6.965285,51.455113,2024-07-09 03:40:00,2024-07-09 03:41:00,,,0,0,Information. (Quelle: zuginfo.nrw)
210,4693049160569863660-2407090353-3,1,Plochingen|Altbach,8006642,3,Esslingen-Zell,Baden-Württemberg,Esslingen am Neckar,73730,9.359389,48.724328,2024-07-09 03:57:00,2024-07-09 03:57:00,,,0,0,Information
211,-566268011427851812-2407090325-1,RB43,,8010103,3,Falkenberg (Elster),Brandenburg,Falkenberg (Elster),4895,13.247685,51.58362,,2024-07-09 03:25:00,,,0,0,
212,6008261741926408807-2407082359-6,,Koebenhavn H|Ringsted st|Odense st|Kolding st|Padborg st,8000103,3,Flensburg,Schleswig-Holstein,Flensburg,24937,9.436526,54.774039,2024-07-09 03:37:00,2024-07-09 03:49:00,2024-07-09 03:36:00,2024-07-09 03:49:00,-1,0,Information
213,5165487457649339724-2407090335-5,1,Wiesbaden Hbf|Wiesbaden Ost|Mainz-Kastel|Hochheim(Main),8002013,4,Flörsheim (Main),Hessen,Flörsheim (Main),65439,8.431013,50.017211,2024-07-09 03:52:00,2024-07-09 03:52:00,2024-07-09 03:51:00,2024-07-09 03:52:00,-1,0,
214,-869553568704520980-2407090305-13,9,Berlin Alexanderplatz (S)|Berlin Jannowitzbrücke|Berlin Ostbahnhof (S)|Berlin Warschauer Straße|Berlin Treptower Park|Berlin Plänterwald|Berlin Baumschulenweg|Berlin-Schöneweide (S)|Berlin-Johannisthal|Berlin-Adlershof|Berlin-Altglienicke|Berlin Grünbergallee,8010109,3,Schönefeld (bei Berlin),Brandenburg,Schönefeld,12527,13.51271,52.391062,2024-07-09 03:37:00,2024-07-09 03:37:00,2024-07-09 03:37:00,2024-07-09 03:37:00,0,0,
215,2333085653073913730-2407090358-1,9,,8010109,3,Schönefeld (bei Berlin),Brandenburg,Schönefeld,12527,13.51271,52.391062,,2024-07-09 03:58:00,,,0,0,
216,-4816638915445108312-2407090335-3,,Flughafen BER (S-Bahn)|Waßmannsdorf,8010109,3,Schönefeld (bei Berlin),Brandenburg,Schönefeld,12527,13.51271,52.391062,2024-07-09 03:43:00,,,,0,0,
217,7265579896316843783-2407090302-21,9,Berlin Charlottenburg (S)|Berlin Savignyplatz|Berlin Zoologischer Garten (S)|Berlin-Tiergarten|Berlin Bellevue|Berlin Hbf (S-Bahn)|Berlin Friedrichstraße (S)|Berlin Hackescher Markt|Berlin Alexanderplatz (S)|Berlin Jannowitzbrücke|Berlin Ostbahnhof (S)|Berlin Warschauer Straße|Berlin Treptower Park|Berlin Plänterwald|Berlin Baumschulenweg|Berlin-Schöneweide (S)|Berlin-Johannisthal|Berlin-Adlershof|Berlin-Altglienicke|Berlin Grünbergallee,8010109,3,Schönefeld (bei Berlin),Brandenburg,Schönefeld,12527,13.51271,52.391062,2024-07-09 03:52:00,2024-07-09 03:52:00,2024-07-09 03:52:00,2024-07-09 03:52:00,0,0,
218,-3673936193428388018-2407090303-20,,München-Pasing|München-Laim|München Hirschgarten|München Donnersbergerbrücke|München Hackerbrücke|München Hbf (tief)|München Karlsplatz|München Marienplatz|München Isartor|München Rosenheimer Platz|München Ost|München Leuchtenbergring|München-Daglfing|München-Englschalking|München-Johanneskirchen|Unterföhring|Ismaning|Hallbergmoos|München Flughafen Besucherpark,8004168,4,Flughafen München,Bayern,Oberding,85356,11.78597,48.353728,2024-07-09 03:55:00,,2024-07-09 03:55:00,,0,0,
219,4316668067973282615-2407090319-5,,Landshut(Bay)Hbf|Moosburg|Freising|München Flughafen Besucherpark,8004168,4,Flughafen München,Bayern,Oberding,85356,11.78597,48.353728,2024-07-09 03:55:00,,2024-07-09 03:55:00,,0,0,Bauarbeiten
220,-4321951582378922312-2407090223-20,,München-Pasing|München-Laim|München Hirschgarten|München Donnersbergerbrücke|München Hackerbrücke|München Hbf (tief)|München Karlsplatz|München Marienplatz|München Isartor|München Rosenheimer Platz|München Ost|München Leuchtenbergring|München-Daglfing|München-Englschalking|München-Johanneskirchen|Unterföhring|Ismaning|Hallbergmoos|München Flughafen Besucherpark,8004168,4,Flughafen München,Bayern,Oberding,85356,11.78597,48.353728,2024-07-09 03:15:00,,2024-07-09 03:15:00,,0,0,
221,-3673936193428388018-2407090303-19,8,München-Pasing|München-Laim|München Hirschgarten|München Donnersbergerbrücke|München Hackerbrücke|München Hbf (tief)|München Karlsplatz|München Marienplatz|München Isartor|München Rosenheimer Platz|München Ost|München Leuchtenbergring|München-Daglfing|München-Englschalking|München-Johanneskirchen|Unterföhring|Ismaning|Hallbergmoos,8004167,4,Flughafen München Besucherpark,Bayern,Freising,85354,11.764185,48.352095,2024-07-09 03:53:00,2024-07-09 03:53:00,2024-07-09 03:53:00,2024-07-09 03:53:00,0,0,
222,4316668067973282615-2407090319-4,22,Landshut(Bay)Hbf|Moosburg|Freising,8004167,4,Flughafen München Besucherpark,Bayern,Freising,85354,11.764185,48.352095,2024-07-09 03:52:00,2024-07-09 03:52:00,2024-07-09 03:52:00,2024-07-09 03:53:00,0,1,Bauarbeiten
223,-4321951582378922312-2407090223-19,8,München-Pasing|München-Laim|München Hirschgarten|München Donnersbergerbrücke|München Hackerbrücke|München Hbf (tief)|München Karlsplatz|München Marienplatz|München Isartor|München Rosenheimer Platz|München Ost|München Leuchtenbergring|München-Daglfing|München-Englschalking|München-Johanneskirchen|Unterföhring|Ismaning|Hallbergmoos,8004167,4,Flughafen München Besucherpark,Bayern,Freising,85354,11.764185,48.352095,2024-07-09 03:13:00,2024-07-09 03:13:00,2024-07-09 03:13:00,2024-07-09 03:14:00,0,1,
224,-5671562569667632750-2407090248-12,8,Wiesbaden Hbf|Wiesbaden Ost|Mainz Nord|Mainz Hbf|Mainz Römisches Theater|Mainz-Gustavsburg|Mainz-Bischofsheim|Rüsselsheim Opelwerk|Rüsselsheim|Raunheim|Kelsterbach,8070004,3,Frankfurt (Main) Flughafen Regionalbahnhof,Hessen,Frankfurt am Main,60549,8.571251,50.051219,2024-07-09 03:28:00,2024-07-09 03:30:00,2024-07-09 03:29:00,2024-07-09 03:30:00,1,0,
225,8864827325846342282-2407090246-18,8,Hanau Hbf|Steinheim(Main)|Mühlheim(Main)-Dietesheim|Mühlheim(Main)|Offenbach(Main)Ost|Offenbach(Main) Marktplatz|Offenbach(Main) Ledermuseum|Offenbach(Main) Kaiserlei|Frankfurt(M)Mühlberg|Frankfurt(M)Ostendstraße|Frankfurt(M)Konstablerwache|Frankfurt(M)Hauptwache|Frankfurt(M)Taunusanlage|Frankfurt Hbf (tief)|Frankfurt-Niederrad|Frankfurt am Main - Stadion|Frankfurt(Main)-Gateway Gardens,8070004,3,Frankfurt (Main) Flughafen Regionalbahnhof,Hessen,Frankfurt am Main,60549,8.571251,50.051219,2024-07-09 03:28:00,2024-07-09 03:30:00,2024-07-09 03:29:00,2024-07-09 03:30:00,1,0,
226,8298546341087869344-2407090341-8,9,Frankfurt(M)Konstablerwache|Frankfurt(M)Hauptwache|Frankfurt(M)Taunusanlage|Frankfurt Hbf (tief)|Frankfurt-Niederrad|Frankfurt am Main - Stadion|Frankfurt(Main)-Gateway Gardens,8070004,3,Frankfurt (Main) Flughafen Regionalbahnhof,Hessen,Frankfurt am Main,60549,8.571251,50.051219,2024-07-09 03:58:00,2024-07-09 04:00:00,,,0,0,
227,7465820719902340889-2407090318-12,8,Wiesbaden Hbf|Wiesbaden Ost|Mainz Nord|Mainz Hbf|Mainz Römisches Theater|Mainz-Gustavsburg|Mainz-Bischofsheim|Rüsselsheim Opelwerk|Rüsselsheim|Raunheim|Kelsterbach,8070004,3,Frankfurt (Main) Flughafen Regionalbahnhof,Hessen,Frankfurt am Main,60549,8.571251,50.051219,2024-07-09 03:58:00,2024-07-09 04:00:00,2024-07-09 03:59:00,2024-07-09 04:00:00,1,0,
228,-6082121702503471423-2407090241-8,8,Frankfurt(M)Konstablerwache|Frankfurt(M)Hauptwache|Frankfurt(M)Taunusanlage|Frankfurt Hbf (tief)|Frankfurt-Niederrad|Frankfurt am Main - Stadion|Frankfurt(Main)-Gateway Gardens,8070004,3,Frankfurt (Main) Flughafen Regionalbahnhof,Hessen,Frankfurt am Main,60549,8.571251,50.051219,2024-07-09 02:58:00,2024-07-09 03:00:00,2024-07-09 02:59:00,2024-07-09 03:00:00,1,0,
229,501314707182108660-2407090254-2,8,Kelsterbach,8070004,3,Frankfurt (Main) Flughafen Regionalbahnhof,Hessen,Frankfurt am Main,60549,8.571251,50.051219,2024-07-09 02:58:00,2024-07-09 03:00:00,2024-07-09 02:59:00,2024-07-09 03:00:00,1,0,
230,-5671562569667632750-2407090248-21,8,Wiesbaden Hbf|Wiesbaden Ost|Mainz Nord|Mainz Hbf|Mainz Römisches Theater|Mainz-Gustavsburg|Mainz-Bischofsheim|Rüsselsheim Opelwerk|Rüsselsheim|Raunheim|Kelsterbach|Frankfurt(M) Flughafen Regionalbf|Frankfurt(Main)-Gateway Gardens|Frankfurt am Main - Stadion|Frankfurt-Niederrad|Frankfurt Hbf (tief)|Frankfurt(M)Taunusanlage|Frankfurt(M)Hauptwache|Frankfurt(M)Konstablerwache|Frankfurt(M)Ostendstraße,8002034,4,Frankfurt (Main) Mühlberg,Hessen,Frankfurt am Main,60599,8.701504,50.101609,2024-07-09 03:53:00,2024-07-09 03:53:00,2024-07-09 03:53:00,2024-07-09 03:54:00,0,1,
231,8864827325846342282-2407090246-9,8,Hanau Hbf|Steinheim(Main)|Mühlheim(Main)-Dietesheim|Mühlheim(Main)|Offenbach(Main)Ost|Offenbach(Main) Marktplatz|Offenbach(Main) Ledermuseum|Offenbach(Main) Kaiserlei,8002034,4,Frankfurt (Main) Mühlberg,Hessen,Frankfurt am Main,60599,8.701504,50.101609,2024-07-09 03:06:00,2024-07-09 03:07:00,2024-07-09 03:07:00,2024-07-09 03:07:00,1,0,
232,-5671562569667632750-2407090248-20,8,Wiesbaden Hbf|Wiesbaden Ost|Mainz Nord|Mainz Hbf|Mainz Römisches Theater|Mainz-Gustavsburg|Mainz-Bischofsheim|Rüsselsheim Opelwerk|Rüsselsheim|Raunheim|Kelsterbach|Frankfurt(M) Flughafen Regionalbf|Frankfurt(Main)-Gateway Gardens|Frankfurt am Main - Stadion|Frankfurt-Niederrad|Frankfurt Hbf (tief)|Frankfurt(M)Taunusanlage|Frankfurt(M)Hauptwache|Frankfurt(M)Konstablerwache,8002058,3,Frankfurt (Main) Ostendstraße,Hessen,Frankfurt am Main,60314,8.696987,50.112562,2024-07-09 03:51:00,2024-07-09 03:51:00,2024-07-09 03:51:00,2024-07-09 03:51:00,0,0,
233,8864827325846342282-2407090246-10,8,Hanau Hbf|Steinheim(Main)|Mühlheim(Main)-Dietesheim|Mühlheim(Main)|Offenbach(Main)Ost|Offenbach(Main) Marktplatz|Offenbach(Main) Ledermuseum|Offenbach(Main) Kaiserlei|Frankfurt(M)Mühlberg,8002058,3,Frankfurt (Main) Ostendstraße,Hessen,Frankfurt am Main,60314,8.696987,50.112562,2024-07-09 03:09:00,2024-07-09 03:09:00,2024-07-09 03:09:00,2024-07-09 03:10:00,0,1,
234,-5671562569667632750-2407090248-14,8,Wiesbaden Hbf|Wiesbaden Ost|Mainz Nord|Mainz Hbf|Mainz Römisches Theater|Mainz-Gustavsburg|Mainz-Bischofsheim|Rüsselsheim Opelwerk|Rüsselsheim|Raunheim|Kelsterbach|Frankfurt(M) Flughafen Regionalbf|Frankfurt(Main)-Gateway Gardens,8002040,3,Frankfurt am Main Stadion,Hessen,Frankfurt am Main,60528,8.633247,50.068228,2024-07-09 03:36:00,2024-07-09 03:36:00,2024-07-09 03:35:00,2024-07-09 03:36:00,-1,0,
235,8864827325846342282-2407090246-16,8,Hanau Hbf|Steinheim(Main)|Mühlheim(Main)-Dietesheim|Mühlheim(Main)|Offenbach(Main)Ost|Offenbach(Main) Marktplatz|Offenbach(Main) Ledermuseum|Offenbach(Main) Kaiserlei|Frankfurt(M)Mühlberg|Frankfurt(M)Ostendstraße|Frankfurt(M)Konstablerwache|Frankfurt(M)Hauptwache|Frankfurt(M)Taunusanlage|Frankfurt Hbf (tief)|Frankfurt-Niederrad,8002040,3,Frankfurt am Main Stadion,Hessen,Frankfurt am Main,60528,8.633247,50.068228,2024-07-09 03:23:00,2024-07-09 03:23:00,2024-07-09 03:23:00,2024-07-09 03:23:00,0,0,
236,8298546341087869344-2407090341-6,9,Frankfurt(M)Konstablerwache|Frankfurt(M)Hauptwache|Frankfurt(M)Taunusanlage|Frankfurt Hbf (tief)|Frankfurt-Niederrad,8002040,3,Frankfurt am Main Stadion,Hessen,Frankfurt am Main,60528,8.633247,50.068228,2024-07-09 03:53:00,2024-07-09 03:53:00,,,0,0,
237,-5052766045780055790-2407090330-8,7,Riedstadt-Goddelau|Riedstadt-Wolfskehlen|Groß Gerau-Dornheim|Groß Gerau-Dornberg|Mörfelden|Walldorf(Hess)|Zeppelinheim,8002040,3,Frankfurt am Main Stadion,Hessen,Frankfurt am Main,60528,8.633247,50.068228,2024-07-09 03:57:00,2024-07-09 03:57:00,2024-07-09 03:56:00,2024-07-09 03:57:00,-1,0,Information
238,501314707182108660-2407090254-4,8,Kelsterbach|Frankfurt(M) Flughafen Regionalbf|Frankfurt(Main)-Gateway Gardens,8002040,3,Frankfurt am Main Stadion,Hessen,Frankfurt am Main,60528,8.633247,50.068228,2024-07-09 03:06:00,2024-07-09 03:06:00,2024-07-09 03:05:00,2024-07-09 03:06:00,-1,0,
239,-5671562569667632750-2407090248-17,8,Wiesbaden Hbf|Wiesbaden Ost|Mainz Nord|Mainz Hbf|Mainz Römisches Theater|Mainz-Gustavsburg|Mainz-Bischofsheim|Rüsselsheim Opelwerk|Rüsselsheim|Raunheim|Kelsterbach|Frankfurt(M) Flughafen Regionalbf|Frankfurt(Main)-Gateway Gardens|Frankfurt am Main - Stadion|Frankfurt-Niederrad|Frankfurt Hbf (tief),8006691,3,Frankfurt (Main) Taunusanlage,Hessen,Frankfurt am Main,60325,8.668864,50.113565,2024-07-09 03:46:00,2024-07-09 03:46:00,2024-07-09 03:46:00,2024-07-09 03:46:00,0,0,
240,8864827325846342282-2407090246-13,8,Hanau Hbf|Steinheim(Main)|Mühlheim(Main)-Dietesheim|Mühlheim(Main)|Offenbach(Main)Ost|Offenbach(Main) Marktplatz|Offenbach(Main) Ledermuseum|Offenbach(Main) Kaiserlei|Frankfurt(M)Mühlberg|Frankfurt(M)Ostendstraße|Frankfurt(M)Konstablerwache|Frankfurt(M)Hauptwache,8006691,3,Frankfurt (Main) Taunusanlage,Hessen,Frankfurt am Main,60325,8.668864,50.113565,2024-07-09 03:14:00,2024-07-09 03:14:00,2024-07-09 03:14:00,2024-07-09 03:15:00,0,1,
241,8298546341087869344-2407090341-3,9,Frankfurt(M)Konstablerwache|Frankfurt(M)Hauptwache,8006691,3,Frankfurt (Main) Taunusanlage,Hessen,Frankfurt am Main,60325,8.668864,50.113565,2024-07-09 03:44:00,2024-07-09 03:44:00,,,0,0,
242,501314707182108660-2407090254-7,8,Kelsterbach|Frankfurt(M) Flughafen Regionalbf|Frankfurt(Main)-Gateway Gardens|Frankfurt am Main - Stadion|Frankfurt-Niederrad|Frankfurt Hbf (tief),8006691,3,Frankfurt (Main) Taunusanlage,Hessen,Frankfurt am Main,60325,8.668864,50.113565,2024-07-09 03:16:00,2024-07-09 03:16:00,2024-07-09 03:16:00,2024-07-09 03:16:00,0,0,
243,8640418502784071732-2407090344-1,1,,8010113,2,Frankfurt (Oder),Brandenburg,Frankfurt (Oder),15230,14.546496,52.336416,,2024-07-09 03:44:00,,2024-07-09 03:44:00,0,0,
244,8298546341087869344-2407090341-2,9,Frankfurt(M)Konstablerwache,8006692,3,Frankfurt (Main) Hauptwache,Hessen,Frankfurt am Main,60313,8.678947,50.113926,2024-07-09 03:42:00,2024-07-09 03:43:00,,,0,0,
245,-5671562569667632750-2407090248-18,8,Wiesbaden Hbf|Wiesbaden Ost|Mainz Nord|Mainz Hbf|Mainz Römisches Theater|Mainz-Gustavsburg|Mainz-Bischofsheim|Rüsselsheim Opelwerk|Rüsselsheim|Raunheim|Kelsterbach|Frankfurt(M) Flughafen Regionalbf|Frankfurt(Main)-Gateway Gardens|Frankfurt am Main - Stadion|Frankfurt-Niederrad|Frankfurt Hbf (tief)|Frankfurt(M)Taunusanlage,8006692,3,Frankfurt (Main) Hauptwache,Hessen,Frankfurt am Main,60313,8.678947,50.113926,2024-07-09 03:47:00,2024-07-09 03:48:00,2024-07-09 03:47:00,2024-07-09 03:48:00,0,0,
246,501314707182108660-2407090254-8,8,Kelsterbach|Frankfurt(M) Flughafen Regionalbf|Frankfurt(Main)-Gateway Gardens|Frankfurt am Main - Stadion|Frankfurt-Niederrad|Frankfurt Hbf (tief)|Frankfurt(M)Taunusanlage,8006692,3,Frankfurt (Main) Hauptwache,Hessen,Frankfurt am Main,60313,8.678947,50.113926,2024-07-09 03:17:00,2024-07-09 03:18:00,2024-07-09 03:17:00,2024-07-09 03:18:00,0,0,
247,8864827325846342282-2407090246-12,8,Hanau Hbf|Steinheim(Main)|Mühlheim(Main)-Dietesheim|Mühlheim(Main)|Offenbach(Main)Ost|Offenbach(Main) Marktplatz|Offenbach(Main) Ledermuseum|Offenbach(Main) Kaiserlei|Frankfurt(M)Mühlberg|Frankfurt(M)Ostendstraße|Frankfurt(M)Konstablerwache,8006692,3,Frankfurt (Main) Hauptwache,Hessen,Frankfurt am Main,60313,8.678947,50.113926,2024-07-09 03:12:00,2024-07-09 03:13:00,2024-07-09 03:12:00,2024-07-09 03:13:00,0,0,
248,8298546341087869344-2407090341-1,9,,8004429,3,Frankfurt (Main) Konstablerwache,Hessen,Frankfurt am Main,60313,8.687098,50.114623,,2024-07-09 03:41:00,,,0,0,
249,-5671562569667632750-2407090248-19,8,Wiesbaden Hbf|Wiesbaden Ost|Mainz Nord|Mainz Hbf|Mainz Römisches Theater|Mainz-Gustavsburg|Mainz-Bischofsheim|Rüsselsheim Opelwerk|Rüsselsheim|Raunheim|Kelsterbach|Frankfurt(M) Flughafen Regionalbf|Frankfurt(Main)-Gateway Gardens|Frankfurt am Main - Stadion|Frankfurt-Niederrad|Frankfurt Hbf (tief)|Frankfurt(M)Taunusanlage|Frankfurt(M)Hauptwache,8004429,3,Frankfurt (Main) Konstablerwache,Hessen,Frankfurt am Main,60313,8.687098,50.114623,2024-07-09 03:49:00,2024-07-09 03:50:00,2024-07-09 03:49:00,2024-07-09 03:50:00,0,0,
250,501314707182108660-2407090254-9,,Kelsterbach|Frankfurt(M) Flughafen Regionalbf|Frankfurt(Main)-Gateway Gardens|Frankfurt am Main - Stadion|Frankfurt-Niederrad|Frankfurt Hbf (tief)|Frankfurt(M)Taunusanlage|Frankfurt(M)Hauptwache,8004429,3,Frankfurt (Main) Konstablerwache,Hessen,Frankfurt am Main,60313,8.687098,50.114623,2024-07-09 03:19:00,,2024-07-09 03:19:00,,0,0,
251,8864827325846342282-2407090246-11,8,Hanau Hbf|Steinheim(Main)|Mühlheim(Main)-Dietesheim|Mühlheim(Main)|Offenbach(Main)Ost|Offenbach(Main) Marktplatz|Offenbach(Main) Ledermuseum|Offenbach(Main) Kaiserlei|Frankfurt(M)Mühlberg|Frankfurt(M)Ostendstraße,8004429,3,Frankfurt (Main) Konstablerwache,Hessen,Frankfurt am Main,60313,8.687098,50.114623,2024-07-09 03:11:00,2024-07-09 03:11:00,2024-07-09 03:11:00,2024-07-09 03:11:00,0,0,
252,4753870957390372842-2407082159-9,,Zürich HB|Basel SBB|Basel Bad Bf|Freiburg(Breisgau) Hbf|Offenburg|Baden-Baden|Karlsruhe Hbf|Mannheim Hbf,8000105,1,Frankfurt (Main) Hbf,Hessen,Frankfurt am Main,60329,8.663789,50.107145,2024-07-09 02:45:00,2024-07-09 03:13:00,2024-07-09 02:38:00,2024-07-09 03:13:00,-7,0,
253,8868050453695511606-2407082159-9,,Zürich HB|Basel SBB|Basel Bad Bf|Freiburg(Breisgau) Hbf|Offenburg|Baden-Baden|Karlsruhe Hbf|Mannheim Hbf,8000105,1,Frankfurt (Main) Hbf,Hessen,Frankfurt am Main,60329,8.663789,50.107145,2024-07-09 02:45:00,2024-07-09 03:13:00,2024-07-09 02:38:00,2024-07-09 03:13:00,-7,0,Information
254,-8572647521164952896-2407081828-12,,Praha hl.n.|Praha-Holesovice|Usti nad Labem hl.n.|Decin hl.n.|Bad Schandau|Dresden Hbf|Dresden-Neustadt|Riesa|Leipzig Hbf|Erfurt Hbf|Fulda,8000105,1,Frankfurt (Main) Hbf,Hessen,Frankfurt am Main,60329,8.663789,50.107145,2024-07-09 03:44:00,2024-07-09 04:00:00,2024-07-09 03:48:00,2024-07-09 04:00:00,4,0,Information
255,5331894847185138451-2407082101-9,,Berlin Hbf|Berlin Südkreuz|Lutherstadt Wittenberg Hbf|Bitterfeld|Halle(Saale)Hbf|Leipzig Hbf|Erfurt Hbf|Fulda,8000105,1,Frankfurt (Main) Hbf,Hessen,Frankfurt am Main,60329,8.663789,50.107145,2024-07-09 03:44:00,2024-07-09 04:00:00,2024-07-09 03:48:00,2024-07-09 04:00:00,4,0,
256,8457975387529600893-2407090020-9,,Dortmund Hbf|Gelsenkirchen Hbf|Essen Hbf|Düsseldorf Hbf|Köln Messe/Deutz Gl.11-12|Montabaur|Limburg Süd|Frankfurt(M) Flughafen Fernbf,8000105,1,Frankfurt (Main) Hbf,Hessen,Frankfurt am Main,60329,8.663789,50.107145,2024-07-09 03:03:00,2024-07-09 03:26:00,2024-07-09 03:05:00,2024-07-09 03:26:00,2,0,
257,-1197270886930040789-2407082101-9,,Berlin Hbf|Berlin Südkreuz|Lutherstadt Wittenberg Hbf|Bitterfeld|Halle(Saale)Hbf|Leipzig Hbf|Erfurt Hbf|Fulda,8000105,1,Frankfurt (Main) Hbf,Hessen,Frankfurt am Main,60329,8.663789,50.107145,2024-07-09 03:44:00,2024-07-09 04:00:00,2024-07-09 03:48:00,2024-07-09 04:00:00,4,0,
258,-8716776747589038458-2407081828-12,,Praha hl.n.|Praha-Holesovice|Usti nad Labem hl.n.|Decin hl.n.|Bad Schandau|Dresden Hbf|Dresden-Neustadt|Riesa|Leipzig Hbf|Erfurt Hbf|Fulda,8000105,1,Frankfurt (Main) Hbf,Hessen,Frankfurt am Main,60329,8.663789,50.107145,2024-07-09 03:44:00,2024-07-09 04:00:00,2024-07-09 03:48:00,2024-07-09 04:00:00,4,0,Information
259,-1250569488410439385-2407090335-10,3,Darmstadt Hbf|Darmstadt-Arheilgen|Darmstadt-Wixhausen|Erzhausen|Egelsbach|Langen(Hess)|Langen-Flugsicherung|Dreieich-Buchschlag|Neu-Isenburg,8002047,4,Frankfurt-Louisa,Hessen,Frankfurt am Main,60598,8.670369,50.083956,2024-07-09 03:59:00,2024-07-09 03:59:00,2024-07-09 03:59:00,2024-07-09 04:00:00,0,1,
260,8298546341087869344-2407090341-5,9,Frankfurt(M)Konstablerwache|Frankfurt(M)Hauptwache|Frankfurt(M)Taunusanlage|Frankfurt Hbf (tief),8002050,3,Frankfurt (Main) Niederrad,Hessen,Frankfurt am Main,60528,8.637075,50.081283,2024-07-09 03:51:00,2024-07-09 03:51:00,,,0,0,
261,-5671562569667632750-2407090248-15,8,Wiesbaden Hbf|Wiesbaden Ost|Mainz Nord|Mainz Hbf|Mainz Römisches Theater|Mainz-Gustavsburg|Mainz-Bischofsheim|Rüsselsheim Opelwerk|Rüsselsheim|Raunheim|Kelsterbach|Frankfurt(M) Flughafen Regionalbf|Frankfurt(Main)-Gateway Gardens|Frankfurt am Main - Stadion,8002050,3,Frankfurt (Main) Niederrad,Hessen,Frankfurt am Main,60528,8.637075,50.081283,2024-07-09 03:38:00,2024-07-09 03:38:00,2024-07-09 03:38:00,2024-07-09 03:38:00,0,0,
262,-5052766045780055790-2407090330-9,7,Riedstadt-Goddelau|Riedstadt-Wolfskehlen|Groß Gerau-Dornheim|Groß Gerau-Dornberg|Mörfelden|Walldorf(Hess)|Zeppelinheim|Frankfurt am Main - Stadion,8002050,3,Frankfurt (Main) Niederrad,Hessen,Frankfurt am Main,60528,8.637075,50.081283,2024-07-09 03:59:00,2024-07-09 04:00:00,2024-07-09 03:59:00,2024-07-09 04:00:00,0,0,Information
263,501314707182108660-2407090254-5,8,Kelsterbach|Frankfurt(M) Flughafen Regionalbf|Frankfurt(Main)-Gateway Gardens|Frankfurt am Main - Stadion,8002050,3,Frankfurt (Main) Niederrad,Hessen,Frankfurt am Main,60528,8.637075,50.081283,2024-07-09 03:08:00,2024-07-09 03:08:00,2024-07-09 03:08:00,2024-07-09 03:08:00,0,0,
264,8864827325846342282-2407090246-15,8,Hanau Hbf|Steinheim(Main)|Mühlheim(Main)-Dietesheim|Mühlheim(Main)|Offenbach(Main)Ost|Offenbach(Main) Marktplatz|Offenbach(Main) Ledermuseum|Offenbach(Main) Kaiserlei|Frankfurt(M)Mühlberg|Frankfurt(M)Ostendstraße|Frankfurt(M)Konstablerwache|Frankfurt(M)Hauptwache|Frankfurt(M)Taunusanlage|Frankfurt Hbf (tief),8002050,3,Frankfurt (Main) Niederrad,Hessen,Frankfurt am Main,60528,8.637075,50.081283,2024-07-09 03:21:00,2024-07-09 03:21:00,2024-07-09 03:21:00,2024-07-09 03:21:00,0,0,
265,-6527908731319902016-2407090338-7,5,Friedrichsdorf(Taunus)|Seulberg|Bad Homburg|Oberursel(Taunus)|Oberursel-Stierstadt|Oberursel-Weißkirchen/Steinbach,8002052,3,Frankfurt-Rödelheim,Hessen,Frankfurt am Main,60489,8.607026,50.124615,2024-07-09 03:57:00,2024-07-09 03:57:00,,,0,0,
266,-9110295229692614184-2407090340-3,5,Strausberg (S)|Petershagen Nord,8080440,5,Fredersdorf (b Berlin),Brandenburg,Fredersdorf ,15370,13.760628,52.526212,2024-07-09 03:46:00,2024-07-09 03:47:00,,,0,0,
267,3368682078056590810-2407090338-2,RE5,Salzburg Hbf,8000108,3,Freilassing,Bayern,Freilassing,83395,12.977193,47.836916,2024-07-09 03:45:00,2024-07-09 03:56:00,2024-07-09 03:45:00,2024-07-09 03:56:00,0,0,
268,4316668067973282615-2407090319-3,22,Landshut(Bay)Hbf|Moosburg,8002078,3,Freising,Bayern,Freising,85354,11.744539,48.395195,2024-07-09 03:41:00,2024-07-09 03:42:00,2024-07-09 03:41:00,2024-07-09 03:42:00,0,0,Bauarbeiten
269,6922614967570009295-2407090330-4,3,Dresden Hbf|Dresden-Plauen|Freital-Potschappel,8011569,5,Freital-Deuben,Sachsen,Freital,1705,13.646432,50.999358,2024-07-09 03:41:00,2024-07-09 03:41:00,2024-07-09 03:40:00,2024-07-09 03:41:00,-1,0,
270,-7057038451855622623-2407090354-3,3,Tharandt|Freital-Hainsberg West,8010116,5,Freital-Hainsberg,Sachsen,Freital,1705,13.637938,50.988898,2024-07-09 03:59:00,2024-07-09 03:59:00,,,0,0,
271,6922614967570009295-2407090330-5,3,Dresden Hbf|Dresden-Plauen|Freital-Potschappel|Freital-Deuben,8010116,5,Freital-Hainsberg,Sachsen,Freital,1705,13.637938,50.988898,2024-07-09 03:43:00,2024-07-09 03:43:00,2024-07-09 03:43:00,2024-07-09 03:43:00,0,0,
272,6922614967570009295-2407090330-3,3,Dresden Hbf|Dresden-Plauen,8013445,5,Freital-Potschappel,Sachsen,Freital,1705,13.662552,51.013894,2024-07-09 03:38:00,2024-07-09 03:38:00,2024-07-09 03:38:00,2024-07-09 03:38:00,0,0,
273,-8475165044633207486-2407090343-1,6,,8000111,3,Friedberg (Hess),Hessen,Friedberg (Hessen),61169,8.762056,50.332606,,2024-07-09 03:43:00,,,0,0,
274,-6527908731319902016-2407090338-1,5,,8002108,4,Friedrichsdorf (Taunus),Hessen,Friedrichsdorf (Taunus),61381,8.644776,50.25249,,2024-07-09 03:38:00,,,0,0,
275,-389765114355125159-2407090343-2,RE19,Wesel,8002109,5,Friedrichsfeld (Niederrhein),Nordrhein-Westfalen,Voerde,46562,6.645499,51.628486,2024-07-09 03:45:00,2024-07-09 03:46:00,,,0,0,
276,-2548994183414850777-2407090314-7,,Bebra|Ludwigsau-Friedlos|Bad Hersfeld|Haunetal-Neukirchen|Burghaun(Hünfeld)|Hünfeld,8000115,2,Fulda,Hessen,Fulda,36037,9.683977,50.554723,2024-07-09 03:53:00,,2024-07-09 03:53:00,,0,0,
277,-2819238151300076653-2407090316-7,6,Borna(Leipzig)|Lobstädt|Neukieritzsch|Böhlen Werke|Böhlen(Leipzig)|Großdeuben,8011598,5,Markkleeberg-Gaschwitz,Sachsen,Markkleeberg OT Gaschwitz,4416,12.3791456,51.2498991,2024-07-09 03:35:00,2024-07-09 03:36:00,2024-07-09 03:35:00,2024-07-09 03:36:00,0,0,Bauarbeiten
278,-1623994736072630433-2407090253-6,4,Aachen Hbf|Aachen Schanz|Aachen West|Herzogenrath|Übach-Palenberg,8002206,4,Geilenkirchen,Nordrhein-Westfalen,Geilenkirchen,52511,6.124518,50.961039,2024-07-09 03:16:00,2024-07-09 03:17:00,2024-07-09 03:19:00,2024-07-09 03:20:00,3,3,
279,1025611722263176185-2407090303-3,3,Dortmund Hbf|Wanne-Eickel Hbf,8000118,2,Gelsenkirchen Hbf,Nordrhein-Westfalen,Gelsenkirchen,45879,7.102455,51.504903,2024-07-09 03:28:00,2024-07-09 03:29:00,2024-07-09 03:28:00,2024-07-09 03:29:00,0,0,Bauarbeiten. (Quelle: zuginfo.nrw)
280,-6058665356135913865-2407090209-13,2,Münster(Westf)Hbf|Münster-Albachten|Senden-Bösensell|Nottuln-Appelhülsen|Buldern|Dülmen|Sythen|Haltern am See|Marl-Sinsen|Recklinghausen Hbf|Recklinghausen Süd|Wanne-Eickel Hbf,8000118,2,Gelsenkirchen Hbf,Nordrhein-Westfalen,Gelsenkirchen,45879,7.102455,51.504903,2024-07-09 03:08:00,2024-07-09 03:09:00,2024-07-09 03:09:00,2024-07-09 03:10:00,1,1,
281,9064022158095665154-2407090348-1,12,,8010125,3,Gera Hbf,Thüringen,Gera,7545,12.077092,50.883421,,2024-07-09 03:48:00,,2024-07-09 03:48:00,0,0,
282,8312618108729256880-2407090348-4,2,Schorndorf|Weiler(Rems)|Winterbach(b Schorndorf),8002240,5,Geradstetten,Baden-Württemberg,Remshalden,73630,9.439753,48.805203,2024-07-09 03:55:00,2024-07-09 03:56:00,,,0,0,Information
283,-5052766045780055790-2407090330-1,7,,8000126,4,Riedstadt-Goddelau,Hessen,Riedstadt,64560,8.489187,49.83323,,2024-07-09 03:30:00,,2024-07-09 03:30:00,0,0,Information
284,-7043707887682109769-2407090342-1,65,,8010131,3,Görlitz,Sachsen,Görlitz,2826,14.97908,51.146767,,2024-07-09 03:42:00,,2024-07-09 03:42:00,0,0,
285,-3063371006880812688-2407090357-1,RB60,,8010131,3,Görlitz,Sachsen,Görlitz,2826,14.97908,51.146767,,2024-07-09 03:57:00,,2024-07-09 03:57:00,0,0,
286,7500668147462712463-2407081913-17,,Wien Hbf|Wien Meidling|St.Pölten Hbf|Linz Hbf|Wels Hbf|Schärding|Passau Hbf|Plattling|Straubing|Regensburg Hbf|Nürnberg Hbf|Fürth(Bay)Hbf|Erlangen|Bamberg|Lichtenfels|Saalfeld(Saale),8010133,3,Jena-Göschwitz,Thüringen,Jena,7745,11.593537,50.883942,2024-07-09 03:01:00,2024-07-09 03:03:00,2024-07-09 03:03:00,2024-07-09 03:04:00,2,1,Bauarbeiten
287,2225014177734358357-2407090255-5,S5,Werdau|Werdau Nord|Schweinsburg-Culten|Crimmitschau,8010134,4,Gößnitz,Thüringen,Gößnitz,4639,12.429301,50.8932,2024-07-09 03:35:00,2024-07-09 03:35:00,2024-07-09 03:35:00,2024-07-09 03:35:00,0,0,Störung
288,7511148090173910504-2407090029-6,,Hamburg-Altona|Hamburg Dammtor|Hamburg Hbf|Hamburg-Harburg|Hannover Hbf,8000128,2,Göttingen,Niedersachsen,Göttingen,37073,9.926072,51.536815,2024-07-09 03:05:00,2024-07-09 03:07:00,2024-07-09 03:03:00,2024-07-09 03:07:00,-2,0,
289,-817120186960617906-2407090327-5,9,Karlsruhe Hbf|Karlsruhe-Hagsfeld|Blankenloch|Friedrichstal(Baden),8000131,3,Graben-Neudorf,Baden-Württemberg,Graben-Neudorf,76676,8.49063,49.161797,2024-07-09 03:43:00,2024-07-09 03:46:00,2024-07-09 03:43:00,2024-07-09 03:46:00,0,0,Information
290,-272079483614590395-2407090336-4,3,Halle(Saale)Hbf|Halle Messe|Dieskau,8011711,5,Gröbers,Sachsen-Anhalt,Gröbers,6184,12.1168256,51.4323471,2024-07-09 03:47:00,2024-07-09 03:47:00,,,0,0,
291,-5052766045780055790-2407090330-4,7,Riedstadt-Goddelau|Riedstadt-Wolfskehlen|Groß Gerau-Dornheim,8002386,3,Groß Gerau-Dornberg,Hessen,Groß Gerau-Dornberg,64521,8.494709,49.912279,2024-07-09 03:38:00,2024-07-09 03:38:00,2024-07-09 03:38:00,2024-07-09 03:38:00,0,0,Information
292,-8475165044633207486-2407090343-5,6,Friedberg(Hess)|Bruchenbrücken|Nieder Wöllstadt|Okarben,8002388,4,Groß Karben,Hessen,Karben,61184,8.753528,50.23184,2024-07-09 03:55:00,2024-07-09 03:57:00,,,0,0,
293,-4529973283975264983-2407090326-4,S19,Köln-Müngersdorf Technologiepark|Lövenich|Köln-Weiden West,8002389,5,Frechen-Königsdorf,Nordrhein-Westfalen,Frechen,50226,6.777846,50.936501,2024-07-09 03:52:00,2024-07-09 03:52:00,,,0,0,
294,-1082369476342122584-2407090347-2,S19,Horrem,8002389,5,Frechen-Königsdorf,Nordrhein-Westfalen,Frechen,50226,6.777846,50.936501,2024-07-09 03:57:00,2024-07-09 03:57:00,,,0,0,
295,-3887818088302720811-2407090256-4,S19,Köln-Müngersdorf Technologiepark|Lövenich|Köln-Weiden West,8002389,5,Frechen-Königsdorf,Nordrhein-Westfalen,Frechen,50226,6.777846,50.936501,2024-07-09 03:22:00,2024-07-09 03:22:00,2024-07-09 03:22:00,2024-07-09 03:22:00,0,0,
296,-8207251646144469940-2407090327-2,S19,Horrem,8002389,5,Frechen-Königsdorf,Nordrhein-Westfalen,Frechen,50226,6.777846,50.936501,2024-07-09 03:37:00,2024-07-09 03:37:00,,,0,0,
297,-7077376547267783966-2407090216-20,8,Hagen Hbf|Hagen-Wehringhausen|Hagen-Heubing|Hagen-Westerbauer|Gevelsberg-Knapp|Gevelsberg Hbf|Gevelsberg-Kipp|Gevelsberg West|Schwelm|Schwelm West|Wuppertal-Langerfeld|Wuppertal-Oberbarmen|Wuppertal-Barmen|Wuppertal-Unterbarmen|Wuppertal Hbf|Wuppertal-Steinbeck|Wuppertal-Zoologischer Garten|Wuppertal-Sonnborn|Wuppertal-Vohwinkel,8000138,4,Haan-Gruiten,Nordrhein-Westfalen,Haan-Gruiten,42781,7.010546,51.214559,2024-07-09 03:11:00,2024-07-09 03:12:00,2024-07-09 03:11:00,2024-07-09 03:12:00,0,0,Information. (Quelle: zuginfo.nrw)
298,8312618108729256880-2407090348-5,2,Schorndorf|Weiler(Rems)|Winterbach(b Schorndorf)|Geradstetten,8002448,4,Grunbach,Baden-Württemberg,Remshalden,73630,9.420029,48.81036,2024-07-09 03:57:00,2024-07-09 03:58:00,,,0,0,Information
299,-869553568704520980-2407090305-12,9,Berlin Alexanderplatz (S)|Berlin Jannowitzbrücke|Berlin Ostbahnhof (S)|Berlin Warschauer Straße|Berlin Treptower Park|Berlin Plänterwald|Berlin Baumschulenweg|Berlin-Schöneweide (S)|Berlin-Johannisthal|Berlin-Adlershof|Berlin-Altglienicke,8089016,5,Grünbergallee,Berlin,Berlin,12526,13.542485,52.399411,2024-07-09 03:34:00,2024-07-09 03:34:00,2024-07-09 03:34:00,2024-07-09 03:34:00,0,0,
300,7265579896316843783-2407090302-20,9,Berlin Charlottenburg (S)|Berlin Savignyplatz|Berlin Zoologischer Garten (S)|Berlin-Tiergarten|Berlin Bellevue|Berlin Hbf (S-Bahn)|Berlin Friedrichstraße (S)|Berlin Hackescher Markt|Berlin Alexanderplatz (S)|Berlin Jannowitzbrücke|Berlin Ostbahnhof (S)|Berlin Warschauer Straße|Berlin Treptower Park|Berlin Plänterwald|Berlin Baumschulenweg|Berlin-Schöneweide (S)|Berlin-Johannisthal|Berlin-Adlershof|Berlin-Altglienicke,8089016,5,Grünbergallee,Berlin,Berlin,12526,13.542485,52.399411,2024-07-09 03:49:00,2024-07-09 03:49:00,2024-07-09 03:49:00,2024-07-09 03:49:00,0,0,
301,-3639105195943060538-2407090017-5,,Frankfurt(Main)Hbf|Vaihingen(Enz)|Stuttgart Hbf|Ulm Hbf,8000139,3,Günzburg,Bayern,Günzburg,89312,10.2792621,48.4605626,2024-07-09 03:59:00,2024-07-09 04:01:00,2024-07-09 03:57:00,2024-07-09 04:01:00,-2,0,
302,2964630978341565241-2407090332-9,9,Berlin Westkreuz|Berlin Charlottenburg (S)|Berlin Savignyplatz|Berlin Zoologischer Garten (S)|Berlin-Tiergarten|Berlin Bellevue|Berlin Hbf (S-Bahn)|Berlin Friedrichstraße (S),8089017,4,Hackescher Markt,Berlin,Berlin,10178,13.402364,52.522622,2024-07-09 03:50:00,2024-07-09 03:50:00,,,0,0,
303,-4264599631284267039-2407090312-9,9,Berlin Westkreuz|Berlin Charlottenburg (S)|Berlin Savignyplatz|Berlin Zoologischer Garten (S)|Berlin-Tiergarten|Berlin Bellevue|Berlin Hbf (S-Bahn)|Berlin Friedrichstraße (S),8089017,4,Hackescher Markt,Berlin,Berlin,10178,13.402364,52.522622,2024-07-09 03:30:00,2024-07-09 03:30:00,2024-07-09 03:30:00,2024-07-09 03:30:00,0,0,
304,-1945286250310201567-2407090339-8,9,Berlin-Lichtenberg (S)|Berlin Nöldnerplatz|Berlin Ostkreuz (S)|Berlin Warschauer Straße|Berlin Ostbahnhof (S)|Berlin Jannowitzbrücke|Berlin Alexanderplatz (S),8089017,4,Hackescher Markt,Berlin,Berlin,10178,13.402364,52.522622,2024-07-09 03:54:00,2024-07-09 03:54:00,,,0,0,
305,7265579896316843783-2407090302-8,9,Berlin Charlottenburg (S)|Berlin Savignyplatz|Berlin Zoologischer Garten (S)|Berlin-Tiergarten|Berlin Bellevue|Berlin Hbf (S-Bahn)|Berlin Friedrichstraße (S),8089017,4,Hackescher Markt,Berlin,Berlin,10178,13.402364,52.522622,2024-07-09 03:17:00,2024-07-09 03:18:00,2024-07-09 03:17:00,2024-07-09 03:18:00,0,0,
306,1857411337300333873-2407090328-6,1,Rödermark-Ober Roden|Rodgau-Rollwald|Rodgau-Nieder Roden|Rodgau-Dudenhofen|Rodgau-Jügesheim,8002528,5,Rodgau-Hainhausen,Hessen,Rodgau-Hainhausen,63110,8.87581587,50.0391366,2024-07-09 03:39:00,2024-07-09 03:40:00,2024-07-09 03:40:00,2024-07-09 03:40:00,1,0,
307,7638672487804398297-2407090359-1,11,,8010157,3,Halberstadt,Sachsen-Anhalt,Halberstadt,38820,11.073452,51.899309,,2024-07-09 03:59:00,,,0,0,
308,733740661198144805-2407090339-1,24,,8010157,3,Halberstadt,Sachsen-Anhalt,Halberstadt,38820,11.073452,51.899309,,2024-07-09 03:39:00,,,0,0,
309,-3673936193428388018-2407090303-18,8,München-Pasing|München-Laim|München Hirschgarten|München Donnersbergerbrücke|München Hackerbrücke|München Hbf (tief)|München Karlsplatz|München Marienplatz|München Isartor|München Rosenheimer Platz|München Ost|München Leuchtenbergring|München-Daglfing|München-Englschalking|München-Johanneskirchen|Unterföhring|Ismaning,8002534,5,Hallbergmoos,Bayern,Hallbergmoos,85399,11.714334,48.309167,2024-07-09 03:48:00,2024-07-09 03:48:00,2024-07-09 03:47:00,2024-07-09 03:48:00,-1,0,
310,-4321951582378922312-2407090223-18,8,München-Pasing|München-Laim|München Hirschgarten|München Donnersbergerbrücke|München Hackerbrücke|München Hbf (tief)|München Karlsplatz|München Marienplatz|München Isartor|München Rosenheimer Platz|München Ost|München Leuchtenbergring|München-Daglfing|München-Englschalking|München-Johanneskirchen|Unterföhring|Ismaning,8002534,5,Hallbergmoos,Bayern,Hallbergmoos,85399,11.714334,48.309167,2024-07-09 03:08:00,2024-07-09 03:08:00,2024-07-09 03:08:00,2024-07-09 03:09:00,0,1,
311,7375848880176874559-2407090351-1,3,,8010159,2,Halle (Saale) Hbf,Sachsen-Anhalt,Halle ,6112,11.987085,51.477509,,2024-07-09 03:51:00,,,0,0,
312,-9211657492077821720-2407090344-1,4,,8010159,2,Halle (Saale) Hbf,Sachsen-Anhalt,Halle ,6112,11.987085,51.477509,,2024-07-09 03:44:00,,,0,0,
313,-272079483614590395-2407090336-1,3,,8010159,2,Halle (Saale) Hbf,Sachsen-Anhalt,Halle ,6112,11.987085,51.477509,,2024-07-09 03:36:00,,,0,0,
314,-3113357939809852458-2407090355-1,8,,8010159,2,Halle (Saale) Hbf,Sachsen-Anhalt,Halle ,6112,11.987085,51.477509,,2024-07-09 03:55:00,,,0,0,
315,1171031349049414244-2407090355-1,8,,8010159,2,Halle (Saale) Hbf,Sachsen-Anhalt,Halle ,6112,11.987085,51.477509,,2024-07-09 03:55:00,,,0,0,
316,5089820149948252230-2407081646-21,,München Hbf|München-Pasing|Augsburg Hbf|Ulm Hbf|Stuttgart Hbf|Mannheim Hbf|Frankfurt(Main)Hbf|Fulda|Bad Hersfeld|Eisenach|Gotha|Erfurt Hbf|Leipzig Hbf|Berlin Südkreuz|Berlin Hbf|Berlin-Spandau|Wittenberge|Ludwigslust|Büchen|Hamburg Hbf,8002548,2,Hamburg Dammtor,Hamburg,Hamburg,20354,9.989566,53.560751,2024-07-09 03:19:00,2024-07-09 03:21:00,2024-07-09 03:23:00,2024-07-09 03:24:00,4,3,
317,-9076044575966614071-2407090302-2,,Hamburg-Altona,8002548,2,Hamburg Dammtor,Hamburg,Hamburg,20354,9.989566,53.560751,2024-07-09 03:10:00,2024-07-09 03:12:00,2024-07-09 03:09:00,2024-07-09 03:12:00,-1,0,
318,5089820149948252230-2407081646-20,,München Hbf|München-Pasing|Augsburg Hbf|Ulm Hbf|Stuttgart Hbf|Mannheim Hbf|Frankfurt(Main)Hbf|Fulda|Bad Hersfeld|Eisenach|Gotha|Erfurt Hbf|Leipzig Hbf|Berlin Südkreuz|Berlin Hbf|Berlin-Spandau|Wittenberge|Ludwigslust|Büchen,8002549,1,Hamburg Hbf,Hamburg,Hamburg,20099,10.006909,53.552736,2024-07-09 03:12:00,2024-07-09 03:15:00,2024-07-09 03:18:00,2024-07-09 03:20:00,6,5,
319,-9076044575966614071-2407090302-3,,Hamburg-Altona|Hamburg Dammtor,8002549,1,Hamburg Hbf,Hamburg,Hamburg,20099,10.006909,53.552736,2024-07-09 03:16:00,2024-07-09 03:20:00,2024-07-09 03:16:00,2024-07-09 03:29:00,0,9,
320,-5364253239316331542-2407090330-1,RB71,,8002553,1,Hamburg-Altona,Hamburg,Hamburg,22765,9.935175,53.552695,,2024-07-09 03:30:00,,2024-07-09 03:30:00,0,0,
321,5089820149948252230-2407081646-22,,München Hbf|München-Pasing|Augsburg Hbf|Ulm Hbf|Stuttgart Hbf|Mannheim Hbf|Frankfurt(Main)Hbf|Fulda|Bad Hersfeld|Eisenach|Gotha|Erfurt Hbf|Leipzig Hbf|Berlin Südkreuz|Berlin Hbf|Berlin-Spandau|Wittenberge|Ludwigslust|Büchen|Hamburg Hbf|Hamburg Dammtor,8002553,1,Hamburg-Altona,Hamburg,Hamburg,22765,9.935175,53.552695,2024-07-09 03:29:00,,2024-07-09 03:32:00,,3,0,
322,-9076044575966614071-2407090302-1,,,8002553,1,Hamburg-Altona,Hamburg,Hamburg,22765,9.935175,53.552695,,2024-07-09 03:02:00,,2024-07-09 03:02:00,0,0,
323,-9076044575966614071-2407090302-4,,Hamburg-Altona|Hamburg Dammtor|Hamburg Hbf,8000147,2,Hamburg-Harburg,Hamburg,Hamburg,21079,9.991701,53.455908,2024-07-09 03:30:00,2024-07-09 03:32:00,2024-07-09 03:38:00,2024-07-09 03:40:00,8,8,
324,8503777394879306018-2407082324-15,,Frankfurt(Main)Hbf|Frankfurt(M) Flughafen Fernbf|Mainz Hbf|Bingen(Rhein) Hbf|Koblenz Hbf|Remagen|Bonn Hbf|Köln Hbf|Düsseldorf Hbf|Düsseldorf Flughafen|Duisburg Hbf|Essen Hbf|Bochum Hbf|Dortmund Hbf,8000149,2,Hamm (Westf) Hbf,Nordrhein-Westfalen,Hamm ,59065,7.807821,51.678078,2024-07-09 03:50:00,2024-07-09 03:52:00,2024-07-09 03:50:00,2024-07-09 03:52:00,0,0,Information
325,-5761135966346571235-2407090317-1,1,,8000149,2,Hamm (Westf) Hbf,Nordrhein-Westfalen,Hamm ,59065,7.807821,51.678078,,2024-07-09 03:17:00,,2024-07-09 03:17:00,0,0,
326,-4826584964964001816-2407090148-29,,Wiesbaden Hbf|Wiesbaden Ost|Mainz Nord|Mainz Hbf|Mainz Römisches Theater|Mainz-Gustavsburg|Mainz-Bischofsheim|Rüsselsheim Opelwerk|Rüsselsheim|Raunheim|Kelsterbach|Frankfurt(M) Flughafen Regionalbf|Frankfurt(Main)-Gateway Gardens|Frankfurt am Main - Stadion|Frankfurt-Niederrad|Frankfurt Hbf (tief)|Frankfurt(M)Taunusanlage|Frankfurt(M)Hauptwache|Frankfurt(M)Konstablerwache|Frankfurt(M)Ostendstraße|Frankfurt(M)Mühlberg|Offenbach(Main) Kaiserlei|Offenbach(Main) Ledermuseum|Offenbach(Main) Marktplatz|Offenbach(Main)Ost|Mühlheim(Main)|Mühlheim(Main)-Dietesheim|Steinheim(Main),8000150,2,Hanau Hbf,Hessen,Hanau,63450,8.929,50.120953,2024-07-09 03:14:00,,2024-07-09 03:14:00,,0,0,
327,1865520950156468952-2407090346-1,8,,8000150,2,Hanau Hbf,Hessen,Hanau,63450,8.929,50.120953,,2024-07-09 03:46:00,,,0,0,
328,8457975387529600893-2407090020-10,,Dortmund Hbf|Gelsenkirchen Hbf|Essen Hbf|Düsseldorf Hbf|Köln Messe/Deutz Gl.11-12|Montabaur|Limburg Süd|Frankfurt(M) Flughafen Fernbf|Frankfurt(Main)Hbf,8000150,2,Hanau Hbf,Hessen,Hanau,63450,8.929,50.120953,2024-07-09 03:40:00,2024-07-09 03:42:00,2024-07-09 03:40:00,2024-07-09 03:42:00,0,0,
329,7990396791094350225-2407090335-1,5,,8000152,1,Hannover Hbf,Niedersachsen,Hannover,30159,9.741021,52.376761,,2024-07-09 03:35:00,,2024-07-09 03:35:00,0,0,
330,-2674217953163577131-2407090030-9,,Köln Hbf|Düsseldorf Hbf|Duisburg Hbf|Essen Hbf|Bochum Hbf|Dortmund Hbf|Hamm(Westf)Hbf|Bielefeld Hbf,8000152,1,Hannover Hbf,Niedersachsen,Hannover,30159,9.741021,52.376761,2024-07-09 03:48:00,2024-07-09 03:57:00,2024-07-09 03:39:00,2024-07-09 03:57:00,-9,0,
331,3199623009169073885-2407090011-9,,Berlin Ostbahnhof|Berlin Hbf|Berlin Zoologischer Garten|Berlin-Wannsee|Potsdam Hbf|Brandenburg Hbf|Magdeburg Hbf|Braunschweig Hbf,8000152,1,Hannover Hbf,Niedersachsen,Hannover,30159,9.741021,52.376761,2024-07-09 03:09:00,2024-07-09 03:13:00,2024-07-09 03:09:00,2024-07-09 03:14:00,0,1,Information
332,-2320340282101811304-2407082043-13,,München Hbf|München-Pasing|Augsburg Hbf|Günzburg|Ulm Hbf|Stuttgart Hbf|Mannheim Hbf|Frankfurt(Main)Hbf|Hanau Hbf|Fulda|Bad Hersfeld|Göttingen,8000152,1,Hannover Hbf,Niedersachsen,Hannover,30159,9.741021,52.376761,2024-07-09 03:41:00,2024-07-09 03:44:00,2024-07-09 03:50:00,2024-07-09 03:53:00,9,9,
333,3824396230027883844-2407090306-7,,Hannover Flughafen|Langenhagen Pferdemarkt|Langenhagen Mitte|Hannover-Vinnhorst|Hannover-Ledeburg|Hannover-Nordstadt,8000152,1,Hannover Hbf,Niedersachsen,Hannover,30159,9.741021,52.376761,2024-07-09 03:24:00,,2024-07-09 03:24:00,,0,0,
334,5165487457649339724-2407090335-7,1,Wiesbaden Hbf|Wiesbaden Ost|Mainz-Kastel|Hochheim(Main)|Flörsheim(Main)|Eddersheim,8002637,4,Hattersheim (Main),Hessen,Hattersheim (Main),65795,8.489638,50.067879,2024-07-09 03:58:00,2024-07-09 03:59:00,2024-07-09 03:58:00,2024-07-09 03:59:00,0,0,
335,-7138074359361066746-2407081919-15,,Hamburg-Altona|Hamburg Dammtor|Hamburg Hbf|Berlin-Spandau|Berlin Hbf|Berlin Südkreuz|Lutherstadt Wittenberg Hbf|Bitterfeld|Leipzig Hbf|Erfurt Hbf|Eisenach|Frankfurt(Main)Hbf|Frankfurt(M) Flughafen Fernbf|Mannheim Hbf,8000156,2,Heidelberg Hbf,Baden-Württemberg,Heidelberg,69115,8.675442,49.403567,2024-07-09 03:38:00,2024-07-09 03:40:00,2024-07-09 03:38:00,2024-07-09 03:40:00,0,0,
336,2686007473625185344-2407090001-6,,München Hbf|Augsburg Hbf|Günzburg|Ulm Hbf|Stuttgart Hbf,8000156,2,Heidelberg Hbf,Baden-Württemberg,Heidelberg,69115,8.675442,49.403567,2024-07-09 03:35:00,2024-07-09 03:43:00,2024-07-09 03:26:00,2024-07-09 03:43:00,-9,0,Information
337,13331266057491581-2407090231-13,,Köln-Müngersdorf Technologiepark|Köln-Ehrenfeld|Köln Hansaring|Köln Hbf|Köln Messe/Deutz|Köln Trimbornstr|Köln Frankfurter Straße|Köln/Bonn Flughafen|Porz-Wahn|Spich|Troisdorf|Siegburg/Bonn,8002753,3,Hennef (Sieg),Nordrhein-Westfalen,Hennef (Sieg),53773,7.284592,50.773332,2024-07-09 03:16:00,,2024-07-09 03:16:00,,0,0,Bauarbeiten. (Quelle: zuginfo.nrw)
338,-6695427382764937497-2407090302-1,19,,8002753,3,Hennef (Sieg),Nordrhein-Westfalen,Hennef (Sieg),53773,7.284592,50.773332,,2024-07-09 03:02:00,,2024-07-09 03:02:00,0,0,Bauarbeiten. (Quelle: zuginfo.nrw)
339,-7583769325891316294-2407090332-1,19,,8002753,3,Hennef (Sieg),Nordrhein-Westfalen,Hennef (Sieg),53773,7.284592,50.773332,,2024-07-09 03:32:00,,2024-07-09 03:32:00,0,0,Bauarbeiten. (Quelle: zuginfo.nrw)
340,8774567504315204361-2407090301-13,,Köln-Müngersdorf Technologiepark|Köln-Ehrenfeld|Köln Hansaring|Köln Hbf|Köln Messe/Deutz|Köln Trimbornstr|Köln Frankfurter Straße|Köln/Bonn Flughafen|Porz-Wahn|Spich|Troisdorf|Siegburg/Bonn,8002753,3,Hennef (Sieg),Nordrhein-Westfalen,Hennef (Sieg),53773,7.284592,50.773332,2024-07-09 03:46:00,,2024-07-09 03:46:00,,0,0,Bauarbeiten. (Quelle: zuginfo.nrw)
341,1042297618291463943-2407090356-1,42,,8089105,4,Hermannstraße,Berlin,Berlin,12051,13.431313,52.46751,,2024-07-09 03:56:00,,,0,0,
342,-4100659615061494590-2407090355-2,46,Berlin-Tempelhof,8089105,4,Hermannstraße,Berlin,Berlin,12051,13.431313,52.46751,2024-07-09 03:58:00,2024-07-09 03:59:00,,,0,0,
343,-1623994736072630433-2407090253-4,4,Aachen Hbf|Aachen Schanz|Aachen West,8002806,3,Herzogenrath,Nordrhein-Westfalen,Herzogenrath,52134,6.094486,50.870916,2024-07-09 03:06:00,2024-07-09 03:07:00,2024-07-09 03:09:00,2024-07-09 03:10:00,3,3,
