,ID,train,path,eva_nr,category,name,state,city,zip,long,lat,arrival_plan,departure_plan,arrival_change,departure_change,arrival_delay_m,depature_delay_m,info
0,-5397583228103808993-2407120316-1,19,,8000001,2,Aachen Hbf,Nordrhein-Westfalen,Aachen,52064,6.091499,50.7678,,2024-07-12 03:16:00,,2024-07-12 03:16:00,0,0,Bauarbeiten. (Quelle: zuginfo.nrw)
1,-5397583228103808993-2407120316-2,19,Aachen Hbf,8000406,4,Aachen-Rothe Erde,Nordrhein-Westfalen,Aachen,52066,6.116475,50.770202,2024-07-12 03:20:00,2024-07-12 03:20:00,2024-07-12 03:19:00,2024-07-12 03:20:00,-1,0,Bauarbeiten. (Quelle: zuginfo.nrw)
2,700156942723660705-2407120334-5,8,Berlin-Charlottenburg|Berlin Zoologischer Garten|Berlin Hbf|Berlin Friedrichstraße,8011155,3,Alexanderplatz,Berlin,Berlin,10179,13.410961,52.521481,2024-07-12 03:51:00,2024-07-12 03:52:00,2024-07-12 03:51:00,2024-07-12 03:52:00,0,0,
3,1507163401013910914-2407120305-5,,Berlin-Charlottenburg|Berlin Zoologischer Garten|Berlin Hbf|Berlin Friedrichstraße,8011155,3,Alexanderplatz,Berlin,Berlin,10179,13.410961,52.521481,2024-07-12 03:20:00,2024-07-12 03:21:00,2024-07-12 03:20:00,2024-07-12 03:21:00,0,0,
4,3262097249322916769-2407120241-4,8,Flughafen BER|Berlin Ostkreuz|Berlin Ostbahnhof,8011155,3,Alexanderplatz,Berlin,Berlin,10179,13.410961,52.521481,2024-07-12 03:06:00,2024-07-12 03:07:00,2024-07-12 03:08:00,2024-07-12 03:09:00,2,2,
5,-199422321941227724-2407120320-5,,Berlin-Charlottenburg|Berlin Zoologischer Garten|Berlin Hbf|Berlin Friedrichstraße,8011155,3,Alexanderplatz,Berlin,Berlin,10179,13.410961,52.521481,2024-07-12 03:34:00,2024-07-12 03:35:00,2024-07-12 03:34:00,2024-07-12 03:35:00,0,0,
6,4693049160569863660-2407120353-2,1,Plochingen,8000508,3,Altbach,Baden-Württemberg,Altbach,73776,9.382384,48.720393,2024-07-12 03:55:00,2024-07-12 03:55:00,,,0,0,Information
7,-6545478523499479289-2407120337-1,S5,,8010003,5,Altenburg,Thüringen,Altenburg,4600,12.444019,50.996648,,2024-07-12 03:37:00,,2024-07-12 03:37:00,0,0,
8,-869553568704520980-2407120305-11,9,Berlin Alexanderplatz (S)|Berlin Jannowitzbrücke|Berlin Ostbahnhof (S)|Berlin Warschauer Straße|Berlin Treptower Park|Berlin Plänterwald|Berlin Baumschulenweg|Berlin-Schöneweide (S)|Berlin-Johannisthal|Berlin-Adlershof,8089054,4,Altglienicke,Berlin,Berlin,12524,13.558753,52.407299,2024-07-12 03:32:00,2024-07-12 03:32:00,2024-07-12 03:32:00,2024-07-12 03:32:00,0,0,
9,7265579896316843783-2407120302-19,9,Berlin Charlottenburg (S)|Berlin Savignyplatz|Berlin Zoologischer Garten (S)|Berlin-Tiergarten|Berlin Bellevue|Berlin Hbf (S-Bahn)|Berlin Friedrichstraße (S)|Berlin Hackescher Markt|Berlin Alexanderplatz (S)|Berlin Jannowitzbrücke|Berlin Ostbahnhof (S)|Berlin Warschauer Straße|Berlin Treptower Park|Berlin Plänterwald|Berlin Baumschulenweg|Berlin-Schöneweide (S)|Berlin-Johannisthal|Berlin-Adlershof,8089054,4,Altglienicke,Berlin,Berlin,12524,13.558753,52.407299,2024-07-12 03:47:00,2024-07-12 03:47:00,2024-07-12 03:47:00,2024-07-12 03:47:00,0,0,
10,840575419992667689-2407120038-5,,München Hbf|Ingolstadt Hbf|Nürnberg Hbf|Würzburg Hbf,8000010,2,Aschaffenburg Hbf,Bayern,Aschaffenburg,63739,9.143697,49.980557,2024-07-12 03:45:00,2024-07-12 03:47:00,2024-07-12 04:49:00,2024-07-12 04:51:00,64,64,
11,8457975387529600893-2407120020-11,,Dortmund Hbf|Gelsenkirchen Hbf|Essen Hbf|Düsseldorf Hbf|Köln Messe/Deutz Gl.11-12|Montabaur|Limburg Süd|Frankfurt(M) Flughafen Fernbf|Frankfurt(Main)Hbf|Hanau Hbf,8000010,2,Aschaffenburg Hbf,Bayern,Aschaffenburg,63739,9.143697,49.980557,2024-07-12 03:58:00,2024-07-12 04:00:00,2024-07-12 04:00:00,2024-07-12 04:03:00,2,3,
12,5049461118844353393-2407112155-18,,Wien Hbf|Wien Meidling|Tullnerfeld|St.Pölten Hbf|Amstetten NÖ|St. Valentin|Linz Hbf|Wels Hbf|Attnang-Puchheim|Vöcklabruck|Neumarkt am Wallersee|Salzburg Hbf|Freilassing|Traunstein|Rosenheim|München Ost|München-Pasing,8000013,1,Augsburg Hbf,Bayern,Augsburg,86150,10.88557,48.365441,2024-07-12 03:11:00,2024-07-12 03:13:00,2024-07-12 03:10:00,2024-07-12 03:13:00,-1,0,Information
13,-1623994736072630433-2407120253-8,4,Aachen Hbf|Aachen Schanz|Aachen West|Herzogenrath|Übach-Palenberg|Geilenkirchen|Lindern,8000677,4,Hückelhoven-Baal,Nordrhein-Westfalen,Hückelhoven-Baal,41836,6.27280712,51.0329743,2024-07-12 03:27:00,2024-07-12 03:28:00,2024-07-12 03:27:00,2024-07-12 03:28:00,0,0,
14,-3405121308737868986-2407120356-1,3,,8000016,3,Backnang,Baden-Württemberg,Backnang,71522,9.425989,48.942676,,2024-07-12 03:56:00,,,0,0,Information
15,-2548994183414850777-2407120314-3,5,Bebra|Ludwigsau-Friedlos,8000020,3,Bad Hersfeld,Hessen,Bad Hersfeld,36251,9.716182,50.869632,2024-07-12 03:23:00,2024-07-12 03:24:00,2024-07-12 03:23:00,2024-07-12 03:24:00,0,0,
16,-6527908731319902016-2407120338-3,5,Friedrichsdorf(Taunus)|Seulberg,8000712,3,Bad Homburg,Hessen,Bad Homburg,61352,8.620624,50.219904,2024-07-12 03:44:00,2024-07-12 03:45:00,,,0,0,
17,-8745930355234119378-2407120033-5,,Berlin Hbf|Berlin Ostbahnhof|Dresden-Neustadt|Dresden Hbf,8010022,3,Bad Schandau,Sachsen,Bad Schandau,1814,14.1375375,50.9192886,2024-07-12 03:28:00,2024-07-12 03:29:00,2024-07-12 03:25:00,2024-07-12 03:29:00,-3,0,Information
18,-138132356153188144-2407120317-9,1,Karlsruhe Hbf|Karlsruhe-Durlach|Weingarten(Baden)|Untergrombach|Bruchsal Bildungszentrum|Bruchsal|Ubstadt-Weiher|Stettfeld-Weiher,8003533,4,Bad Schönborn Süd,Baden-Württemberg,Bad Schönborn,76669,8.641924,49.200001,2024-07-12 03:44:00,2024-07-12 03:44:00,2024-07-12 03:44:00,2024-07-12 03:45:00,0,1,Störung
19,2230826486094175778-2407120351-2,RE83,Lübeck Hbf,8000749,5,Bad Schwartau,Schleswig-Holstein,Bad Schwartau,23611,10.702722,53.916276,2024-07-12 03:56:00,2024-07-12 03:56:00,2024-07-12 03:56:00,2024-07-12 03:56:00,0,0,
20,155992079699948133-2407120345-1,3,,8000752,5,Bad Soden (Taunus),Hessen,Bad Soden (Taunus),65812,8.50442648,50.1429607,,2024-07-12 03:45:00,,,0,0,
21,5345924912571245273-2407112134-14,,Hamburg-Altona|Hamburg Dammtor|Hamburg Hbf|Büchen|Ludwigslust|Wittenberge|Berlin-Spandau|Berlin Hbf|Berlin Südkreuz|Lutherstadt Wittenberg Hbf|Leipzig Hbf|Erfurt Hbf|Coburg,8000025,2,Bamberg,Bayern,Bamberg,96052,10.899489,49.900759,2024-07-12 03:13:00,2024-07-12 03:15:00,2024-07-12 03:13:00,2024-07-12 03:16:00,0,1,Information
22,-869553568704520980-2407120305-7,9,Berlin Alexanderplatz (S)|Berlin Jannowitzbrücke|Berlin Ostbahnhof (S)|Berlin Warschauer Straße|Berlin Treptower Park|Berlin Plänterwald,8089004,4,Baumschulenweg,Berlin,Berlin,12437,13.490097,52.467244,2024-07-12 03:19:00,2024-07-12 03:19:00,2024-07-12 03:19:00,2024-07-12 03:19:00,0,0,
23,-5974037389702895596-2407120342-5,9,Berlin-Grünau|Berlin-Adlershof|Berlin-Johannisthal|Berlin-Schöneweide (S),8089004,4,Baumschulenweg,Berlin,Berlin,12437,13.490097,52.467244,2024-07-12 03:55:00,2024-07-12 03:56:00,,,0,0,
24,7265579896316843783-2407120302-15,9,Berlin Charlottenburg (S)|Berlin Savignyplatz|Berlin Zoologischer Garten (S)|Berlin-Tiergarten|Berlin Bellevue|Berlin Hbf (S-Bahn)|Berlin Friedrichstraße (S)|Berlin Hackescher Markt|Berlin Alexanderplatz (S)|Berlin Jannowitzbrücke|Berlin Ostbahnhof (S)|Berlin Warschauer Straße|Berlin Treptower Park|Berlin Plänterwald,8089004,4,Baumschulenweg,Berlin,Berlin,12437,13.490097,52.467244,2024-07-12 03:34:00,2024-07-12 03:34:00,2024-07-12 03:34:00,2024-07-12 03:34:00,0,0,
25,-4264599631284267039-2407120312-16,9,Berlin Westkreuz|Berlin Charlottenburg (S)|Berlin Savignyplatz|Berlin Zoologischer Garten (S)|Berlin-Tiergarten|Berlin Bellevue|Berlin Hbf (S-Bahn)|Berlin Friedrichstraße (S)|Berlin Hackescher Markt|Berlin Alexanderplatz (S)|Berlin Jannowitzbrücke|Berlin Ostbahnhof (S)|Berlin Warschauer Straße|Berlin Treptower Park|Berlin Plänterwald,8089004,4,Baumschulenweg,Berlin,Berlin,12437,13.490097,52.467244,2024-07-12 03:47:00,2024-07-12 03:50:00,,,0,0,
26,-1693889192300063185-2407120359-1,50,,8000029,3,Bebra,Hessen,Bebra,36179,9.797788,50.969568,,2024-07-12 03:59:00,,,0,0,
27,-2548994183414850777-2407120314-1,5,,8000029,3,Bebra,Hessen,Bebra,36179,9.797788,50.969568,,2024-07-12 03:14:00,,2024-07-12 03:14:00,0,0,
28,-2063351183120734574-2407120344-7,5,Berlin-Grunewald|Berlin Westkreuz|Berlin Charlottenburg (S)|Berlin Savignyplatz|Berlin Zoologischer Garten (S)|Berlin-Tiergarten,8089005,4,Bellevue,Berlin,Berlin,10557,13.348263,52.519955,2024-07-12 03:57:00,2024-07-12 03:58:00,,,0,0,
29,2964630978341565241-2407120332-6,9,Berlin Westkreuz|Berlin Charlottenburg (S)|Berlin Savignyplatz|Berlin Zoologischer Garten (S)|Berlin-Tiergarten,8089005,4,Bellevue,Berlin,Berlin,10557,13.348263,52.519955,2024-07-12 03:42:00,2024-07-12 03:43:00,,,0,0,
30,7265579896316843783-2407120302-5,9,Berlin Charlottenburg (S)|Berlin Savignyplatz|Berlin Zoologischer Garten (S)|Berlin-Tiergarten,8089005,4,Bellevue,Berlin,Berlin,10557,13.348263,52.519955,2024-07-12 03:10:00,2024-07-12 03:10:00,2024-07-12 03:10:00,2024-07-12 03:10:00,0,0,
31,-4264599631284267039-2407120312-6,9,Berlin Westkreuz|Berlin Charlottenburg (S)|Berlin Savignyplatz|Berlin Zoologischer Garten (S)|Berlin-Tiergarten,8089005,4,Bellevue,Berlin,Berlin,10557,13.348263,52.519955,2024-07-12 03:22:00,2024-07-12 03:23:00,,,0,0,
32,-2665435153022489553-2407120341-1,7,,8010031,5,Bad Belzig,Brandenburg,Belzig,14806,12.594981,52.135969,,2024-07-12 03:41:00,,,0,0,
33,-5867842893510111922-2407120345-7,41,Berlin Gesundbrunnen(S)|Berlin Schönhauser Allee|Berlin Prenzlauer Allee|Berlin Greifswalder Str|Berlin Landsberger Allee|Berlin Storkower Str,8089013,3,Berlin Frankfurter Allee,Berlin,Berlin,10247,13.47441,52.515168,2024-07-12 03:57:00,2024-07-12 03:58:00,,,0,0,
34,3609130455711901954-2407120343-3,42,Berlin Treptower Park|Berlin Ostkreuz (S),8089013,3,Berlin Frankfurter Allee,Berlin,Berlin,10247,13.47441,52.515168,2024-07-12 03:48:00,2024-07-12 03:48:00,,,0,0,
35,-2910165204535689153-2407120353-3,42,Berlin Treptower Park|Berlin Ostkreuz (S),8089013,3,Berlin Frankfurter Allee,Berlin,Berlin,10247,13.47441,52.515168,2024-07-12 03:58:00,2024-07-12 03:58:00,,,0,0,
36,700156942723660705-2407120334-4,8,Berlin-Charlottenburg|Berlin Zoologischer Garten|Berlin Hbf,8011306,2,Berlin-Friedrichstraße,Berlin,Berlin,10117,13.3872056,52.520373,2024-07-12 03:47:00,2024-07-12 03:48:00,2024-07-12 03:47:00,2024-07-12 03:48:00,0,0,
37,1507163401013910914-2407120305-4,,Berlin-Charlottenburg|Berlin Zoologischer Garten|Berlin Hbf,8011306,2,Berlin-Friedrichstraße,Berlin,Berlin,10117,13.3872056,52.520373,2024-07-12 03:17:00,2024-07-12 03:18:00,2024-07-12 03:17:00,2024-07-12 03:18:00,0,0,
38,3262097249322916769-2407120241-5,8,Flughafen BER|Berlin Ostkreuz|Berlin Ostbahnhof|Berlin Alexanderplatz,8011306,2,Berlin-Friedrichstraße,Berlin,Berlin,10117,13.3872056,52.520373,2024-07-12 03:10:00,2024-07-12 03:11:00,2024-07-12 03:12:00,2024-07-12 03:13:00,2,2,
39,-199422321941227724-2407120320-4,,Berlin-Charlottenburg|Berlin Zoologischer Garten|Berlin Hbf,8011306,2,Berlin-Friedrichstraße,Berlin,Berlin,10117,13.3872056,52.520373,2024-07-12 03:31:00,2024-07-12 03:32:00,2024-07-12 03:31:00,2024-07-12 03:32:00,0,0,
40,4063429164769473916-2407120351-2,,Berlin Hbf,8011102,1,Berlin Gesundbrunnen,Berlin,Berlin,13357,13.388513,52.548963,2024-07-12 03:57:00,2024-07-12 04:00:00,,,0,0,Information
41,-5867842893510111922-2407120345-4,41,Berlin Gesundbrunnen(S)|Berlin Schönhauser Allee|Berlin Prenzlauer Allee,8089011,4,Greifswalder Straße,Berlin,Berlin,10409,13.439561,52.54002,2024-07-12 03:51:00,2024-07-12 03:51:00,,,0,0,
42,3609130455711901954-2407120343-6,42,Berlin Treptower Park|Berlin Ostkreuz (S)|Berlin Frankfurter Allee|Berlin Storkower Str|Berlin Landsberger Allee,8089011,4,Greifswalder Straße,Berlin,Berlin,10409,13.439561,52.54002,2024-07-12 03:54:00,2024-07-12 03:54:00,,,0,0,
43,700156942723660705-2407120334-6,8,Berlin-Charlottenburg|Berlin Zoologischer Garten|Berlin Hbf|Berlin Friedrichstraße|Berlin Alexanderplatz,8010255,1,Berlin Ostbahnhof,Berlin,Berlin,10243,13.4346807,52.5104881,2024-07-12 03:55:00,2024-07-12 03:56:00,2024-07-12 03:55:00,2024-07-12 03:56:00,0,0,
44,1507163401013910914-2407120305-6,,Berlin-Charlottenburg|Berlin Zoologischer Garten|Berlin Hbf|Berlin Friedrichstraße|Berlin Alexanderplatz,8010255,1,Berlin Ostbahnhof,Berlin,Berlin,10243,13.4346807,52.5104881,2024-07-12 03:25:00,2024-07-12 03:26:00,2024-07-12 03:25:00,2024-07-12 03:26:00,0,0,
45,3262097249322916769-2407120241-3,8,Flughafen BER|Berlin Ostkreuz,8010255,1,Berlin Ostbahnhof,Berlin,Berlin,10243,13.4346807,52.5104881,2024-07-12 03:02:00,2024-07-12 03:03:00,2024-07-12 03:04:00,2024-07-12 03:06:00,2,3,
46,-199422321941227724-2407120320-6,,Berlin-Charlottenburg|Berlin Zoologischer Garten|Berlin Hbf|Berlin Friedrichstraße|Berlin Alexanderplatz,8010255,1,Berlin Ostbahnhof,Berlin,Berlin,10243,13.4346807,52.5104881,2024-07-12 03:39:00,2024-07-12 03:40:00,2024-07-12 03:38:00,2024-07-12 03:40:00,-1,0,
47,700156942723660705-2407120334-2,8,Berlin-Charlottenburg,8010406,2,Berlin Zoologischer Garten,Berlin,Berlin,10623,13.3324447,52.5073407,2024-07-12 03:37:00,2024-07-12 03:39:00,2024-07-12 03:37:00,2024-07-12 03:39:00,0,0,
48,1507163401013910914-2407120305-2,,Berlin-Charlottenburg,8010406,2,Berlin Zoologischer Garten,Berlin,Berlin,10623,13.3324447,52.5073407,2024-07-12 03:08:00,2024-07-12 03:09:00,2024-07-12 03:08:00,2024-07-12 03:09:00,0,0,
49,3262097249322916769-2407120241-7,8,Flughafen BER|Berlin Ostkreuz|Berlin Ostbahnhof|Berlin Alexanderplatz|Berlin Friedrichstraße|Berlin Hbf,8010406,2,Berlin Zoologischer Garten,Berlin,Berlin,10623,13.3324447,52.5073407,2024-07-12 03:20:00,2024-07-12 03:21:00,2024-07-12 03:21:00,2024-07-12 03:22:00,1,1,
50,-199422321941227724-2407120320-2,,Berlin-Charlottenburg,8010406,2,Berlin Zoologischer Garten,Berlin,Berlin,10623,13.3324447,52.5073407,2024-07-12 03:22:00,2024-07-12 03:23:00,2024-07-12 03:22:00,2024-07-12 03:23:00,0,0,
51,-869553568704520980-2407120305-10,9,Berlin Alexanderplatz (S)|Berlin Jannowitzbrücke|Berlin Ostbahnhof (S)|Berlin Warschauer Straße|Berlin Treptower Park|Berlin Plänterwald|Berlin Baumschulenweg|Berlin-Schöneweide (S)|Berlin-Johannisthal,8089052,4,Berlin-Adlershof,Berlin,Berlin,12489,13.541129,52.435031,2024-07-12 03:27:00,2024-07-12 03:28:00,2024-07-12 03:27:00,2024-07-12 03:28:00,0,0,
52,4301970976136169411-2407120356-2,46,Berlin-Grünau,8089052,4,Berlin-Adlershof,Berlin,Berlin,12489,13.541129,52.435031,2024-07-12 03:59:00,2024-07-12 04:00:00,,,0,0,
53,-5974037389702895596-2407120342-2,9,Berlin-Grünau,8089052,4,Berlin-Adlershof,Berlin,Berlin,12489,13.541129,52.435031,2024-07-12 03:46:00,2024-07-12 03:47:00,,,0,0,
54,7265579896316843783-2407120302-18,9,Berlin Charlottenburg (S)|Berlin Savignyplatz|Berlin Zoologischer Garten (S)|Berlin-Tiergarten|Berlin Bellevue|Berlin Hbf (S-Bahn)|Berlin Friedrichstraße (S)|Berlin Hackescher Markt|Berlin Alexanderplatz (S)|Berlin Jannowitzbrücke|Berlin Ostbahnhof (S)|Berlin Warschauer Straße|Berlin Treptower Park|Berlin Plänterwald|Berlin Baumschulenweg|Berlin-Schöneweide (S)|Berlin-Johannisthal,8089052,4,Berlin-Adlershof,Berlin,Berlin,12489,13.541129,52.435031,2024-07-12 03:42:00,2024-07-12 03:43:00,2024-07-12 03:42:00,2024-07-12 03:43:00,0,0,
55,-4264599631284267039-2407120312-19,9,Berlin Westkreuz|Berlin Charlottenburg (S)|Berlin Savignyplatz|Berlin Zoologischer Garten (S)|Berlin-Tiergarten|Berlin Bellevue|Berlin Hbf (S-Bahn)|Berlin Friedrichstraße (S)|Berlin Hackescher Markt|Berlin Alexanderplatz (S)|Berlin Jannowitzbrücke|Berlin Ostbahnhof (S)|Berlin Warschauer Straße|Berlin Treptower Park|Berlin Plänterwald|Berlin Baumschulenweg|Berlin-Schöneweide (S)|Berlin-Johannisthal,8089052,4,Berlin-Adlershof,Berlin,Berlin,12489,13.541129,52.435031,2024-07-12 03:58:00,2024-07-12 03:58:00,,,0,0,
56,700156942723660705-2407120334-1,8,,8010403,3,Berlin-Charlottenburg,Berlin,Berlin,10627,13.3023298,52.5042126,,2024-07-12 03:34:00,,2024-07-12 03:34:00,0,0,
57,1507163401013910914-2407120305-1,,,8010403,3,Berlin-Charlottenburg,Berlin,Berlin,10627,13.3023298,52.5042126,,2024-07-12 03:05:00,,2024-07-12 03:05:00,0,0,
58,3262097249322916769-2407120241-8,,Flughafen BER|Berlin Ostkreuz|Berlin Ostbahnhof|Berlin Alexanderplatz|Berlin Friedrichstraße|Berlin Hbf|Berlin Zoologischer Garten,8010403,3,Berlin-Charlottenburg,Berlin,Berlin,10627,13.3023298,52.5042126,2024-07-12 03:24:00,,2024-07-12 03:25:00,,1,0,
59,-199422321941227724-2407120320-1,,,8010403,3,Berlin-Charlottenburg,Berlin,Berlin,10627,13.3023298,52.5042126,,2024-07-12 03:20:00,,2024-07-12 03:20:00,0,0,
60,-7395193857295471280-2407120324-4,3,Erkner (S)|Berlin-Wilhelmshagen|Berlin-Rahnsdorf,8089060,4,Berlin-Friedrichshagen,Berlin,Berlin,12587,13.6246,52.457247,2024-07-12 03:35:00,2024-07-12 03:35:00,,,0,0,
61,-2334258063280761431-2407120344-4,3,Erkner (S)|Berlin-Wilhelmshagen|Berlin-Rahnsdorf,8089060,4,Berlin-Friedrichshagen,Berlin,Berlin,12587,13.6246,52.457247,2024-07-12 03:55:00,2024-07-12 03:55:00,,,0,0,
62,4301970976136169411-2407120356-1,46,,8089063,4,Berlin-Grünau,Berlin,Berlin,12527,13.573497,52.413028,,2024-07-12 03:56:00,,,0,0,
63,-5974037389702895596-2407120342-1,9,,8089063,4,Berlin-Grünau,Berlin,Berlin,12527,13.573497,52.413028,,2024-07-12 03:42:00,,,0,0,
64,-3802326444321179536-2407120358-1,3,,8089062,4,Berlin-Grunewald,Berlin,Berlin,14193,13.26172,52.488693,,2024-07-12 03:58:00,,,0,0,
65,-2063351183120734574-2407120344-1,5,,8089062,4,Berlin-Grunewald,Berlin,Berlin,14193,13.26172,52.488693,,2024-07-12 03:44:00,,,0,0,
66,4452597677740860356-2407120355-2,42,Berlin Charlottenburg (S),8089109,4,Berlin-Halensee,Berlin,Berlin,10711,13.290326,52.496254,2024-07-12 03:58:00,2024-07-12 03:58:00,,,0,0,
67,-7395193857295471280-2407120324-6,3,Erkner (S)|Berlin-Wilhelmshagen|Berlin-Rahnsdorf|Berlin-Friedrichshagen|Berlin-Hirschgarten,8089069,4,Berlin-Köpenick,Berlin,Berlin,12555,13.580942,52.45861,2024-07-12 03:39:00,2024-07-12 03:40:00,,,0,0,
68,-2334258063280761431-2407120344-6,3,Erkner (S)|Berlin-Wilhelmshagen|Berlin-Rahnsdorf|Berlin-Friedrichshagen|Berlin-Hirschgarten,8089069,4,Berlin-Köpenick,Berlin,Berlin,12555,13.580942,52.45861,2024-07-12 03:59:00,2024-07-12 04:00:00,,,0,0,
69,1042297618291463943-2407120356-2,42,Berlin Hermannstraße,8089077,3,Berlin-Neukölln,Berlin,Berlin,12055,13.44306,52.46942,2024-07-12 03:58:00,2024-07-12 03:58:00,,,0,0,
70,-7395193857295471280-2407120324-10,3,Erkner (S)|Berlin-Wilhelmshagen|Berlin-Rahnsdorf|Berlin-Friedrichshagen|Berlin-Hirschgarten|Berlin-Köpenick|Berlin-Wuhlheide|Berlin-Karlshorst (S)|Berlin Betriebsbf Rummelsburg,8089084,4,Berlin-Rummelsburg,Berlin,Berlin,10317,13.478362,52.501309,2024-07-12 03:51:00,2024-07-12 03:51:00,,,0,0,
71,-1753987334077969698-2407120357-1,1,,8089474,4,Schöneberg,Berlin,Berlin,10827,13.352068,52.479377,,2024-07-12 03:57:00,,,0,0,
72,-4100659615061494590-2407120355-1,46,,8089090,4,Berlin-Tempelhof,Berlin,Berlin,12099,13.384547,52.470967,,2024-07-12 03:55:00,,,0,0,
73,-7395193857295471280-2407120324-9,3,Erkner (S)|Berlin-Wilhelmshagen|Berlin-Rahnsdorf|Berlin-Friedrichshagen|Berlin-Hirschgarten|Berlin-Köpenick|Berlin-Wuhlheide|Berlin-Karlshorst (S),8089006,4,Betriebsbahnhof Berlin-Rummelsburg,Berlin,Berlin,10317,13.497786,52.493827,2024-07-12 03:49:00,2024-07-12 03:49:00,,,0,0,
74,-869553568704520980-2407120305-9,9,Berlin Alexanderplatz (S)|Berlin Jannowitzbrücke|Berlin Ostbahnhof (S)|Berlin Warschauer Straße|Berlin Treptower Park|Berlin Plänterwald|Berlin Baumschulenweg|Berlin-Schöneweide (S),8089007,4,Johannisthal,Berlin,Berlin,12439,13.52368,52.446905,2024-07-12 03:25:00,2024-07-12 03:25:00,2024-07-12 03:25:00,2024-07-12 03:25:00,0,0,
75,-5974037389702895596-2407120342-3,9,Berlin-Grünau|Berlin-Adlershof,8089007,4,Johannisthal,Berlin,Berlin,12439,13.52368,52.446905,2024-07-12 03:49:00,2024-07-12 03:50:00,,,0,0,
76,7265579896316843783-2407120302-17,9,Berlin Charlottenburg (S)|Berlin Savignyplatz|Berlin Zoologischer Garten (S)|Berlin-Tiergarten|Berlin Bellevue|Berlin Hbf (S-Bahn)|Berlin Friedrichstraße (S)|Berlin Hackescher Markt|Berlin Alexanderplatz (S)|Berlin Jannowitzbrücke|Berlin Ostbahnhof (S)|Berlin Warschauer Straße|Berlin Treptower Park|Berlin Plänterwald|Berlin Baumschulenweg|Berlin-Schöneweide (S),8089007,4,Johannisthal,Berlin,Berlin,12439,13.52368,52.446905,2024-07-12 03:40:00,2024-07-12 03:40:00,2024-07-12 03:40:00,2024-07-12 03:40:00,0,0,
77,-4264599631284267039-2407120312-18,9,Berlin Westkreuz|Berlin Charlottenburg (S)|Berlin Savignyplatz|Berlin Zoologischer Garten (S)|Berlin-Tiergarten|Berlin Bellevue|Berlin Hbf (S-Bahn)|Berlin Friedrichstraße (S)|Berlin Hackescher Markt|Berlin Alexanderplatz (S)|Berlin Jannowitzbrücke|Berlin Ostbahnhof (S)|Berlin Warschauer Straße|Berlin Treptower Park|Berlin Plänterwald|Berlin Baumschulenweg|Berlin-Schöneweide (S),8089007,4,Johannisthal,Berlin,Berlin,12439,13.52368,52.446905,2024-07-12 03:55:00,2024-07-12 03:56:00,,,0,0,
78,-9110295229692614184-2407120340-6,5,Strausberg (S)|Petershagen Nord|Fredersdorf(b Berlin)|Neuenhagen(b Berlin)|Hoppegarten(Mark),8070002,4,Birkenstein,Brandenburg,Hoppegarten,15366,13.647187,52.515601,2024-07-12 03:57:00,2024-07-12 03:57:00,,,0,0,
79,8635180695645416209-2407120014-6,,Frankfurt(Main)Hbf|Eisenach|Gotha|Erfurt Hbf|Leipzig Hbf,8010050,3,Bitterfeld,Sachsen-Anhalt,Bitterfeld-Wolfen,6749,12.31685,51.622861,2024-07-12 03:51:00,2024-07-12 03:53:00,,,0,0,
80,-817120186960617906-2407120327-3,9,Karlsruhe Hbf|Karlsruhe-Hagsfeld,8001009,5,Blankenloch,Baden-Württemberg, Stutensee,76297,8.464729,49.066528,2024-07-12 03:35:00,2024-07-12 03:35:00,2024-07-12 03:35:00,2024-07-12 03:35:00,0,0,Information
81,-4068911222865023920-2407120222-7,1,Düsseldorf Hbf|Düsseldorf Flughafen|Duisburg Hbf|Mülheim(Ruhr)Hbf|Essen Hbf|Wattenscheid,8000041,2,Bochum Hbf,Nordrhein-Westfalen,Bochum,44787,7.223275,51.478609,2024-07-12 03:02:00,2024-07-12 03:03:00,2024-07-12 03:02:00,2024-07-12 03:03:00,0,0,
82,8573811631662133764-2407112041-15,,München Hbf|Ingolstadt Hbf|Nürnberg Hbf|Würzburg Hbf|Aschaffenburg Hbf|Frankfurt(Main)Hbf|Frankfurt(M) Flughafen Fernbf|Limburg Süd|Montabaur|Siegburg/Bonn|Köln Messe/Deutz Gl.11-12|Düsseldorf Hbf|Duisburg Hbf|Essen Hbf,8000041,2,Bochum Hbf,Nordrhein-Westfalen,Bochum,44787,7.223275,51.478609,2024-07-12 03:04:00,2024-07-12 03:06:00,2024-07-12 03:04:00,2024-07-12 03:06:00,0,0,Störung
83,8503777394879306018-2407112324-13,,Frankfurt(Main)Hbf|Frankfurt(M) Flughafen Fernbf|Mainz Hbf|Bingen(Rhein) Hbf|Koblenz Hbf|Remagen|Bonn Hbf|Köln Hbf|Düsseldorf Hbf|Düsseldorf Flughafen|Duisburg Hbf|Essen Hbf,8000041,2,Bochum Hbf,Nordrhein-Westfalen,Bochum,44787,7.223275,51.478609,2024-07-12 03:14:00,2024-07-12 03:16:00,2024-07-12 03:19:00,2024-07-12 03:21:00,5,5,Information
84,-5761135966346571235-2407120317-8,1,Hamm(Westf)Hbf|Bönen-Nordbögge|Kamen|Kamen-Methler|Dortmund-Kurl|Dortmund-Scharnhorst|Dortmund Hbf,8000041,2,Bochum Hbf,Nordrhein-Westfalen,Bochum,44787,7.223275,51.478609,2024-07-12 03:54:00,2024-07-12 03:55:00,2024-07-12 03:54:00,2024-07-12 03:55:00,0,0,
85,-2819238151300076653-2407120316-4,6,Borna(Leipzig)|Lobstädt|Neukieritzsch,8011222,5,Böhlen Werke,Sachsen,Böhlen,4564,12.384024,51.184702,2024-07-12 03:27:00,2024-07-12 03:27:00,2024-07-12 03:27:00,2024-07-12 03:27:00,0,0,Bauarbeiten
86,-7356420156445510434-2407120238-10,,Köln/Bonn Flughafen|Köln Messe/Deutz|Köln Hbf|Köln West|Köln Süd|Hürth-Kalscheuren|Brühl|Sechtem|Roisdorf,8000044,2,Bonn Hbf,Nordrhein-Westfalen,Bonn,53111,7.097136,50.732008,2024-07-12 03:25:00,,2024-07-12 03:25:00,,0,0,Bauarbeiten. (Quelle: zuginfo.nrw)
87,-2702170392548868455-2407120333-1,26,,8000044,2,Bonn Hbf,Nordrhein-Westfalen,Bonn,53111,7.097136,50.732008,,2024-07-12 03:33:00,,2024-07-12 03:33:00,0,0,Bauarbeiten. (Quelle: zuginfo.nrw)
88,-5967924537871298080-2407120314-2,70,Kiel Hbf,8001092,5,Bordesholm,Schleswig-Holstein,Bordesholm,24582,10.043711,54.174373,2024-07-12 03:24:00,2024-07-12 03:25:00,2024-07-12 03:24:00,2024-07-12 03:25:00,0,0,
89,-2819238151300076653-2407120316-1,6,,8011242,5,Borna (b Leipzig),Sachsen,Borna,4552,12.486291,51.117926,,2024-07-12 03:16:00,,2024-07-12 03:16:00,0,0,Bauarbeiten
90,-4674302681811850992-2407111913-21,,Basel SBB|Basel Bad Bf|Freiburg(Breisgau) Hbf|Offenburg|Baden-Baden|Karlsruhe Hbf|Mannheim Hbf|Frankfurt(M) Flughafen Fernbf|Siegburg/Bonn|Köln Hbf|Düsseldorf Hbf|Düsseldorf Flughafen|Duisburg Hbf|Essen Hbf|Bochum Hbf|Dortmund Hbf|Hamm(Westf)Hbf|Bielefeld Hbf|Minden(Westf)|Hannover Hbf,8000049,2,Braunschweig Hbf,Niedersachsen,Braunschweig,38102,10.540295,52.252218,2024-07-12 03:14:00,2024-07-12 03:16:00,2024-07-12 03:13:00,2024-07-12 03:16:00,-1,0,Störung
91,8322424274180843926-2407111928-16,,München Hbf|München-Pasing|Augsburg Hbf|Ulm Hbf|Stuttgart Hbf|Mannheim Hbf|Frankfurt(M) Flughafen Fernbf|Siegburg/Bonn|Köln Hbf|Düsseldorf Hbf|Duisburg Hbf|Essen Hbf|Dortmund Hbf|Münster(Westf)Hbf|Osnabrück Hbf,8000050,2,Bremen Hbf,Bremen,Bremen,28195,8.813834,53.083481,2024-07-12 03:18:00,2024-07-12 03:20:00,2024-07-12 04:37:00,2024-07-12 04:39:00,79,79,Störung
92,7320864052100314799-2407120215-24,4,"Karlsruhe Albtalbahnhof|Karlsruhe Bahnhofsvorplatz|Poststraße, Karlsruhe|Augartenstraße, Karlsruhe|Kongresszentrum (U), Karlsruhe|Ettlinger Tor/Staatstheater (U), Karlsruhe|Marktplatz (Pyramide U), Karlsruhe|Kronenplatz (U), Karlsruhe|Durlacher Tor/KIT-Campus Süd (U), Karlsruhe|Gottesauer Platz/BGV, Karlsruhe|Tullastraße/Alter Schlachthof, Karlsruhe|Weinweg, Karlsruhe|Durlach Untermühlstraße, Karlsruhe|Karlsruhe-Durlach|Grötzingen|Grötzingen Oberausstraße|Berghausen Hummelberg|Jöhlingen West|Jöhlingen|Wössingen|Wössingen Ost|Dürrenbüchig|Rinklingen",8000053,4,Bretten,Baden-Württemberg,Bretten,75015,8.693448,49.0369,2024-07-12 02:58:00,2024-07-12 03:00:00,,,0,0,
93,-4023185607580736815-2407120315-24,4,"Karlsruhe Albtalbahnhof|Karlsruhe Bahnhofsvorplatz|Poststraße, Karlsruhe|Augartenstraße, Karlsruhe|Kongresszentrum (U), Karlsruhe|Ettlinger Tor/Staatstheater (U), Karlsruhe|Marktplatz (Pyramide U), Karlsruhe|Kronenplatz (U), Karlsruhe|Durlacher Tor/KIT-Campus Süd (U), Karlsruhe|Gottesauer Platz/BGV, Karlsruhe|Tullastraße/Alter Schlachthof, Karlsruhe|Weinweg, Karlsruhe|Durlach Untermühlstraße, Karlsruhe|Karlsruhe-Durlach|Grötzingen|Grötzingen Oberausstraße|Berghausen Hummelberg|Jöhlingen West|Jöhlingen|Wössingen|Wössingen Ost|Dürrenbüchig|Rinklingen",8000053,4,Bretten,Baden-Württemberg,Bretten,75015,8.693448,49.0369,2024-07-12 03:58:00,2024-07-12 04:00:00,,,0,0,
94,-8475165044633207486-2407120343-2,6,Friedberg(Hess),8001196,5,Bruchenbrücken,Hessen,Friedberg (Hess.),61169,8.788402,50.301965,2024-07-12 03:47:00,2024-07-12 03:47:00,,,0,0,
95,-138132356153188144-2407120317-6,1,Karlsruhe Hbf|Karlsruhe-Durlach|Weingarten(Baden)|Untergrombach|Bruchsal Bildungszentrum,8000055,2,Bruchsal,Baden-Württemberg,Bruchsal,76646,8.589649,49.124622,2024-07-12 03:35:00,2024-07-12 03:36:00,2024-07-12 03:35:00,2024-07-12 03:36:00,0,0,Störung
96,7162647213947565562-2407120226-5,,Stuttgart Hbf|Ludwigsburg|Pforzheim Hbf|Karlsruhe Hbf,8000055,2,Bruchsal,Baden-Württemberg,Bruchsal,76646,8.589649,49.124622,2024-07-12 03:45:00,2024-07-12 03:47:00,2024-07-12 03:45:00,2024-07-12 03:47:00,0,0,
97,-7356420156445510434-2407120238-7,26,Köln/Bonn Flughafen|Köln Messe/Deutz|Köln Hbf|Köln West|Köln Süd|Hürth-Kalscheuren,8001215,4,Brühl,Nordrhein-Westfalen,Brühl,50321,6.912718,50.829249,2024-07-12 03:11:00,2024-07-12 03:12:00,2024-07-12 03:11:00,2024-07-12 03:12:00,0,0,Bauarbeiten. (Quelle: zuginfo.nrw)
98,-2702170392548868455-2407120333-4,26,Bonn Hbf|Roisdorf|Sechtem,8001215,4,Brühl,Nordrhein-Westfalen,Brühl,50321,6.912718,50.829249,2024-07-12 03:44:00,2024-07-12 03:45:00,2024-07-12 03:44:00,2024-07-12 03:45:00,0,0,Bauarbeiten. (Quelle: zuginfo.nrw)
99,-1250569488410439385-2407120335-8,3,Darmstadt Hbf|Darmstadt-Arheilgen|Darmstadt-Wixhausen|Erzhausen|Egelsbach|Langen(Hess)|Langen-Flugsicherung,8001236,4,Dreieich-Buchschlag,Hessen,Dreieich,63303,8.66115063,50.0224771,2024-07-12 03:53:00,2024-07-12 03:53:00,,,0,0,
100,-5397583228103808993-2407120316-8,19,Aachen Hbf|Aachen-Rothe Erde|Stolberg(Rheinl)Hbf|Eschweiler Hbf|Langerwehe|Düren|Merzenich,8001264,5,Buir,Nordrhein-Westfalen,Kerpen,50170,6.574514,50.862401,2024-07-12 03:51:00,2024-07-12 03:51:00,2024-07-12 03:51:00,2024-07-12 03:52:00,0,1,Bauarbeiten. (Quelle: zuginfo.nrw)
101,-1251565744844871983-2407120236-8,19,Aachen Hbf|Aachen-Rothe Erde|Stolberg(Rheinl)Hbf|Eschweiler Hbf|Langerwehe|Düren|Merzenich,8001264,5,Buir,Nordrhein-Westfalen,Kerpen,50170,6.574514,50.862401,2024-07-12 03:11:00,2024-07-12 03:11:00,2024-07-12 03:12:00,2024-07-12 03:12:00,1,1,Bauarbeiten. (Quelle: zuginfo.nrw)
102,-3350829285278508323-2407120324-3,19,Horrem|Sindorf,8001264,5,Buir,Nordrhein-Westfalen,Kerpen,50170,6.574514,50.862401,2024-07-12 03:32:00,2024-07-12 03:33:00,2024-07-12 03:32:00,2024-07-12 03:33:00,0,0,Bauarbeiten. (Quelle: zuginfo.nrw)
103,-2047243926671335434-2407120329-4,30,Köthen|Wulfen(Anh)|Sachsendorf(Calbe),8010070,5,Calbe (Saale) Ost,Sachsen-Anhalt,Calbe (Saale),39240,11.810527,51.920693,2024-07-12 03:45:00,2024-07-12 03:45:00,2024-07-12 03:45:00,2024-07-12 03:45:00,0,0,
104,700156942723660705-2407120334-3,8,Berlin-Charlottenburg|Berlin Zoologischer Garten,8011160,1,Berlin Hauptbahnhof,Berlin,Berlin,10557,13.369545,52.525592,2024-07-12 03:43:00,2024-07-12 03:45:00,2024-07-12 03:43:00,2024-07-12 03:45:00,0,0,
105,1507163401013910914-2407120305-3,,Berlin-Charlottenburg|Berlin Zoologischer Garten,8011160,1,Berlin Hauptbahnhof,Berlin,Berlin,10557,13.369545,52.525592,2024-07-12 03:13:00,2024-07-12 03:15:00,2024-07-12 03:13:00,2024-07-12 03:15:00,0,0,
106,3262097249322916769-2407120241-6,8,Flughafen BER|Berlin Ostkreuz|Berlin Ostbahnhof|Berlin Alexanderplatz|Berlin Friedrichstraße,8011160,1,Berlin Hauptbahnhof,Berlin,Berlin,10557,13.369545,52.525592,2024-07-12 03:13:00,2024-07-12 03:15:00,2024-07-12 03:14:00,2024-07-12 03:16:00,1,1,
107,-199422321941227724-2407120320-3,,Berlin-Charlottenburg|Berlin Zoologischer Garten,8011160,1,Berlin Hauptbahnhof,Berlin,Berlin,10557,13.369545,52.525592,2024-07-12 03:28:00,2024-07-12 03:29:00,2024-07-12 03:27:00,2024-07-12 03:29:00,-1,0,
108,-1052154697880603635-2407120307-1,2,,8010073,2,Cottbus Hbf,Brandenburg,Cottbus,3048,14.324162,51.750957,,2024-07-12 03:07:00,,2024-07-12 03:07:00,0,0,
109,-783114804571488319-2407120347-1,2,,8010073,2,Cottbus Hbf,Brandenburg,Cottbus,3048,14.324162,51.750957,,2024-07-12 03:47:00,,,0,0,
110,-1250569488410439385-2407120335-1,3,,8000068,2,Darmstadt Hbf,Hessen,Darmstadt,64293,8.629636,49.872503,,2024-07-12 03:35:00,,,0,0,
111,-3284257143829618631-2407120358-1,13,,8010077,3,Dessau Hbf,Sachsen-Anhalt,Dessau-Roßlau,6844,12.234945,51.839865,,2024-07-12 03:58:00,,,0,0,
112,-389765114355125159-2407120343-4,RE19,Wesel|Friedrichsfeld(Niederrhein)|Voerde(Niederrhein),8001469,4,Dinslaken,Nordrhein-Westfalen,Dinslaken,46535,6.73803,51.567458,2024-07-12 03:53:00,2024-07-12 03:54:00,,,0,0,
113,3646559143861574448-2407120313-4,6,Düsseldorf Hbf|Düsseldorf-Bilk|Neuss Hbf,8001506,4,Dormagen,Nordrhein-Westfalen,Dormagen,41540,6.814837,51.099495,2024-07-12 03:36:00,2024-07-12 03:37:00,2024-07-12 03:36:00,2024-07-12 03:37:00,0,0,
114,-8475165044633207486-2407120343-6,6,Friedberg(Hess)|Bruchenbrücken|Nieder Wöllstadt|Okarben|Groß Karben,8001514,5,Dortelweil,Hessen,Bad Vilbel,61118,8.751145,50.207503,2024-07-12 03:59:00,2024-07-12 04:00:00,,,0,0,
115,1025611722263176185-2407120303-1,3,,8000080,1,Dortmund Hbf,Nordrhein-Westfalen,Dortmund,44137,7.45929,51.517896,,2024-07-12 03:03:00,,,0,0,Störung. (Quelle: zuginfo.nrw)
116,-4068911222865023920-2407120222-8,,Düsseldorf Hbf|Düsseldorf Flughafen|Duisburg Hbf|Mülheim(Ruhr)Hbf|Essen Hbf|Wattenscheid|Bochum Hbf,8000080,1,Dortmund Hbf,Nordrhein-Westfalen,Dortmund,44137,7.45929,51.517896,2024-07-12 03:14:00,,2024-07-12 03:14:00,,0,0,
117,8573811631662133764-2407112041-16,,München Hbf|Ingolstadt Hbf|Nürnberg Hbf|Würzburg Hbf|Aschaffenburg Hbf|Frankfurt(Main)Hbf|Frankfurt(M) Flughafen Fernbf|Limburg Süd|Montabaur|Siegburg/Bonn|Köln Messe/Deutz Gl.11-12|Düsseldorf Hbf|Duisburg Hbf|Essen Hbf|Bochum Hbf,8000080,1,Dortmund Hbf,Nordrhein-Westfalen,Dortmund,44137,7.45929,51.517896,2024-07-12 03:21:00,,2024-07-12 03:18:00,,-3,0,Störung
118,8665711080315122274-2407120351-1,1,,8000080,1,Dortmund Hbf,Nordrhein-Westfalen,Dortmund,44137,7.45929,51.517896,,2024-07-12 03:51:00,,,0,0,Information. (Quelle: zuginfo.nrw)
119,8503777394879306018-2407112324-14,,Frankfurt(Main)Hbf|Frankfurt(M) Flughafen Fernbf|Mainz Hbf|Bingen(Rhein) Hbf|Koblenz Hbf|Remagen|Bonn Hbf|Köln Hbf|Düsseldorf Hbf|Düsseldorf Flughafen|Duisburg Hbf|Essen Hbf|Bochum Hbf,8000080,1,Dortmund Hbf,Nordrhein-Westfalen,Dortmund,44137,7.45929,51.517896,2024-07-12 03:27:00,2024-07-12 03:32:00,2024-07-12 03:31:00,2024-07-12 03:33:00,4,1,Information
120,-5761135966346571235-2407120317-7,1,Hamm(Westf)Hbf|Bönen-Nordbögge|Kamen|Kamen-Methler|Dortmund-Kurl|Dortmund-Scharnhorst,8000080,1,Dortmund Hbf,Nordrhein-Westfalen,Dortmund,44137,7.45929,51.517896,2024-07-12 03:43:00,2024-07-12 03:45:00,2024-07-12 03:43:00,2024-07-12 03:45:00,0,0,
121,-5463405634008665571-2407120137-30,,Düsseldorf Hbf|Düsseldorf Wehrhahn|Düsseldorf-Zoo|Düsseldorf-Derendorf|Düsseldorf-Unterrath|Düsseldorf Flughafen|Angermund|Duisburg-Rahm|Duisburg-Großenbaum|Duisburg-Buchholz|Duisburg-Schlenk|Duisburg Hbf|Mülheim(Ruhr)Styrum|Mülheim(Ruhr)Hbf|Essen West|Essen Hbf|Essen-Steele|Essen-Steele Ost|Essen-Eiberg|Wattenscheid-Höntrop|Bochum-Ehrenfeld|Bochum Hbf|Bochum-Langendreer West|Bochum-Langendreer|Dortmund-Kley|Dortmund-Oespel|Dortmund Universität|Dortmund-Dorstfeld Süd|Dortmund-Dorstfeld,8000080,1,Dortmund Hbf,Nordrhein-Westfalen,Dortmund,44137,7.45929,51.517896,2024-07-12 03:10:00,,2024-07-12 03:10:00,,0,0,Bauarbeiten. (Quelle: zuginfo.nrw)
122,8665711080315122274-2407120351-4,1,Dortmund Hbf|Dortmund-Dorstfeld|Dortmund-Dorstfeld Süd,8004419,4,Dortmund-Universität,Nordrhein-Westfalen,Dortmund,44227,7.417708,51.49274,2024-07-12 03:59:00,2024-07-12 04:00:00,,,0,0,Information. (Quelle: zuginfo.nrw)
123,8665711080315122274-2407120351-2,1,Dortmund Hbf,8000081,3,Dortmund-Dorstfeld,Nordrhein-Westfalen,Dortmund,44149,7.424864,51.509376,2024-07-12 03:53:00,2024-07-12 03:56:00,,,0,0,Information. (Quelle: zuginfo.nrw)
124,-5463405634008665571-2407120137-29,1,Düsseldorf Hbf|Düsseldorf Wehrhahn|Düsseldorf-Zoo|Düsseldorf-Derendorf|Düsseldorf-Unterrath|Düsseldorf Flughafen|Angermund|Duisburg-Rahm|Duisburg-Großenbaum|Duisburg-Buchholz|Duisburg-Schlenk|Duisburg Hbf|Mülheim(Ruhr)Styrum|Mülheim(Ruhr)Hbf|Essen West|Essen Hbf|Essen-Steele|Essen-Steele Ost|Essen-Eiberg|Wattenscheid-Höntrop|Bochum-Ehrenfeld|Bochum Hbf|Bochum-Langendreer West|Bochum-Langendreer|Dortmund-Kley|Dortmund-Oespel|Dortmund Universität|Dortmund-Dorstfeld Süd,8000081,3,Dortmund-Dorstfeld,Nordrhein-Westfalen,Dortmund,44149,7.424864,51.509376,2024-07-12 03:02:00,2024-07-12 03:03:00,2024-07-12 03:05:00,2024-07-12 03:06:00,3,3,Bauarbeiten. (Quelle: zuginfo.nrw)
125,8665711080315122274-2407120351-3,1,Dortmund Hbf|Dortmund-Dorstfeld,8004230,4,Dortmund-Dorstfeld Süd,Nordrhein-Westfalen,Dortmund,44149,7.420017,51.500632,2024-07-12 03:57:00,2024-07-12 03:58:00,,,0,0,Information. (Quelle: zuginfo.nrw)
126,-5463405634008665571-2407120137-28,1,Düsseldorf Hbf|Düsseldorf Wehrhahn|Düsseldorf-Zoo|Düsseldorf-Derendorf|Düsseldorf-Unterrath|Düsseldorf Flughafen|Angermund|Duisburg-Rahm|Duisburg-Großenbaum|Duisburg-Buchholz|Duisburg-Schlenk|Duisburg Hbf|Mülheim(Ruhr)Styrum|Mülheim(Ruhr)Hbf|Essen West|Essen Hbf|Essen-Steele|Essen-Steele Ost|Essen-Eiberg|Wattenscheid-Höntrop|Bochum-Ehrenfeld|Bochum Hbf|Bochum-Langendreer West|Bochum-Langendreer|Dortmund-Kley|Dortmund-Oespel|Dortmund Universität,8004230,4,Dortmund-Dorstfeld Süd,Nordrhein-Westfalen,Dortmund,44149,7.420017,51.500632,2024-07-12 03:00:00,2024-07-12 03:01:00,2024-07-12 03:03:00,2024-07-12 03:03:00,3,2,Bauarbeiten. (Quelle: zuginfo.nrw)
127,-5761135966346571235-2407120317-5,1,Hamm(Westf)Hbf|Bönen-Nordbögge|Kamen|Kamen-Methler,8001537,4,Dortmund-Kurl,Nordrhein-Westfalen,Dortmund,44319,7.585291,51.556979,2024-07-12 03:34:00,2024-07-12 03:35:00,2024-07-12 03:34:00,2024-07-12 03:35:00,0,0,
128,-5761135966346571235-2407120317-6,1,Hamm(Westf)Hbf|Bönen-Nordbögge|Kamen|Kamen-Methler|Dortmund-Kurl,8001515,5,Dortmund-Scharnhorst,Nordrhein-Westfalen,Dortmund,44328,7.536564,51.538373,2024-07-12 03:38:00,2024-07-12 03:38:00,2024-07-12 03:38:00,2024-07-12 03:38:00,0,0,
129,-8745930355234119378-2407120033-4,,Berlin Hbf|Berlin Ostbahnhof|Dresden-Neustadt,8010085,1,Dresden Hbf,Sachsen,Dresden,1069,13.732035,51.040563,2024-07-12 02:53:00,2024-07-12 03:01:00,2024-07-12 02:53:00,2024-07-12 03:02:00,0,1,Information
130,6922614967570009295-2407120330-1,3,,8010085,1,Dresden Hbf,Sachsen,Dresden,1069,13.732035,51.040563,,2024-07-12 03:30:00,,2024-07-12 03:30:00,0,0,
131,-3539849397710705080-2407120355-1,RB60,,8010085,1,Dresden Hbf,Sachsen,Dresden,1069,13.732035,51.040563,,2024-07-12 03:55:00,,2024-07-12 03:55:00,0,0,
132,-3539849397710705080-2407120355-2,RB60,Dresden Hbf,8013444,4,Dresden Mitte,Sachsen,Dresden,1067,13.724109,51.056168,2024-07-12 03:57:00,2024-07-12 03:58:00,2024-07-12 03:57:00,2024-07-12 03:58:00,0,0,
133,6922614967570009295-2407120330-2,3,Dresden Hbf,8013476,5,Dresden-Plauen,Sachsen,Dresden,1187,13.70317,51.02963,2024-07-12 03:34:00,2024-07-12 03:35:00,2024-07-12 03:34:00,2024-07-12 03:35:00,0,0,
134,1857411337300333873-2407120328-4,1,Rödermark-Ober Roden|Rodgau-Rollwald|Rodgau-Nieder Roden,8001567,5,Rodgau-Dudenhofen,Hessen,Rodgau-Dudenhofen (b Offe,63110,8.884482,50.010661,2024-07-12 03:35:00,2024-07-12 03:36:00,2024-07-12 03:35:00,2024-07-12 03:36:00,0,0,
135,3648612567491980959-2407120307-3,73,Saarbrücken Hbf|Jägersfreude,8001570,5,Dudweiler,Saarland,Saarbrücken,66125,7.027351,49.277299,2024-07-12 03:13:00,2024-07-12 03:13:00,2024-07-12 03:13:00,2024-07-12 03:13:00,0,0,
136,1025611722263176185-2407120303-6,3,Dortmund Hbf|Wanne-Eickel Hbf|Gelsenkirchen Hbf|Essen-Altenessen|Oberhausen Hbf,8000086,1,Duisburg Hbf,Nordrhein-Westfalen,Duisburg,47051,6.775903,51.429785,2024-07-12 03:50:00,2024-07-12 03:53:00,,,0,0,Störung. (Quelle: zuginfo.nrw)
137,-6058665356135913865-2407120209-16,2,Münster(Westf)Hbf|Münster-Albachten|Senden-Bösensell|Nottuln-Appelhülsen|Buldern|Dülmen|Sythen|Haltern am See|Marl-Sinsen|Recklinghausen Hbf|Recklinghausen Süd|Wanne-Eickel Hbf|Gelsenkirchen Hbf|Essen Hbf|Mülheim(Ruhr)Hbf,8000086,1,Duisburg Hbf,Nordrhein-Westfalen,Duisburg,47051,6.775903,51.429785,2024-07-12 03:34:00,2024-07-12 03:36:00,2024-07-12 03:34:00,2024-07-12 03:36:00,0,0,
138,-7957821270062947808-2407120336-6,1,Essen Hbf|Essen West|Essen-Frohnhausen|Mülheim(Ruhr)Hbf|Mülheim(Ruhr)Styrum,8000086,1,Duisburg Hbf,Nordrhein-Westfalen,Duisburg,47051,6.775903,51.429785,2024-07-12 03:54:00,2024-07-12 03:55:00,,,0,0,Information. (Quelle: zuginfo.nrw)
139,-2850536344288765402-2407120245-6,1,Dortmund Hbf|Bochum Hbf|Wattenscheid|Essen Hbf|Mülheim(Ruhr)Hbf,8000086,1,Duisburg Hbf,Nordrhein-Westfalen,Duisburg,47051,6.775903,51.429785,2024-07-12 03:21:00,2024-07-12 03:23:00,,,0,0,
140,-7957821270062947808-2407120336-7,1,Essen Hbf|Essen West|Essen-Frohnhausen|Mülheim(Ruhr)Hbf|Mülheim(Ruhr)Styrum|Duisburg Hbf,8001596,5,Duisburg Schlenk,Nordrhein-Westfalen,Duisburg,47055,6.773206,51.401781,2024-07-12 03:57:00,2024-07-12 03:58:00,,,0,0,Information. (Quelle: zuginfo.nrw)
141,-6460516812909385421-2407120337-9,1,Düsseldorf Hbf|Düsseldorf Wehrhahn|Düsseldorf-Zoo|Düsseldorf-Derendorf|Düsseldorf-Unterrath|Düsseldorf Flughafen|Angermund|Duisburg-Rahm,8001602,4,Duisburg-Großenbaum,Nordrhein-Westfalen,Duisburg,47269,6.77747,51.364774,2024-07-12 03:56:00,2024-07-12 03:58:00,,,0,0,Bauarbeiten. (Quelle: zuginfo.nrw)
142,-6460516812909385421-2407120337-8,1,Düsseldorf Hbf|Düsseldorf Wehrhahn|Düsseldorf-Zoo|Düsseldorf-Derendorf|Düsseldorf-Unterrath|Düsseldorf Flughafen|Angermund,8001609,5,Duisburg-Rahm,Nordrhein-Westfalen,Duisburg,47269,6.779924,51.346835,2024-07-12 03:54:00,2024-07-12 03:54:00,,,0,0,Bauarbeiten. (Quelle: zuginfo.nrw)
143,-5397583228103808993-2407120316-6,19,Aachen Hbf|Aachen-Rothe Erde|Stolberg(Rheinl)Hbf|Eschweiler Hbf|Langerwehe,8000084,3,Düren,Nordrhein-Westfalen,Düren,52351,6.482451,50.809517,2024-07-12 03:44:00,2024-07-12 03:45:00,2024-07-12 03:44:00,2024-07-12 03:45:00,0,0,Bauarbeiten. (Quelle: zuginfo.nrw)
144,-1251565744844871983-2407120236-6,19,Aachen Hbf|Aachen-Rothe Erde|Stolberg(Rheinl)Hbf|Eschweiler Hbf|Langerwehe,8000084,3,Düren,Nordrhein-Westfalen,Düren,52351,6.482451,50.809517,2024-07-12 03:04:00,2024-07-12 03:05:00,2024-07-12 03:04:00,2024-07-12 03:06:00,0,1,Bauarbeiten. (Quelle: zuginfo.nrw)
145,-3350829285278508323-2407120324-5,,Horrem|Sindorf|Buir|Merzenich,8000084,3,Düren,Nordrhein-Westfalen,Düren,52351,6.482451,50.809517,2024-07-12 03:41:00,,2024-07-12 03:41:00,,0,0,Bauarbeiten. (Quelle: zuginfo.nrw)
146,8446536631229204539-2407120346-5,6,Langenfeld(Rhld)|Langenfeld(Rhld)-Berghausen|Düsseldorf-Hellerhof|Düsseldorf-Garath,8001584,3,Düsseldorf-Benrath,Nordrhein-Westfalen,Düsseldorf,40597,6.878931,51.162293,2024-07-12 03:56:00,2024-07-12 03:56:00,,,0,0,Störung. (Quelle: zuginfo.nrw)
147,-2850536344288765402-2407120245-9,1,Dortmund Hbf|Bochum Hbf|Wattenscheid|Essen Hbf|Mülheim(Ruhr)Hbf|Duisburg Hbf|Düsseldorf Flughafen|Düsseldorf Hbf,8001584,3,Düsseldorf-Benrath,Nordrhein-Westfalen,Düsseldorf,40597,6.878931,51.162293,2024-07-12 03:45:00,2024-07-12 03:46:00,,,0,0,
148,-6058665356135913865-2407120209-17,2,Münster(Westf)Hbf|Münster-Albachten|Senden-Bösensell|Nottuln-Appelhülsen|Buldern|Dülmen|Sythen|Haltern am See|Marl-Sinsen|Recklinghausen Hbf|Recklinghausen Süd|Wanne-Eickel Hbf|Gelsenkirchen Hbf|Essen Hbf|Mülheim(Ruhr)Hbf|Duisburg Hbf,8000082,3,Düsseldorf Flughafen,Nordrhein-Westfalen,Düsseldorf,40474,6.786836,51.292009,2024-07-12 03:45:00,2024-07-12 03:46:00,2024-07-12 03:45:00,2024-07-12 03:47:00,0,1,
149,-6460516812909385421-2407120337-6,1,Düsseldorf Hbf|Düsseldorf Wehrhahn|Düsseldorf-Zoo|Düsseldorf-Derendorf|Düsseldorf-Unterrath,8000082,3,Düsseldorf Flughafen,Nordrhein-Westfalen,Düsseldorf,40474,6.786836,51.292009,2024-07-12 03:48:00,2024-07-12 03:48:00,,,0,0,Bauarbeiten. (Quelle: zuginfo.nrw)
150,-2850536344288765402-2407120245-7,1,Dortmund Hbf|Bochum Hbf|Wattenscheid|Essen Hbf|Mülheim(Ruhr)Hbf|Duisburg Hbf,8000082,3,Düsseldorf Flughafen,Nordrhein-Westfalen,Düsseldorf,40474,6.786836,51.292009,2024-07-12 03:31:00,2024-07-12 03:32:00,,,0,0,
151,-6058665356135913865-2407120209-18,,Münster(Westf)Hbf|Münster-Albachten|Senden-Bösensell|Nottuln-Appelhülsen|Buldern|Dülmen|Sythen|Haltern am See|Marl-Sinsen|Recklinghausen Hbf|Recklinghausen Süd|Wanne-Eickel Hbf|Gelsenkirchen Hbf|Essen Hbf|Mülheim(Ruhr)Hbf|Duisburg Hbf|Düsseldorf Flughafen,8000085,1,Düsseldorf Hbf,Nordrhein-Westfalen,Düsseldorf,40210,6.794319,51.219962,2024-07-12 03:53:00,,2024-07-12 03:53:00,,0,0,
152,7052633517207750651-2407112339-5,,Stuttgart Hbf|Frankfurt(M) Flughafen Fernbf|Köln Messe/Deutz|Köln Hbf,8000085,1,Düsseldorf Hbf,Nordrhein-Westfalen,Düsseldorf,40210,6.794319,51.219962,2024-07-12 03:12:00,,2024-07-12 03:08:00,,-4,0,Information
153,3646559143861574448-2407120313-1,6,,8000085,1,Düsseldorf Hbf,Nordrhein-Westfalen,Düsseldorf,40210,6.794319,51.219962,,2024-07-12 03:13:00,,2024-07-12 03:13:00,0,0,
154,-6460516812909385421-2407120337-1,1,,8000085,1,Düsseldorf Hbf,Nordrhein-Westfalen,Düsseldorf,40210,6.794319,51.219962,,2024-07-12 03:37:00,,,0,0,Bauarbeiten. (Quelle: zuginfo.nrw)
155,-6148792718782100272-2407120224-9,,Solingen Hbf|Solingen Vogelpark|Hilden Süd|Hilden|Düsseldorf-Eller|Düsseldorf-Eller Mitte|Düsseldorf-Oberbilk|Düsseldorf Volksgarten,8000085,1,Düsseldorf Hbf,Nordrhein-Westfalen,Düsseldorf,40210,6.794319,51.219962,2024-07-12 03:27:00,,,,0,0,
156,-2850536344288765402-2407120245-8,1,Dortmund Hbf|Bochum Hbf|Wattenscheid|Essen Hbf|Mülheim(Ruhr)Hbf|Duisburg Hbf|Düsseldorf Flughafen,8000085,1,Düsseldorf Hbf,Nordrhein-Westfalen,Düsseldorf,40210,6.794319,51.219962,2024-07-12 03:38:00,2024-07-12 03:40:00,,,0,0,
157,-7077376547267783966-2407120216-26,,Hagen Hbf|Hagen-Wehringhausen|Hagen-Heubing|Hagen-Westerbauer|Gevelsberg-Knapp|Gevelsberg Hbf|Gevelsberg-Kipp|Gevelsberg West|Schwelm|Schwelm West|Wuppertal-Langerfeld|Wuppertal-Oberbarmen|Wuppertal-Barmen|Wuppertal-Unterbarmen|Wuppertal Hbf|Wuppertal-Steinbeck|Wuppertal-Zoologischer Garten|Wuppertal-Sonnborn|Wuppertal-Vohwinkel|Haan-Gruiten|Hochdahl-Millrath|Hochdahl|Erkrath|Düsseldorf-Gerresheim|Düsseldorf-Flingern,8000085,1,Düsseldorf Hbf,Nordrhein-Westfalen,Düsseldorf,40210,6.794319,51.219962,2024-07-12 03:30:00,,2024-07-12 03:31:00,,1,0,Information. (Quelle: zuginfo.nrw)
158,-4964921095657007412-2407120335-1,8,,8000085,1,Düsseldorf Hbf,Nordrhein-Westfalen,Düsseldorf,40210,6.794319,51.219962,,2024-07-12 03:35:00,,,0,0,Information. (Quelle: zuginfo.nrw)
159,-6148792718782100272-2407120224-8,S1,Solingen Hbf|Solingen Vogelpark|Hilden Süd|Hilden|Düsseldorf-Eller|Düsseldorf-Eller Mitte|Düsseldorf-Oberbilk,8001581,5,Düsseldorf Volksgarten,Nordrhein-Westfalen,Düsseldorf,40227,6.791978,51.210138,2024-07-12 03:22:00,2024-07-12 03:22:00,,,0,0,
160,-6460516812909385421-2407120337-2,1,Düsseldorf Hbf,8001582,4,Düsseldorf Wehrhahn,Nordrhein-Westfalen,Düsseldorf,40211,6.798173,51.228447,2024-07-12 03:38:00,2024-07-12 03:39:00,,,0,0,Bauarbeiten. (Quelle: zuginfo.nrw)
161,-6460516812909385421-2407120337-3,1,Düsseldorf Hbf|Düsseldorf Wehrhahn,8001583,4,Düsseldorf Zoo,Nordrhein-Westfalen,Düsseldorf,40211,6.796924,51.236962,2024-07-12 03:40:00,2024-07-12 03:41:00,,,0,0,Bauarbeiten. (Quelle: zuginfo.nrw)
162,3646559143861574448-2407120313-2,6,Düsseldorf Hbf,8001585,4,Düsseldorf-Bilk,Nordrhein-Westfalen,Düsseldorf,40217,6.775578,51.207994,2024-07-12 03:15:00,2024-07-12 03:16:00,2024-07-12 03:15:00,2024-07-12 03:16:00,0,0,
163,-6460516812909385421-2407120337-4,1,Düsseldorf Hbf|Düsseldorf Wehrhahn|Düsseldorf-Zoo,8001586,3,Düsseldorf-Derendorf,Nordrhein-Westfalen,Düsseldorf,40470,6.794512,51.247624,2024-07-12 03:42:00,2024-07-12 03:43:00,,,0,0,Bauarbeiten. (Quelle: zuginfo.nrw)
164,-6148792718782100272-2407120224-5,S1,Solingen Hbf|Solingen Vogelpark|Hilden Süd|Hilden,8001587,5,Düsseldorf-Eller,Nordrhein-Westfalen,Düsseldorf,40627,6.851927,51.20267,2024-07-12 03:07:00,2024-07-12 03:07:00,,,0,0,
165,-6148792718782100272-2407120224-6,S1,Solingen Hbf|Solingen Vogelpark|Hilden Süd|Hilden|Düsseldorf-Eller,8001308,5,Düsseldorf-Eller Mitte,Nordrhein-Westfalen,Düsseldorf,40229,6.838607,51.202058,2024-07-12 03:12:00,2024-07-12 03:12:00,,,0,0,
166,-7077376547267783966-2407120216-25,8,Hagen Hbf|Hagen-Wehringhausen|Hagen-Heubing|Hagen-Westerbauer|Gevelsberg-Knapp|Gevelsberg Hbf|Gevelsberg-Kipp|Gevelsberg West|Schwelm|Schwelm West|Wuppertal-Langerfeld|Wuppertal-Oberbarmen|Wuppertal-Barmen|Wuppertal-Unterbarmen|Wuppertal Hbf|Wuppertal-Steinbeck|Wuppertal-Zoologischer Garten|Wuppertal-Sonnborn|Wuppertal-Vohwinkel|Haan-Gruiten|Hochdahl-Millrath|Hochdahl|Erkrath|Düsseldorf-Gerresheim,8001598,5,Düsseldorf-Flingern,Nordrhein-Westfalen,Düsseldorf,40235,6.81028426,51.2262413,2024-07-12 03:27:00,2024-07-12 03:28:00,2024-07-12 03:28:00,2024-07-12 03:29:00,1,1,Information. (Quelle: zuginfo.nrw)
167,8446536631229204539-2407120346-4,6,Langenfeld(Rhld)|Langenfeld(Rhld)-Berghausen|Düsseldorf-Hellerhof,8001589,5,Düsseldorf-Garath,Nordrhein-Westfalen,Düsseldorf,40595,6.897675,51.143626,2024-07-12 03:53:00,2024-07-12 03:53:00,,,0,0,Störung. (Quelle: zuginfo.nrw)
168,-7077376547267783966-2407120216-24,8,Hagen Hbf|Hagen-Wehringhausen|Hagen-Heubing|Hagen-Westerbauer|Gevelsberg-Knapp|Gevelsberg Hbf|Gevelsberg-Kipp|Gevelsberg West|Schwelm|Schwelm West|Wuppertal-Langerfeld|Wuppertal-Oberbarmen|Wuppertal-Barmen|Wuppertal-Unterbarmen|Wuppertal Hbf|Wuppertal-Steinbeck|Wuppertal-Zoologischer Garten|Wuppertal-Sonnborn|Wuppertal-Vohwinkel|Haan-Gruiten|Hochdahl-Millrath|Hochdahl|Erkrath,8001590,5,Düsseldorf-Gerresheim,Nordrhein-Westfalen,Düsseldorf,40625,6.863933,51.220361,2024-07-12 03:23:00,2024-07-12 03:24:00,2024-07-12 03:23:00,2024-07-12 03:25:00,0,1,Information. (Quelle: zuginfo.nrw)
169,8446536631229204539-2407120346-3,6,Langenfeld(Rhld)|Langenfeld(Rhld)-Berghausen,8004920,5,Düsseldorf-Hellerhof,Nordrhein-Westfalen,Düsseldorf,40595,6.908277,51.133036,2024-07-12 03:51:00,2024-07-12 03:51:00,,,0,0,Störung. (Quelle: zuginfo.nrw)
170,-6148792718782100272-2407120224-7,S1,Solingen Hbf|Solingen Vogelpark|Hilden Süd|Hilden|Düsseldorf-Eller|Düsseldorf-Eller Mitte,8001591,5,Düsseldorf-Oberbilk,Nordrhein-Westfalen,Düsseldorf,40591,6.808678,51.208047,2024-07-12 03:17:00,2024-07-12 03:17:00,,,0,0,
171,8446536631229204539-2407120346-6,6,Langenfeld(Rhld)|Langenfeld(Rhld)-Berghausen|Düsseldorf-Hellerhof|Düsseldorf-Garath|Düsseldorf-Benrath,8001594,4,Düsseldorf-Reisholz,Nordrhein-Westfalen,Düsseldorf,40599,6.860953,51.180782,2024-07-12 03:58:00,2024-07-12 03:59:00,,,0,0,Störung. (Quelle: zuginfo.nrw)
172,-6460516812909385421-2407120337-5,1,Düsseldorf Hbf|Düsseldorf Wehrhahn|Düsseldorf-Zoo|Düsseldorf-Derendorf,8001595,4,Düsseldorf-Unterrath,Nordrhein-Westfalen,Düsseldorf,40468,6.788783,51.276732,2024-07-12 03:45:00,2024-07-12 03:46:00,,,0,0,Bauarbeiten. (Quelle: zuginfo.nrw)
173,-3623794154046630099-2407120353-1,63,,8010093,3,Eberswalde Hbf,Brandenburg,Eberswalde,16225,13.797062,52.834021,,2024-07-12 03:53:00,,,0,0,
174,-7620500510844558750-2407120359-1,62,,8010093,3,Eberswalde Hbf,Brandenburg,Eberswalde,16225,13.797062,52.834021,,2024-07-12 03:59:00,,,0,0,
175,5299446454939444539-2407120356-1,60,,8010093,3,Eberswalde Hbf,Brandenburg,Eberswalde,16225,13.797062,52.834021,,2024-07-12 03:56:00,,,0,0,
176,5165487457649339724-2407120335-6,1,Wiesbaden Hbf|Wiesbaden Ost|Mainz-Kastel|Hochheim(Main)|Flörsheim(Main),8001659,5,Eddersheim,Hessen,Hattersheim am Main,65795,8.456741,50.039492,2024-07-12 03:55:00,2024-07-12 03:55:00,,,0,0,
177,-1250569488410439385-2407120335-5,3,Darmstadt Hbf|Darmstadt-Arheilgen|Darmstadt-Wixhausen|Erzhausen,8001672,5,Egelsbach,Hessen,Egelsbach,63329,8.6536324,49.9691127,2024-07-12 03:46:00,2024-07-12 03:46:00,,,0,0,
178,-6554056229928634067-2407120319-5,22,Regensburg Hbf|Obertraubling|Köfering|Hagelstadt,8001679,5,Eggmühl,Bayern,Schierling,84069,12.182192,48.836497,2024-07-12 03:38:00,2024-07-12 03:38:00,2024-07-12 03:38:00,2024-07-12 03:39:00,0,1,
179,7424620180588501428-2407120359-1,20,,8010097,3,Eisenach,Thüringen,Eisenach,99817,10.331986,50.976922,,2024-07-12 03:59:00,,2024-07-12 03:59:00,0,0,
180,5320445485425096447-2407120349-1,EV,,8010097,3,Eisenach,Thüringen,Eisenach,99817,10.331986,50.976922,,2024-07-12 03:49:00,,2024-07-12 03:49:00,0,0,Information
181,-5967924537871298080-2407120314-6,70,Kiel Hbf|Bordesholm|Neumünster|Brokstedt|Wrist,8000092,3,Elmshorn,Schleswig-Holstein,Elmshorn,25335,9.659408,53.754025,2024-07-12 03:59:00,2024-07-12 04:00:00,2024-07-12 03:59:00,2024-07-12 04:01:00,0,1,
182,-5364253239316331542-2407120330-5,,Hamburg-Altona|Pinneberg|Prisdorf|Tornesch,8000092,3,Elmshorn,Schleswig-Holstein,Elmshorn,25335,9.659408,53.754025,2024-07-12 03:53:00,,2024-07-12 03:53:00,,0,0,
183,1961181705396261168-2407111959-10,,Zürich HB|Basel SBB|Basel Bad Bf|Freiburg(Breisgau) Hbf|Offenburg|Karlsruhe Hbf|Mannheim Hbf|Frankfurt(Main)Hbf|Fulda,8010101,2,Erfurt Hbf,Thüringen,Erfurt,99084,11.0379928,50.9723561,2024-07-12 03:25:00,2024-07-12 03:27:00,2024-07-12 03:26:00,2024-07-12 03:29:00,1,2,
184,-2494453527783146128-2407111959-10,,Zürich HB|Basel SBB|Basel Bad Bf|Freiburg(Breisgau) Hbf|Offenburg|Karlsruhe Hbf|Mannheim Hbf|Frankfurt(Main)Hbf|Fulda,8010101,2,Erfurt Hbf,Thüringen,Erfurt,99084,11.0379928,50.9723561,2024-07-12 03:25:00,2024-07-12 03:27:00,2024-07-12 03:26:00,2024-07-12 03:29:00,1,2,
185,2116822086564594631-2407120009-8,,Berlin Gesundbrunnen|Berlin Hbf|Berlin Südkreuz|Lutherstadt Wittenberg Hbf|Bitterfeld|Halle(Saale)Hbf|Leipzig Hbf,8010101,2,Erfurt Hbf,Thüringen,Erfurt,99084,11.0379928,50.9723561,2024-07-12 03:25:00,2024-07-12 03:57:00,2024-07-12 03:26:00,2024-07-12 04:00:00,1,3,Bauarbeiten
186,2452490716313299869-2407120021-6,,München Hbf|Nürnberg Hbf|Erlangen|Bamberg|Coburg,8010101,2,Erfurt Hbf,Thüringen,Erfurt,99084,11.0379928,50.9723561,2024-07-12 03:07:00,2024-07-12 03:09:00,2024-07-12 03:08:00,2024-07-12 03:10:00,1,1,
187,7016804452829305661-2407111959-10,,Zürich HB|Basel SBB|Basel Bad Bf|Freiburg(Breisgau) Hbf|Offenburg|Karlsruhe Hbf|Mannheim Hbf|Frankfurt(Main)Hbf|Fulda,8010101,2,Erfurt Hbf,Thüringen,Erfurt,99084,11.0379928,50.9723561,2024-07-12 03:25:00,2024-07-12 03:27:00,2024-07-12 03:26:00,2024-07-12 03:29:00,1,2,
188,5981134875112714787-2407111959-10,,Zürich HB|Basel SBB|Basel Bad Bf|Freiburg(Breisgau) Hbf|Offenburg|Karlsruhe Hbf|Mannheim Hbf|Frankfurt(Main)Hbf|Fulda,8010101,2,Erfurt Hbf,Thüringen,Erfurt,99084,11.0379928,50.9723561,2024-07-12 03:25:00,2024-07-12 03:27:00,2024-07-12 03:26:00,2024-07-12 03:29:00,1,2,
189,-6554056229928634067-2407120319-7,22,Regensburg Hbf|Obertraubling|Köfering|Hagelstadt|Eggmühl|Neufahrn(Niederbay),8001835,5,Ergoldsbach,Bayern,Ergoldsbach,84061,12.201874,48.693868,2024-07-12 03:51:00,2024-07-12 03:51:00,2024-07-12 03:51:00,2024-07-12 03:52:00,0,1,
190,-1623994736072630433-2407120253-9,4,Aachen Hbf|Aachen Schanz|Aachen West|Herzogenrath|Übach-Palenberg|Geilenkirchen|Lindern|Hückelhoven-Baal,8001839,4,Erkelenz,Nordrhein-Westfalen,Erkelenz,41812,6.32163405,51.0765972,2024-07-12 03:33:00,2024-07-12 03:34:00,2024-07-12 03:33:00,2024-07-12 03:34:00,0,0,
191,-7077376547267783966-2407120216-23,8,Hagen Hbf|Hagen-Wehringhausen|Hagen-Heubing|Hagen-Westerbauer|Gevelsberg-Knapp|Gevelsberg Hbf|Gevelsberg-Kipp|Gevelsberg West|Schwelm|Schwelm West|Wuppertal-Langerfeld|Wuppertal-Oberbarmen|Wuppertal-Barmen|Wuppertal-Unterbarmen|Wuppertal Hbf|Wuppertal-Steinbeck|Wuppertal-Zoologischer Garten|Wuppertal-Sonnborn|Wuppertal-Vohwinkel|Haan-Gruiten|Hochdahl-Millrath|Hochdahl,8001841,5,Erkrath,Nordrhein-Westfalen,Erkrath,40699,6.902412,51.220458,2024-07-12 03:19:00,2024-07-12 03:20:00,2024-07-12 03:19:00,2024-07-12 03:21:00,0,1,Information. (Quelle: zuginfo.nrw)
192,5345924912571245273-2407112134-15,,Hamburg-Altona|Hamburg Dammtor|Hamburg Hbf|Büchen|Ludwigslust|Wittenberge|Berlin-Spandau|Berlin Hbf|Berlin Südkreuz|Lutherstadt Wittenberg Hbf|Leipzig Hbf|Erfurt Hbf|Coburg|Bamberg,8001844,3,Erlangen,Bayern,Erlangen,91054,11.0016382,49.5958303,2024-07-12 03:36:00,2024-07-12 03:38:00,2024-07-12 03:36:00,2024-07-12 03:38:00,0,0,Information
193,-1250569488410439385-2407120335-4,3,Darmstadt Hbf|Darmstadt-Arheilgen|Darmstadt-Wixhausen,8001864,4,Erzhausen,Hessen,Erzhausen,64390,8.65099311,49.9508678,2024-07-12 03:43:00,2024-07-12 03:44:00,,,0,0,
194,155992079699948133-2407120345-6,3,Bad Soden(Taunus)|Sulzbach(Taunus)Nord|Schwalbach(Taunus)Limes|Schwalbach(Taunus)Nord|Niederhöchstadt,8001870,5,Eschborn,Hessen,Eschborn,65760,8.560971,50.143618,2024-07-12 03:55:00,2024-07-12 03:56:00,,,0,0,
195,155992079699948133-2407120345-7,3,Bad Soden(Taunus)|Sulzbach(Taunus)Nord|Schwalbach(Taunus)Limes|Schwalbach(Taunus)Nord|Niederhöchstadt|Eschborn,8001871,5,Eschborn Süd,Hessen,Eschborn,65760,8.578487,50.133563,2024-07-12 03:58:00,2024-07-12 03:58:00,,,0,0,
196,-5397583228103808993-2407120316-4,19,Aachen Hbf|Aachen-Rothe Erde|Stolberg(Rheinl)Hbf,8001886,4,Eschweiler Hbf,Nordrhein-Westfalen,Eschweiler,52249,6.251937,50.813532,2024-07-12 03:32:00,2024-07-12 03:32:00,2024-07-12 03:31:00,2024-07-12 03:32:00,-1,0,Bauarbeiten. (Quelle: zuginfo.nrw)
197,3839062782000571422-2407120151-12,,Düsseldorf-Unterrath|Düsseldorf-Rath Mitte|Düsseldorf-Rath|Ratingen Ost|Hösel|Kettwig Stausee|Kettwig|Essen-Werden|Essen-Hügel|Essen Stadtwald|Essen Süd,8000098,1,Essen Hbf,Nordrhein-Westfalen,Essen,45127,7.014793,51.451355,2024-07-12 03:11:00,,2024-07-12 03:11:00,,0,0,
198,-6058665356135913865-2407120209-14,2,Münster(Westf)Hbf|Münster-Albachten|Senden-Bösensell|Nottuln-Appelhülsen|Buldern|Dülmen|Sythen|Haltern am See|Marl-Sinsen|Recklinghausen Hbf|Recklinghausen Süd|Wanne-Eickel Hbf|Gelsenkirchen Hbf,8000098,1,Essen Hbf,Nordrhein-Westfalen,Essen,45127,7.014793,51.451355,2024-07-12 03:19:00,2024-07-12 03:21:00,2024-07-12 03:19:00,2024-07-12 03:21:00,0,0,
199,4584806807655155350-2407120217-14,,Dortmund Hbf|Dortmund-Dorstfeld|Dortmund-Wischlingen|Dortmund-Huckarde|Dortmund-Westerfilde|Dortmund-Nette/Oestrich|Dortmund-Mengede|Castrop-Rauxel Hbf|Herne|Wanne-Eickel Hbf|Gelsenkirchen Hbf|Gelsenkirchen-Rotthausen|Essen-Kray Nord,8000098,1,Essen Hbf,Nordrhein-Westfalen,Essen,45127,7.014793,51.451355,2024-07-12 03:06:00,,2024-07-12 03:05:00,,-1,0,Bauarbeiten. (Quelle: zuginfo.nrw)
200,8503777394879306018-2407112324-12,,Frankfurt(Main)Hbf|Frankfurt(M) Flughafen Fernbf|Mainz Hbf|Bingen(Rhein) Hbf|Koblenz Hbf|Remagen|Bonn Hbf|Köln Hbf|Düsseldorf Hbf|Düsseldorf Flughafen|Duisburg Hbf,8000098,1,Essen Hbf,Nordrhein-Westfalen,Essen,45127,7.014793,51.451355,2024-07-12 03:03:00,2024-07-12 03:05:00,2024-07-12 03:09:00,2024-07-12 03:11:00,6,6,Information
201,-7392083881617593822-2407120356-1,2,,8000098,1,Essen Hbf,Nordrhein-Westfalen,Essen,45127,7.014793,51.451355,,2024-07-12 03:56:00,,,0,0,Bauarbeiten. (Quelle: zuginfo.nrw)
202,-7957821270062947808-2407120336-1,1,,8000098,1,Essen Hbf,Nordrhein-Westfalen,Essen,45127,7.014793,51.451355,,2024-07-12 03:36:00,,,0,0,Information. (Quelle: zuginfo.nrw)
203,-2850536344288765402-2407120245-4,1,Dortmund Hbf|Bochum Hbf|Wattenscheid,8000098,1,Essen Hbf,Nordrhein-Westfalen,Essen,45127,7.014793,51.451355,2024-07-12 03:07:00,2024-07-12 03:09:00,,,0,0,
204,3839062782000571422-2407120151-11,S6,Düsseldorf-Unterrath|Düsseldorf-Rath Mitte|Düsseldorf-Rath|Ratingen Ost|Hösel|Kettwig Stausee|Kettwig|Essen-Werden|Essen-Hügel|Essen Stadtwald,8001897,5,Essen Süd,Nordrhein-Westfalen,Essen,45136,7.023098,51.439295,2024-07-12 03:01:00,2024-07-12 03:01:00,2024-07-12 03:01:00,2024-07-12 03:01:00,0,0,
205,-7957821270062947808-2407120336-2,1,Essen Hbf,8001898,4,Essen West,Nordrhein-Westfalen,Essen,45144,6.979798,51.454497,2024-07-12 03:38:00,2024-07-12 03:39:00,,,0,0,Information. (Quelle: zuginfo.nrw)
206,1025611722263176185-2407120303-4,3,Dortmund Hbf|Wanne-Eickel Hbf|Gelsenkirchen Hbf,8001900,5,Essen-Altenessen,Nordrhein-Westfalen,Essen,45326,7.007252,51.48437,2024-07-12 03:34:00,2024-07-12 03:35:00,,,0,0,Störung. (Quelle: zuginfo.nrw)
207,-7957821270062947808-2407120336-3,1,Essen Hbf|Essen West,8001906,4,Essen-Frohnhausen,Nordrhein-Westfalen,Essen,45144,6.965285,51.455113,2024-07-12 03:40:00,2024-07-12 03:41:00,,,0,0,Information. (Quelle: zuginfo.nrw)
208,4693049160569863660-2407120353-3,1,Plochingen|Altbach,8006642,3,Esslingen-Zell,Baden-Württemberg,Esslingen am Neckar,73730,9.359389,48.724328,2024-07-12 03:57:00,2024-07-12 03:57:00,,,0,0,Information
209,9028835664419339994-2407120348-1,43,,8010103,3,Falkenberg (Elster),Brandenburg,Falkenberg (Elster),4895,13.247685,51.58362,,2024-07-12 03:48:00,,,0,0,
210,6008261741926408807-2407112359-6,,Koebenhavn H|Ringsted st|Odense st|Kolding st|Padborg st,8000103,3,Flensburg,Schleswig-Holstein,Flensburg,24937,9.436526,54.774039,2024-07-12 03:37:00,2024-07-12 03:49:00,2024-07-12 03:37:00,2024-07-12 03:49:00,0,0,Information
211,5165487457649339724-2407120335-5,1,Wiesbaden Hbf|Wiesbaden Ost|Mainz-Kastel|Hochheim(Main),8002013,4,Flörsheim (Main),Hessen,Flörsheim (Main),65439,8.431013,50.017211,2024-07-12 03:52:00,2024-07-12 03:52:00,2024-07-12 03:51:00,2024-07-12 03:52:00,-1,0,
212,-869553568704520980-2407120305-13,9,Berlin Alexanderplatz (S)|Berlin Jannowitzbrücke|Berlin Ostbahnhof (S)|Berlin Warschauer Straße|Berlin Treptower Park|Berlin Plänterwald|Berlin Baumschulenweg|Berlin-Schöneweide (S)|Berlin-Johannisthal|Berlin-Adlershof|Berlin-Altglienicke|Berlin Grünbergallee,8010109,3,Schönefeld (bei Berlin),Brandenburg,Schönefeld,12527,13.51271,52.391062,2024-07-12 03:37:00,2024-07-12 03:37:00,2024-07-12 03:37:00,2024-07-12 03:37:00,0,0,
213,2333085653073913730-2407120358-1,9,,8010109,3,Schönefeld (bei Berlin),Brandenburg,Schönefeld,12527,13.51271,52.391062,,2024-07-12 03:58:00,,,0,0,
214,-4816638915445108312-2407120335-3,,Flughafen BER (S-Bahn)|Waßmannsdorf,8010109,3,Schönefeld (bei Berlin),Brandenburg,Schönefeld,12527,13.51271,52.391062,2024-07-12 03:43:00,,,,0,0,
215,7265579896316843783-2407120302-21,9,Berlin Charlottenburg (S)|Berlin Savignyplatz|Berlin Zoologischer Garten (S)|Berlin-Tiergarten|Berlin Bellevue|Berlin Hbf (S-Bahn)|Berlin Friedrichstraße (S)|Berlin Hackescher Markt|Berlin Alexanderplatz (S)|Berlin Jannowitzbrücke|Berlin Ostbahnhof (S)|Berlin Warschauer Straße|Berlin Treptower Park|Berlin Plänterwald|Berlin Baumschulenweg|Berlin-Schöneweide (S)|Berlin-Johannisthal|Berlin-Adlershof|Berlin-Altglienicke|Berlin Grünbergallee,8010109,3,Schönefeld (bei Berlin),Brandenburg,Schönefeld,12527,13.51271,52.391062,2024-07-12 03:52:00,2024-07-12 03:52:00,2024-07-12 03:52:00,2024-07-12 03:52:00,0,0,
216,-3673936193428388018-2407120303-20,,München-Pasing|München-Laim|München Hirschgarten|München Donnersbergerbrücke|München Hackerbrücke|München Hbf (tief)|München Karlsplatz|München Marienplatz|München Isartor|München Rosenheimer Platz|München Ost|München Leuchtenbergring|München-Daglfing|München-Englschalking|München-Johanneskirchen|Unterföhring|Ismaning|Hallbergmoos|München Flughafen Besucherpark,8004168,4,Flughafen München,Bayern,Oberding,85356,11.78597,48.353728,2024-07-12 03:55:00,,2024-07-12 03:55:00,,0,0,
217,-4321951582378922312-2407120223-20,,München-Pasing|München-Laim|München Hirschgarten|München Donnersbergerbrücke|München Hackerbrücke|München Hbf (tief)|München Karlsplatz|München Marienplatz|München Isartor|München Rosenheimer Platz|München Ost|München Leuchtenbergring|München-Daglfing|München-Englschalking|München-Johanneskirchen|Unterföhring|Ismaning|Hallbergmoos|München Flughafen Besucherpark,8004168,4,Flughafen München,Bayern,Oberding,85356,11.78597,48.353728,2024-07-12 03:15:00,,2024-07-12 03:15:00,,0,0,
218,4316668067973282615-2407120319-5,,Landshut(Bay)Hbf|Moosburg|Freising|München Flughafen Besucherpark,8004168,4,Flughafen München,Bayern,Oberding,85356,11.78597,48.353728,2024-07-12 03:55:00,,2024-07-12 03:54:00,,-1,0,Bauarbeiten
219,-3673936193428388018-2407120303-19,8,München-Pasing|München-Laim|München Hirschgarten|München Donnersbergerbrücke|München Hackerbrücke|München Hbf (tief)|München Karlsplatz|München Marienplatz|München Isartor|München Rosenheimer Platz|München Ost|München Leuchtenbergring|München-Daglfing|München-Englschalking|München-Johanneskirchen|Unterföhring|Ismaning|Hallbergmoos,8004167,4,Flughafen München Besucherpark,Bayern,Freising,85354,11.764185,48.352095,2024-07-12 03:53:00,2024-07-12 03:53:00,2024-07-12 03:53:00,2024-07-12 03:54:00,0,1,
220,-4321951582378922312-2407120223-19,8,München-Pasing|München-Laim|München Hirschgarten|München Donnersbergerbrücke|München Hackerbrücke|München Hbf (tief)|München Karlsplatz|München Marienplatz|München Isartor|München Rosenheimer Platz|München Ost|München Leuchtenbergring|München-Daglfing|München-Englschalking|München-Johanneskirchen|Unterföhring|Ismaning|Hallbergmoos,8004167,4,Flughafen München Besucherpark,Bayern,Freising,85354,11.764185,48.352095,2024-07-12 03:13:00,2024-07-12 03:13:00,2024-07-12 03:13:00,2024-07-12 03:13:00,0,0,
221,4316668067973282615-2407120319-4,22,Landshut(Bay)Hbf|Moosburg|Freising,8004167,4,Flughafen München Besucherpark,Bayern,Freising,85354,11.764185,48.352095,2024-07-12 03:52:00,2024-07-12 03:52:00,2024-07-12 03:52:00,2024-07-12 03:53:00,0,1,Bauarbeiten
222,-5671562569667632750-2407120248-12,8,Wiesbaden Hbf|Wiesbaden Ost|Mainz Nord|Mainz Hbf|Mainz Römisches Theater|Mainz-Gustavsburg|Mainz-Bischofsheim|Rüsselsheim Opelwerk|Rüsselsheim|Raunheim|Kelsterbach,8070004,3,Frankfurt (Main) Flughafen Regionalbahnhof,Hessen,Frankfurt am Main,60549,8.571251,50.051219,2024-07-12 03:28:00,2024-07-12 03:30:00,2024-07-12 03:29:00,2024-07-12 03:30:00,1,0,
223,501314707182108660-2407120254-2,8,Kelsterbach,8070004,3,Frankfurt (Main) Flughafen Regionalbahnhof,Hessen,Frankfurt am Main,60549,8.571251,50.051219,2024-07-12 02:58:00,2024-07-12 03:00:00,2024-07-12 02:58:00,2024-07-12 03:00:00,0,0,
224,8298546341087869344-2407120341-8,9,Frankfurt(M)Konstablerwache|Frankfurt(M)Hauptwache|Frankfurt(M)Taunusanlage|Frankfurt Hbf (tief)|Frankfurt-Niederrad|Frankfurt am Main - Stadion|Frankfurt(Main)-Gateway Gardens,8070004,3,Frankfurt (Main) Flughafen Regionalbahnhof,Hessen,Frankfurt am Main,60549,8.571251,50.051219,2024-07-12 03:58:00,2024-07-12 04:00:00,,,0,0,
225,7465820719902340889-2407120318-12,8,Wiesbaden Hbf|Wiesbaden Ost|Mainz Nord|Mainz Hbf|Mainz Römisches Theater|Mainz-Gustavsburg|Mainz-Bischofsheim|Rüsselsheim Opelwerk|Rüsselsheim|Raunheim|Kelsterbach,8070004,3,Frankfurt (Main) Flughafen Regionalbahnhof,Hessen,Frankfurt am Main,60549,8.571251,50.051219,2024-07-12 03:58:00,2024-07-12 04:00:00,2024-07-12 03:59:00,2024-07-12 04:00:00,1,0,
226,-6082121702503471423-2407120241-8,8,Frankfurt(M)Konstablerwache|Frankfurt(M)Hauptwache|Frankfurt(M)Taunusanlage|Frankfurt Hbf (tief)|Frankfurt-Niederrad|Frankfurt am Main - Stadion|Frankfurt(Main)-Gateway Gardens,8070004,3,Frankfurt (Main) Flughafen Regionalbahnhof,Hessen,Frankfurt am Main,60549,8.571251,50.051219,2024-07-12 02:58:00,2024-07-12 03:00:00,2024-07-12 03:00:00,2024-07-12 03:01:00,2,1,
227,8864827325846342282-2407120246-18,8,Hanau Hbf|Steinheim(Main)|Mühlheim(Main)-Dietesheim|Mühlheim(Main)|Offenbach(Main)Ost|Offenbach(Main) Marktplatz|Offenbach(Main) Ledermuseum|Offenbach(Main) Kaiserlei|Frankfurt(M)Mühlberg|Frankfurt(M)Ostendstraße|Frankfurt(M)Konstablerwache|Frankfurt(M)Hauptwache|Frankfurt(M)Taunusanlage|Frankfurt Hbf (tief)|Frankfurt-Niederrad|Frankfurt am Main - Stadion|Frankfurt(Main)-Gateway Gardens,8070004,3,Frankfurt (Main) Flughafen Regionalbahnhof,Hessen,Frankfurt am Main,60549,8.571251,50.051219,2024-07-12 03:36:00,2024-07-12 03:38:00,2024-07-12 03:35:00,2024-07-12 03:38:00,-1,0,
228,-5671562569667632750-2407120248-21,8,Wiesbaden Hbf|Wiesbaden Ost|Mainz Nord|Mainz Hbf|Mainz Römisches Theater|Mainz-Gustavsburg|Mainz-Bischofsheim|Rüsselsheim Opelwerk|Rüsselsheim|Raunheim|Kelsterbach|Frankfurt(M) Flughafen Regionalbf|Frankfurt(Main)-Gateway Gardens|Frankfurt am Main - Stadion|Frankfurt-Niederrad|Frankfurt Hbf (tief)|Frankfurt(M)Taunusanlage|Frankfurt(M)Hauptwache|Frankfurt(M)Konstablerwache|Frankfurt(M)Ostendstraße,8002034,4,Frankfurt (Main) Mühlberg,Hessen,Frankfurt am Main,60599,8.701504,50.101609,2024-07-12 03:53:00,2024-07-12 04:09:00,2024-07-12 03:53:00,2024-07-12 04:09:00,0,0,
229,8864827325846342282-2407120246-9,8,Hanau Hbf|Steinheim(Main)|Mühlheim(Main)-Dietesheim|Mühlheim(Main)|Offenbach(Main)Ost|Offenbach(Main) Marktplatz|Offenbach(Main) Ledermuseum|Offenbach(Main) Kaiserlei,8002034,4,Frankfurt (Main) Mühlberg,Hessen,Frankfurt am Main,60599,8.701504,50.101609,2024-07-12 03:12:00,2024-07-12 03:13:00,2024-07-12 03:12:00,2024-07-12 03:13:00,0,0,
230,-5671562569667632750-2407120248-20,8,Wiesbaden Hbf|Wiesbaden Ost|Mainz Nord|Mainz Hbf|Mainz Römisches Theater|Mainz-Gustavsburg|Mainz-Bischofsheim|Rüsselsheim Opelwerk|Rüsselsheim|Raunheim|Kelsterbach|Frankfurt(M) Flughafen Regionalbf|Frankfurt(Main)-Gateway Gardens|Frankfurt am Main - Stadion|Frankfurt-Niederrad|Frankfurt Hbf (tief)|Frankfurt(M)Taunusanlage|Frankfurt(M)Hauptwache|Frankfurt(M)Konstablerwache,8002058,3,Frankfurt (Main) Ostendstraße,Hessen,Frankfurt am Main,60314,8.696987,50.112562,2024-07-12 03:51:00,2024-07-12 03:51:00,2024-07-12 03:51:00,2024-07-12 03:51:00,0,0,
231,8864827325846342282-2407120246-10,8,Hanau Hbf|Steinheim(Main)|Mühlheim(Main)-Dietesheim|Mühlheim(Main)|Offenbach(Main)Ost|Offenbach(Main) Marktplatz|Offenbach(Main) Ledermuseum|Offenbach(Main) Kaiserlei|Frankfurt(M)Mühlberg,8002058,3,Frankfurt (Main) Ostendstraße,Hessen,Frankfurt am Main,60314,8.696987,50.112562,2024-07-12 03:15:00,2024-07-12 03:15:00,2024-07-12 03:15:00,2024-07-12 03:15:00,0,0,
232,-5671562569667632750-2407120248-14,8,Wiesbaden Hbf|Wiesbaden Ost|Mainz Nord|Mainz Hbf|Mainz Römisches Theater|Mainz-Gustavsburg|Mainz-Bischofsheim|Rüsselsheim Opelwerk|Rüsselsheim|Raunheim|Kelsterbach|Frankfurt(M) Flughafen Regionalbf|Frankfurt(Main)-Gateway Gardens,8002040,3,Frankfurt am Main Stadion,Hessen,Frankfurt am Main,60528,8.633247,50.068228,2024-07-12 03:36:00,2024-07-12 03:36:00,2024-07-12 03:35:00,2024-07-12 03:36:00,-1,0,
233,501314707182108660-2407120254-4,8,Kelsterbach|Frankfurt(M) Flughafen Regionalbf|Frankfurt(Main)-Gateway Gardens,8002040,3,Frankfurt am Main Stadion,Hessen,Frankfurt am Main,60528,8.633247,50.068228,2024-07-12 03:06:00,2024-07-12 03:06:00,2024-07-12 03:05:00,2024-07-12 03:06:00,-1,0,
234,8298546341087869344-2407120341-6,9,Frankfurt(M)Konstablerwache|Frankfurt(M)Hauptwache|Frankfurt(M)Taunusanlage|Frankfurt Hbf (tief)|Frankfurt-Niederrad,8002040,3,Frankfurt am Main Stadion,Hessen,Frankfurt am Main,60528,8.633247,50.068228,2024-07-12 03:53:00,2024-07-12 03:53:00,,,0,0,
235,8864827325846342282-2407120246-16,8,Hanau Hbf|Steinheim(Main)|Mühlheim(Main)-Dietesheim|Mühlheim(Main)|Offenbach(Main)Ost|Offenbach(Main) Marktplatz|Offenbach(Main) Ledermuseum|Offenbach(Main) Kaiserlei|Frankfurt(M)Mühlberg|Frankfurt(M)Ostendstraße|Frankfurt(M)Konstablerwache|Frankfurt(M)Hauptwache|Frankfurt(M)Taunusanlage|Frankfurt Hbf (tief)|Frankfurt-Niederrad,8002040,3,Frankfurt am Main Stadion,Hessen,Frankfurt am Main,60528,8.633247,50.068228,2024-07-12 03:28:00,2024-07-12 03:28:00,2024-07-12 03:28:00,2024-07-12 03:29:00,0,1,
236,-5052766045780055790-2407120330-8,7,Riedstadt-Goddelau|Riedstadt-Wolfskehlen|Groß Gerau-Dornheim|Groß Gerau-Dornberg|Mörfelden|Walldorf(Hess)|Zeppelinheim,8002040,3,Frankfurt am Main Stadion,Hessen,Frankfurt am Main,60528,8.633247,50.068228,2024-07-12 03:57:00,2024-07-12 03:57:00,2024-07-12 03:56:00,2024-07-12 03:57:00,-1,0,Information
237,3673026080162824134-2407111912-3,,Paris Est|Mannheim Hbf,8002041,2,Frankfurt (Main) Süd,Hessen,Frankfurt am Main,60594,8.686457,50.099365,2024-07-12 03:17:00,2024-07-12 03:19:00,,,0,0,Information
238,-9061060548328880741-2407111907-10,,Bruxelles Midi|Bruxelles-Nord|Liège-Guillemins|Aachen Hbf|Köln-Ehrenfeld|Bonn Hbf|Koblenz Hbf|Mainz Hbf|Mannheim Hbf,8002041,2,Frankfurt (Main) Süd,Hessen,Frankfurt am Main,60594,8.686457,50.099365,2024-07-12 03:17:00,2024-07-12 03:19:00,,,0,0,Bauarbeiten
239,-5671562569667632750-2407120248-17,8,Wiesbaden Hbf|Wiesbaden Ost|Mainz Nord|Mainz Hbf|Mainz Römisches Theater|Mainz-Gustavsburg|Mainz-Bischofsheim|Rüsselsheim Opelwerk|Rüsselsheim|Raunheim|Kelsterbach|Frankfurt(M) Flughafen Regionalbf|Frankfurt(Main)-Gateway Gardens|Frankfurt am Main - Stadion|Frankfurt-Niederrad|Frankfurt Hbf (tief),8006691,3,Frankfurt (Main) Taunusanlage,Hessen,Frankfurt am Main,60325,8.668864,50.113565,2024-07-12 03:46:00,2024-07-12 03:46:00,2024-07-12 03:46:00,2024-07-12 03:46:00,0,0,
240,501314707182108660-2407120254-7,8,Kelsterbach|Frankfurt(M) Flughafen Regionalbf|Frankfurt(Main)-Gateway Gardens|Frankfurt am Main - Stadion|Frankfurt-Niederrad|Frankfurt Hbf (tief),8006691,3,Frankfurt (Main) Taunusanlage,Hessen,Frankfurt am Main,60325,8.668864,50.113565,2024-07-12 03:16:00,2024-07-12 03:16:00,2024-07-12 03:16:00,2024-07-12 03:16:00,0,0,
241,8298546341087869344-2407120341-3,9,Frankfurt(M)Konstablerwache|Frankfurt(M)Hauptwache,8006691,3,Frankfurt (Main) Taunusanlage,Hessen,Frankfurt am Main,60325,8.668864,50.113565,2024-07-12 03:44:00,2024-07-12 03:44:00,,,0,0,
242,8864827325846342282-2407120246-13,8,Hanau Hbf|Steinheim(Main)|Mühlheim(Main)-Dietesheim|Mühlheim(Main)|Offenbach(Main)Ost|Offenbach(Main) Marktplatz|Offenbach(Main) Ledermuseum|Offenbach(Main) Kaiserlei|Frankfurt(M)Mühlberg|Frankfurt(M)Ostendstraße|Frankfurt(M)Konstablerwache|Frankfurt(M)Hauptwache,8006691,3,Frankfurt (Main) Taunusanlage,Hessen,Frankfurt am Main,60325,8.668864,50.113565,2024-07-12 03:20:00,2024-07-12 03:20:00,2024-07-12 03:19:00,2024-07-12 03:20:00,-1,0,
243,8640418502784071732-2407120344-1,1,,8010113,2,Frankfurt (Oder),Brandenburg,Frankfurt (Oder),15230,14.546496,52.336416,,2024-07-12 03:44:00,,2024-07-12 03:44:00,0,0,
244,-5671562569667632750-2407120248-18,8,Wiesbaden Hbf|Wiesbaden Ost|Mainz Nord|Mainz Hbf|Mainz Römisches Theater|Mainz-Gustavsburg|Mainz-Bischofsheim|Rüsselsheim Opelwerk|Rüsselsheim|Raunheim|Kelsterbach|Frankfurt(M) Flughafen Regionalbf|Frankfurt(Main)-Gateway Gardens|Frankfurt am Main - Stadion|Frankfurt-Niederrad|Frankfurt Hbf (tief)|Frankfurt(M)Taunusanlage,8006692,3,Frankfurt (Main) Hauptwache,Hessen,Frankfurt am Main,60313,8.678947,50.113926,2024-07-12 03:47:00,2024-07-12 03:48:00,2024-07-12 03:47:00,2024-07-12 03:48:00,0,0,
245,501314707182108660-2407120254-8,8,Kelsterbach|Frankfurt(M) Flughafen Regionalbf|Frankfurt(Main)-Gateway Gardens|Frankfurt am Main - Stadion|Frankfurt-Niederrad|Frankfurt Hbf (tief)|Frankfurt(M)Taunusanlage,8006692,3,Frankfurt (Main) Hauptwache,Hessen,Frankfurt am Main,60313,8.678947,50.113926,2024-07-12 03:17:00,2024-07-12 03:18:00,2024-07-12 03:17:00,2024-07-12 03:18:00,0,0,
246,8298546341087869344-2407120341-2,9,Frankfurt(M)Konstablerwache,8006692,3,Frankfurt (Main) Hauptwache,Hessen,Frankfurt am Main,60313,8.678947,50.113926,2024-07-12 03:42:00,2024-07-12 03:43:00,,,0,0,
247,8864827325846342282-2407120246-12,8,Hanau Hbf|Steinheim(Main)|Mühlheim(Main)-Dietesheim|Mühlheim(Main)|Offenbach(Main)Ost|Offenbach(Main) Marktplatz|Offenbach(Main) Ledermuseum|Offenbach(Main) Kaiserlei|Frankfurt(M)Mühlberg|Frankfurt(M)Ostendstraße|Frankfurt(M)Konstablerwache,8006692,3,Frankfurt (Main) Hauptwache,Hessen,Frankfurt am Main,60313,8.678947,50.113926,2024-07-12 03:18:00,2024-07-12 03:18:00,2024-07-12 03:18:00,2024-07-12 03:18:00,0,0,
248,-5671562569667632750-2407120248-19,8,Wiesbaden Hbf|Wiesbaden Ost|Mainz Nord|Mainz Hbf|Mainz Römisches Theater|Mainz-Gustavsburg|Mainz-Bischofsheim|Rüsselsheim Opelwerk|Rüsselsheim|Raunheim|Kelsterbach|Frankfurt(M) Flughafen Regionalbf|Frankfurt(Main)-Gateway Gardens|Frankfurt am Main - Stadion|Frankfurt-Niederrad|Frankfurt Hbf (tief)|Frankfurt(M)Taunusanlage|Frankfurt(M)Hauptwache,8004429,3,Frankfurt (Main) Konstablerwache,Hessen,Frankfurt am Main,60313,8.687098,50.114623,2024-07-12 03:49:00,2024-07-12 03:50:00,2024-07-12 03:49:00,2024-07-12 03:50:00,0,0,
249,501314707182108660-2407120254-9,,Kelsterbach|Frankfurt(M) Flughafen Regionalbf|Frankfurt(Main)-Gateway Gardens|Frankfurt am Main - Stadion|Frankfurt-Niederrad|Frankfurt Hbf (tief)|Frankfurt(M)Taunusanlage|Frankfurt(M)Hauptwache,8004429,3,Frankfurt (Main) Konstablerwache,Hessen,Frankfurt am Main,60313,8.687098,50.114623,2024-07-12 03:19:00,,2024-07-12 03:19:00,,0,0,
250,8298546341087869344-2407120341-1,9,,8004429,3,Frankfurt (Main) Konstablerwache,Hessen,Frankfurt am Main,60313,8.687098,50.114623,,2024-07-12 03:41:00,,,0,0,
251,8864827325846342282-2407120246-11,8,Hanau Hbf|Steinheim(Main)|Mühlheim(Main)-Dietesheim|Mühlheim(Main)|Offenbach(Main)Ost|Offenbach(Main) Marktplatz|Offenbach(Main) Ledermuseum|Offenbach(Main) Kaiserlei|Frankfurt(M)Mühlberg|Frankfurt(M)Ostendstraße,8004429,3,Frankfurt (Main) Konstablerwache,Hessen,Frankfurt am Main,60313,8.687098,50.114623,2024-07-12 03:17:00,2024-07-12 03:17:00,2024-07-12 03:16:00,2024-07-12 03:17:00,-1,0,
252,8457975387529600893-2407120020-9,,Dortmund Hbf|Gelsenkirchen Hbf|Essen Hbf|Düsseldorf Hbf|Köln Messe/Deutz Gl.11-12|Montabaur|Limburg Süd|Frankfurt(M) Flughafen Fernbf,8000105,1,Frankfurt (Main) Hbf,Hessen,Frankfurt am Main,60329,8.663789,50.107145,2024-07-12 03:03:00,2024-07-12 03:26:00,2024-07-12 03:25:00,2024-07-12 03:31:00,22,5,
253,-8572647521164952896-2407111828-12,,Praha hl.n.|Praha-Holesovice|Usti nad Labem hl.n.|Decin hl.n.|Bad Schandau|Dresden Hbf|Dresden-Neustadt|Riesa|Leipzig Hbf|Erfurt Hbf|Fulda,8000105,1,Frankfurt (Main) Hbf,Hessen,Frankfurt am Main,60329,8.663789,50.107145,2024-07-12 03:44:00,2024-07-12 04:00:00,2024-07-12 03:43:00,2024-07-12 04:00:00,-1,0,Information
254,-8716776747589038458-2407111828-12,,Praha hl.n.|Praha-Holesovice|Usti nad Labem hl.n.|Decin hl.n.|Bad Schandau|Dresden Hbf|Dresden-Neustadt|Riesa|Leipzig Hbf|Erfurt Hbf|Fulda,8000105,1,Frankfurt (Main) Hbf,Hessen,Frankfurt am Main,60329,8.663789,50.107145,2024-07-12 03:44:00,2024-07-12 04:00:00,2024-07-12 03:43:00,2024-07-12 04:00:00,-1,0,Information
255,-1197270886930040789-2407112101-9,,Berlin Hbf|Berlin Südkreuz|Lutherstadt Wittenberg Hbf|Bitterfeld|Halle(Saale)Hbf|Leipzig Hbf|Erfurt Hbf|Fulda,8000105,1,Frankfurt (Main) Hbf,Hessen,Frankfurt am Main,60329,8.663789,50.107145,2024-07-12 03:44:00,2024-07-12 04:00:00,2024-07-12 03:43:00,2024-07-12 04:00:00,-1,0,
256,4753870957390372842-2407112159-9,,Zürich HB|Basel SBB|Basel Bad Bf|Freiburg(Breisgau) Hbf|Offenburg|Baden-Baden|Karlsruhe Hbf|Mannheim Hbf,8000105,1,Frankfurt (Main) Hbf,Hessen,Frankfurt am Main,60329,8.663789,50.107145,2024-07-12 02:45:00,2024-07-12 03:13:00,2024-07-12 02:52:00,2024-07-12 03:16:00,7,3,
257,8868050453695511606-2407112159-9,,Zürich HB|Basel SBB|Basel Bad Bf|Freiburg(Breisgau) Hbf|Offenburg|Baden-Baden|Karlsruhe Hbf|Mannheim Hbf,8000105,1,Frankfurt (Main) Hbf,Hessen,Frankfurt am Main,60329,8.663789,50.107145,2024-07-12 02:45:00,2024-07-12 03:13:00,2024-07-12 02:52:00,2024-07-12 03:16:00,7,3,Bauarbeiten
258,5331894847185138451-2407112101-9,,Berlin Hbf|Berlin Südkreuz|Lutherstadt Wittenberg Hbf|Bitterfeld|Halle(Saale)Hbf|Leipzig Hbf|Erfurt Hbf|Fulda,8000105,1,Frankfurt (Main) Hbf,Hessen,Frankfurt am Main,60329,8.663789,50.107145,2024-07-12 03:44:00,2024-07-12 04:00:00,2024-07-12 03:43:00,2024-07-12 04:00:00,-1,0,
259,-1250569488410439385-2407120335-10,3,Darmstadt Hbf|Darmstadt-Arheilgen|Darmstadt-Wixhausen|Erzhausen|Egelsbach|Langen(Hess)|Langen-Flugsicherung|Dreieich-Buchschlag|Neu-Isenburg,8002047,4,Frankfurt-Louisa,Hessen,Frankfurt am Main,60598,8.670369,50.083956,2024-07-12 03:59:00,2024-07-12 03:59:00,2024-07-12 03:59:00,2024-07-12 04:00:00,0,1,
260,-5671562569667632750-2407120248-15,8,Wiesbaden Hbf|Wiesbaden Ost|Mainz Nord|Mainz Hbf|Mainz Römisches Theater|Mainz-Gustavsburg|Mainz-Bischofsheim|Rüsselsheim Opelwerk|Rüsselsheim|Raunheim|Kelsterbach|Frankfurt(M) Flughafen Regionalbf|Frankfurt(Main)-Gateway Gardens|Frankfurt am Main - Stadion,8002050,3,Frankfurt (Main) Niederrad,Hessen,Frankfurt am Main,60528,8.637075,50.081283,2024-07-12 03:38:00,2024-07-12 03:38:00,2024-07-12 03:38:00,2024-07-12 03:38:00,0,0,
261,501314707182108660-2407120254-5,8,Kelsterbach|Frankfurt(M) Flughafen Regionalbf|Frankfurt(Main)-Gateway Gardens|Frankfurt am Main - Stadion,8002050,3,Frankfurt (Main) Niederrad,Hessen,Frankfurt am Main,60528,8.637075,50.081283,2024-07-12 03:08:00,2024-07-12 03:08:00,2024-07-12 03:08:00,2024-07-12 03:08:00,0,0,
262,8298546341087869344-2407120341-5,9,Frankfurt(M)Konstablerwache|Frankfurt(M)Hauptwache|Frankfurt(M)Taunusanlage|Frankfurt Hbf (tief),8002050,3,Frankfurt (Main) Niederrad,Hessen,Frankfurt am Main,60528,8.637075,50.081283,2024-07-12 03:51:00,2024-07-12 03:51:00,,,0,0,
263,8864827325846342282-2407120246-15,8,Hanau Hbf|Steinheim(Main)|Mühlheim(Main)-Dietesheim|Mühlheim(Main)|Offenbach(Main)Ost|Offenbach(Main) Marktplatz|Offenbach(Main) Ledermuseum|Offenbach(Main) Kaiserlei|Frankfurt(M)Mühlberg|Frankfurt(M)Ostendstraße|Frankfurt(M)Konstablerwache|Frankfurt(M)Hauptwache|Frankfurt(M)Taunusanlage|Frankfurt Hbf (tief),8002050,3,Frankfurt (Main) Niederrad,Hessen,Frankfurt am Main,60528,8.637075,50.081283,2024-07-12 03:26:00,2024-07-12 03:26:00,2024-07-12 03:26:00,2024-07-12 03:27:00,0,1,
264,-5052766045780055790-2407120330-9,7,Riedstadt-Goddelau|Riedstadt-Wolfskehlen|Groß Gerau-Dornheim|Groß Gerau-Dornberg|Mörfelden|Walldorf(Hess)|Zeppelinheim|Frankfurt am Main - Stadion,8002050,3,Frankfurt (Main) Niederrad,Hessen,Frankfurt am Main,60528,8.637075,50.081283,2024-07-12 03:59:00,2024-07-12 04:00:00,2024-07-12 03:59:00,2024-07-12 04:00:00,0,0,Information
265,-6527908731319902016-2407120338-7,5,Friedrichsdorf(Taunus)|Seulberg|Bad Homburg|Oberursel(Taunus)|Oberursel-Stierstadt|Oberursel-Weißkirchen/Steinbach,8002052,3,Frankfurt-Rödelheim,Hessen,Frankfurt am Main,60489,8.607026,50.124615,2024-07-12 03:57:00,2024-07-12 03:57:00,,,0,0,
266,-9110295229692614184-2407120340-3,5,Strausberg (S)|Petershagen Nord,8080440,5,Fredersdorf (b Berlin),Brandenburg,Fredersdorf ,15370,13.760628,52.526212,2024-07-12 03:46:00,2024-07-12 03:47:00,,,0,0,
267,3368682078056590810-2407120338-2,RE5,Salzburg Hbf,8000108,3,Freilassing,Bayern,Freilassing,83395,12.977193,47.836916,2024-07-12 03:45:00,2024-07-12 03:56:00,2024-07-12 03:45:00,2024-07-12 03:56:00,0,0,
268,4316668067973282615-2407120319-3,22,Landshut(Bay)Hbf|Moosburg,8002078,3,Freising,Bayern,Freising,85354,11.744539,48.395195,2024-07-12 03:41:00,2024-07-12 03:42:00,2024-07-12 03:40:00,2024-07-12 03:42:00,-1,0,Bauarbeiten
269,6922614967570009295-2407120330-4,3,Dresden Hbf|Dresden-Plauen|Freital-Potschappel,8011569,5,Freital-Deuben,Sachsen,Freital,1705,13.646432,50.999358,2024-07-12 03:41:00,2024-07-12 03:41:00,2024-07-12 03:40:00,2024-07-12 03:41:00,-1,0,
270,-7057038451855622623-2407120354-3,3,Tharandt|Freital-Hainsberg West,8010116,5,Freital-Hainsberg,Sachsen,Freital,1705,13.637938,50.988898,2024-07-12 03:59:00,2024-07-12 03:59:00,,,0,0,
271,6922614967570009295-2407120330-5,3,Dresden Hbf|Dresden-Plauen|Freital-Potschappel|Freital-Deuben,8010116,5,Freital-Hainsberg,Sachsen,Freital,1705,13.637938,50.988898,2024-07-12 03:43:00,2024-07-12 03:43:00,2024-07-12 03:43:00,2024-07-12 03:43:00,0,0,
272,6922614967570009295-2407120330-3,3,Dresden Hbf|Dresden-Plauen,8013445,5,Freital-Potschappel,Sachsen,Freital,1705,13.662552,51.013894,2024-07-12 03:38:00,2024-07-12 03:38:00,2024-07-12 03:38:00,2024-07-12 03:38:00,0,0,
273,-8475165044633207486-2407120343-1,6,,8000111,3,Friedberg (Hess),Hessen,Friedberg (Hessen),61169,8.762056,50.332606,,2024-07-12 03:43:00,,,0,0,
274,-6527908731319902016-2407120338-1,5,,8002108,4,Friedrichsdorf (Taunus),Hessen,Friedrichsdorf (Taunus),61381,8.644776,50.25249,,2024-07-12 03:38:00,,,0,0,
275,-389765114355125159-2407120343-2,RE19,Wesel,8002109,5,Friedrichsfeld (Niederrhein),Nordrhein-Westfalen,Voerde,46562,6.645499,51.628486,2024-07-12 03:45:00,2024-07-12 03:46:00,,,0,0,
276,-2548994183414850777-2407120314-7,,Bebra|Ludwigsau-Friedlos|Bad Hersfeld|Haunetal-Neukirchen|Burghaun(Hünfeld)|Hünfeld,8000115,2,Fulda,Hessen,Fulda,36037,9.683977,50.554723,2024-07-12 03:53:00,,2024-07-12 03:53:00,,0,0,
277,-2819238151300076653-2407120316-7,6,Borna(Leipzig)|Lobstädt|Neukieritzsch|Böhlen Werke|Böhlen(Leipzig)|Großdeuben,8011598,5,Markkleeberg-Gaschwitz,Sachsen,Markkleeberg OT Gaschwitz,4416,12.3791456,51.2498991,2024-07-12 03:35:00,2024-07-12 03:36:00,2024-07-12 03:35:00,2024-07-12 03:36:00,0,0,Bauarbeiten
278,-1623994736072630433-2407120253-6,4,Aachen Hbf|Aachen Schanz|Aachen West|Herzogenrath|Übach-Palenberg,8002206,4,Geilenkirchen,Nordrhein-Westfalen,Geilenkirchen,52511,6.124518,50.961039,2024-07-12 03:16:00,2024-07-12 03:17:00,2024-07-12 03:16:00,2024-07-12 03:17:00,0,0,
279,1025611722263176185-2407120303-3,3,Dortmund Hbf|Wanne-Eickel Hbf,8000118,2,Gelsenkirchen Hbf,Nordrhein-Westfalen,Gelsenkirchen,45879,7.102455,51.504903,2024-07-12 03:28:00,2024-07-12 03:29:00,,,0,0,Störung. (Quelle: zuginfo.nrw)
280,-6058665356135913865-2407120209-13,2,Münster(Westf)Hbf|Münster-Albachten|Senden-Bösensell|Nottuln-Appelhülsen|Buldern|Dülmen|Sythen|Haltern am See|Marl-Sinsen|Recklinghausen Hbf|Recklinghausen Süd|Wanne-Eickel Hbf,8000118,2,Gelsenkirchen Hbf,Nordrhein-Westfalen,Gelsenkirchen,45879,7.102455,51.504903,2024-07-12 03:08:00,2024-07-12 03:09:00,2024-07-12 03:08:00,2024-07-12 03:09:00,0,0,
281,9064022158095665154-2407120348-1,12,,8010125,3,Gera Hbf,Thüringen,Gera,7545,12.077092,50.883421,,2024-07-12 03:48:00,,2024-07-12 03:48:00,0,0,
282,8312618108729256880-2407120348-4,2,Schorndorf|Weiler(Rems)|Winterbach(b Schorndorf),8002240,5,Geradstetten,Baden-Württemberg,Remshalden,73630,9.439753,48.805203,2024-07-12 03:55:00,2024-07-12 03:56:00,,,0,0,Information
283,-5052766045780055790-2407120330-1,7,,8000126,4,Riedstadt-Goddelau,Hessen,Riedstadt,64560,8.489187,49.83323,,2024-07-12 03:30:00,,2024-07-12 03:30:00,0,0,Information
284,-3063371006880812688-2407120357-1,RB60,,8010131,3,Görlitz,Sachsen,Görlitz,2826,14.97908,51.146767,,2024-07-12 03:57:00,,2024-07-12 03:57:00,0,0,
285,-7043707887682109769-2407120342-1,65,,8010131,3,Görlitz,Sachsen,Görlitz,2826,14.97908,51.146767,,2024-07-12 03:42:00,,2024-07-12 03:42:00,0,0,Großstörung
286,7500668147462712463-2407111913-17,,Wien Hbf|Wien Meidling|St.Pölten Hbf|Linz Hbf|Wels Hbf|Schärding|Passau Hbf|Plattling|Straubing|Regensburg Hbf|Nürnberg Hbf|Fürth(Bay)Hbf|Erlangen|Bamberg|Lichtenfels|Saalfeld(Saale),8010133,3,Jena-Göschwitz,Thüringen,Jena,7745,11.593537,50.883942,2024-07-12 03:01:00,2024-07-12 03:03:00,2024-07-12 03:08:00,2024-07-12 03:08:00,7,5,Bauarbeiten
287,2225014177734358357-2407120255-5,S5,Werdau|Werdau Nord|Schweinsburg-Culten|Crimmitschau,8010134,4,Gößnitz,Thüringen,Gößnitz,4639,12.429301,50.8932,2024-07-12 03:35:00,2024-07-12 03:35:00,,,0,0,Störung
288,7511148090173910504-2407120029-6,,Hamburg-Altona|Hamburg Dammtor|Hamburg Hbf|Hamburg-Harburg|Hannover Hbf,8000128,2,Göttingen,Niedersachsen,Göttingen,37073,9.926072,51.536815,2024-07-12 03:05:00,2024-07-12 03:07:00,2024-07-12 03:06:00,2024-07-12 03:09:00,1,2,
289,-817120186960617906-2407120327-5,9,Karlsruhe Hbf|Karlsruhe-Hagsfeld|Blankenloch|Friedrichstal(Baden),8000131,3,Graben-Neudorf,Baden-Württemberg,Graben-Neudorf,76676,8.49063,49.161797,2024-07-12 03:43:00,2024-07-12 03:46:00,2024-07-12 03:43:00,2024-07-12 03:46:00,0,0,Information
290,-272079483614590395-2407120336-4,3,Halle(Saale)Hbf|Halle Messe|Dieskau,8011711,5,Gröbers,Sachsen-Anhalt,Gröbers,6184,12.1168256,51.4323471,2024-07-12 03:47:00,2024-07-12 03:47:00,2024-07-12 03:47:00,2024-07-12 03:47:00,0,0,
291,-5052766045780055790-2407120330-4,7,Riedstadt-Goddelau|Riedstadt-Wolfskehlen|Groß Gerau-Dornheim,8002386,3,Groß Gerau-Dornberg,Hessen,Groß Gerau-Dornberg,64521,8.494709,49.912279,2024-07-12 03:38:00,2024-07-12 03:38:00,2024-07-12 03:38:00,2024-07-12 03:38:00,0,0,Information
292,-8475165044633207486-2407120343-5,6,Friedberg(Hess)|Bruchenbrücken|Nieder Wöllstadt|Okarben,8002388,4,Groß Karben,Hessen,Karben,61184,8.753528,50.23184,2024-07-12 03:55:00,2024-07-12 03:57:00,,,0,0,
293,-3887818088302720811-2407120256-4,S19,Köln-Müngersdorf Technologiepark|Lövenich|Köln-Weiden West,8002389,5,Frechen-Königsdorf,Nordrhein-Westfalen,Frechen,50226,6.777846,50.936501,2024-07-12 03:22:00,2024-07-12 03:22:00,2024-07-12 03:22:00,2024-07-12 03:22:00,0,0,
294,-8207251646144469940-2407120327-2,S19,Horrem,8002389,5,Frechen-Königsdorf,Nordrhein-Westfalen,Frechen,50226,6.777846,50.936501,2024-07-12 03:37:00,2024-07-12 03:37:00,2024-07-12 03:37:00,2024-07-12 03:37:00,0,0,
295,-1082369476342122584-2407120347-2,S19,Horrem,8002389,5,Frechen-Königsdorf,Nordrhein-Westfalen,Frechen,50226,6.777846,50.936501,2024-07-12 03:57:00,2024-07-12 03:57:00,,,0,0,
296,-4529973283975264983-2407120326-4,S19,Köln-Müngersdorf Technologiepark|Lövenich|Köln-Weiden West,8002389,5,Frechen-Königsdorf,Nordrhein-Westfalen,Frechen,50226,6.777846,50.936501,2024-07-12 03:52:00,2024-07-12 03:52:00,,,0,0,
297,-7077376547267783966-2407120216-20,8,Hagen Hbf|Hagen-Wehringhausen|Hagen-Heubing|Hagen-Westerbauer|Gevelsberg-Knapp|Gevelsberg Hbf|Gevelsberg-Kipp|Gevelsberg West|Schwelm|Schwelm West|Wuppertal-Langerfeld|Wuppertal-Oberbarmen|Wuppertal-Barmen|Wuppertal-Unterbarmen|Wuppertal Hbf|Wuppertal-Steinbeck|Wuppertal-Zoologischer Garten|Wuppertal-Sonnborn|Wuppertal-Vohwinkel,8000138,4,Haan-Gruiten,Nordrhein-Westfalen,Haan-Gruiten,42781,7.010546,51.214559,2024-07-12 03:11:00,2024-07-12 03:12:00,2024-07-12 03:11:00,2024-07-12 03:12:00,0,0,Information. (Quelle: zuginfo.nrw)
298,8312618108729256880-2407120348-5,2,Schorndorf|Weiler(Rems)|Winterbach(b Schorndorf)|Geradstetten,8002448,4,Grunbach,Baden-Württemberg,Remshalden,73630,9.420029,48.81036,2024-07-12 03:57:00,2024-07-12 03:58:00,,,0,0,Information
299,-869553568704520980-2407120305-12,9,Berlin Alexanderplatz (S)|Berlin Jannowitzbrücke|Berlin Ostbahnhof (S)|Berlin Warschauer Straße|Berlin Treptower Park|Berlin Plänterwald|Berlin Baumschulenweg|Berlin-Schöneweide (S)|Berlin-Johannisthal|Berlin-Adlershof|Berlin-Altglienicke,8089016,5,Grünbergallee,Berlin,Berlin,12526,13.542485,52.399411,2024-07-12 03:34:00,2024-07-12 03:34:00,2024-07-12 03:34:00,2024-07-12 03:34:00,0,0,
300,7265579896316843783-2407120302-20,9,Berlin Charlottenburg (S)|Berlin Savignyplatz|Berlin Zoologischer Garten (S)|Berlin-Tiergarten|Berlin Bellevue|Berlin Hbf (S-Bahn)|Berlin Friedrichstraße (S)|Berlin Hackescher Markt|Berlin Alexanderplatz (S)|Berlin Jannowitzbrücke|Berlin Ostbahnhof (S)|Berlin Warschauer Straße|Berlin Treptower Park|Berlin Plänterwald|Berlin Baumschulenweg|Berlin-Schöneweide (S)|Berlin-Johannisthal|Berlin-Adlershof|Berlin-Altglienicke,8089016,5,Grünbergallee,Berlin,Berlin,12526,13.542485,52.399411,2024-07-12 03:49:00,2024-07-12 03:49:00,2024-07-12 03:49:00,2024-07-12 03:49:00,0,0,
301,-3639105195943060538-2407120017-5,,Frankfurt(Main)Hbf|Vaihingen(Enz)|Stuttgart Hbf|Ulm Hbf,8000139,3,Günzburg,Bayern,Günzburg,89312,10.2792621,48.4605626,2024-07-12 03:59:00,2024-07-12 04:01:00,2024-07-12 03:57:00,2024-07-12 04:01:00,-2,0,
302,-1945286250310201567-2407120339-8,9,Berlin-Lichtenberg (S)|Berlin Nöldnerplatz|Berlin Ostkreuz (S)|Berlin Warschauer Straße|Berlin Ostbahnhof (S)|Berlin Jannowitzbrücke|Berlin Alexanderplatz (S),8089017,4,Hackescher Markt,Berlin,Berlin,10178,13.402364,52.522622,2024-07-12 03:54:00,2024-07-12 03:54:00,,,0,0,
303,2964630978341565241-2407120332-9,9,Berlin Westkreuz|Berlin Charlottenburg (S)|Berlin Savignyplatz|Berlin Zoologischer Garten (S)|Berlin-Tiergarten|Berlin Bellevue|Berlin Hbf (S-Bahn)|Berlin Friedrichstraße (S),8089017,4,Hackescher Markt,Berlin,Berlin,10178,13.402364,52.522622,2024-07-12 03:50:00,2024-07-12 03:50:00,,,0,0,
304,7265579896316843783-2407120302-8,9,Berlin Charlottenburg (S)|Berlin Savignyplatz|Berlin Zoologischer Garten (S)|Berlin-Tiergarten|Berlin Bellevue|Berlin Hbf (S-Bahn)|Berlin Friedrichstraße (S),8089017,4,Hackescher Markt,Berlin,Berlin,10178,13.402364,52.522622,2024-07-12 03:17:00,2024-07-12 03:18:00,2024-07-12 03:17:00,2024-07-12 03:18:00,0,0,
305,-4264599631284267039-2407120312-9,9,Berlin Westkreuz|Berlin Charlottenburg (S)|Berlin Savignyplatz|Berlin Zoologischer Garten (S)|Berlin-Tiergarten|Berlin Bellevue|Berlin Hbf (S-Bahn)|Berlin Friedrichstraße (S),8089017,4,Hackescher Markt,Berlin,Berlin,10178,13.402364,52.522622,2024-07-12 03:30:00,2024-07-12 03:30:00,,,0,0,
306,1857411337300333873-2407120328-6,1,Rödermark-Ober Roden|Rodgau-Rollwald|Rodgau-Nieder Roden|Rodgau-Dudenhofen|Rodgau-Jügesheim,8002528,5,Rodgau-Hainhausen,Hessen,Rodgau-Hainhausen,63110,8.87581587,50.0391366,2024-07-12 03:39:00,2024-07-12 03:40:00,2024-07-12 03:40:00,2024-07-12 03:40:00,1,0,
307,733740661198144805-2407120339-1,24,,8010157,3,Halberstadt,Sachsen-Anhalt,Halberstadt,38820,11.073452,51.899309,,2024-07-12 03:39:00,,,0,0,
308,7638672487804398297-2407120359-1,11,,8010157,3,Halberstadt,Sachsen-Anhalt,Halberstadt,38820,11.073452,51.899309,,2024-07-12 03:59:00,,,0,0,
309,-3673936193428388018-2407120303-18,8,München-Pasing|München-Laim|München Hirschgarten|München Donnersbergerbrücke|München Hackerbrücke|München Hbf (tief)|München Karlsplatz|München Marienplatz|München Isartor|München Rosenheimer Platz|München Ost|München Leuchtenbergring|München-Daglfing|München-Englschalking|München-Johanneskirchen|Unterföhring|Ismaning,8002534,5,Hallbergmoos,Bayern,Hallbergmoos,85399,11.714334,48.309167,2024-07-12 03:48:00,2024-07-12 03:48:00,2024-07-12 03:48:00,2024-07-12 03:49:00,0,1,
310,-4321951582378922312-2407120223-18,8,München-Pasing|München-Laim|München Hirschgarten|München Donnersbergerbrücke|München Hackerbrücke|München Hbf (tief)|München Karlsplatz|München Marienplatz|München Isartor|München Rosenheimer Platz|München Ost|München Leuchtenbergring|München-Daglfing|München-Englschalking|München-Johanneskirchen|Unterföhring|Ismaning,8002534,5,Hallbergmoos,Bayern,Hallbergmoos,85399,11.714334,48.309167,2024-07-12 03:08:00,2024-07-12 03:08:00,2024-07-12 03:07:00,2024-07-12 03:08:00,-1,0,
311,-9211657492077821720-2407120345-1,4,,8010159,2,Halle (Saale) Hbf,Sachsen-Anhalt,Halle ,6112,11.987085,51.477509,,2024-07-12 03:45:00,,,0,0,
312,-3113357939809852458-2407120355-1,8,,8010159,2,Halle (Saale) Hbf,Sachsen-Anhalt,Halle ,6112,11.987085,51.477509,,2024-07-12 03:55:00,,,0,0,
313,7375848880176874559-2407120351-1,3,,8010159,2,Halle (Saale) Hbf,Sachsen-Anhalt,Halle ,6112,11.987085,51.477509,,2024-07-12 03:51:00,,,0,0,
314,1171031349049414244-2407120355-1,8,,8010159,2,Halle (Saale) Hbf,Sachsen-Anhalt,Halle ,6112,11.987085,51.477509,,2024-07-12 03:55:00,,,0,0,
315,-272079483614590395-2407120336-1,3,,8010159,2,Halle (Saale) Hbf,Sachsen-Anhalt,Halle ,6112,11.987085,51.477509,,2024-07-12 03:36:00,,2024-07-12 03:36:00,0,0,
316,-9076044575966614071-2407120302-2,,Hamburg-Altona,8002548,2,Hamburg Dammtor,Hamburg,Hamburg,20354,9.989566,53.560751,2024-07-12 03:10:00,2024-07-12 03:12:00,2024-07-12 03:09:00,2024-07-12 03:12:00,-1,0,Information
317,5089820149948252230-2407111646-21,,München Hbf|München-Pasing|Augsburg Hbf|Ulm Hbf|Stuttgart Hbf|Mannheim Hbf|Frankfurt(Main)Hbf|Fulda|Bad Hersfeld|Eisenach|Gotha|Erfurt Hbf|Leipzig Hbf|Berlin Südkreuz|Berlin Hbf|Berlin-Spandau|Wittenberge|Ludwigslust|Büchen|Hamburg Hbf,8002548,2,Hamburg Dammtor,Hamburg,Hamburg,20354,9.989566,53.560751,2024-07-12 03:19:00,2024-07-12 03:21:00,2024-07-12 03:35:00,2024-07-12 03:37:00,16,16,
318,-9076044575966614071-2407120302-3,,Hamburg-Altona|Hamburg Dammtor,8002549,1,Hamburg Hbf,Hamburg,Hamburg,20099,10.006909,53.552736,2024-07-12 03:16:00,2024-07-12 03:20:00,2024-07-12 03:16:00,2024-07-12 03:21:00,0,1,Information
319,5089820149948252230-2407111646-20,,München Hbf|München-Pasing|Augsburg Hbf|Ulm Hbf|Stuttgart Hbf|Mannheim Hbf|Frankfurt(Main)Hbf|Fulda|Bad Hersfeld|Eisenach|Gotha|Erfurt Hbf|Leipzig Hbf|Berlin Südkreuz|Berlin Hbf|Berlin-Spandau|Wittenberge|Ludwigslust|Büchen,8002549,1,Hamburg Hbf,Hamburg,Hamburg,20099,10.006909,53.552736,2024-07-12 03:12:00,2024-07-12 03:15:00,2024-07-12 03:31:00,2024-07-12 03:33:00,19,18,
320,-5364253239316331542-2407120330-1,RB71,,8002553,1,Hamburg-Altona,Hamburg,Hamburg,22765,9.935175,53.552695,,2024-07-12 03:30:00,,2024-07-12 03:30:00,0,0,
321,-9076044575966614071-2407120302-1,,,8002553,1,Hamburg-Altona,Hamburg,Hamburg,22765,9.935175,53.552695,,2024-07-12 03:02:00,,2024-07-12 03:02:00,0,0,Information
322,5089820149948252230-2407111646-22,,München Hbf|München-Pasing|Augsburg Hbf|Ulm Hbf|Stuttgart Hbf|Mannheim Hbf|Frankfurt(Main)Hbf|Fulda|Bad Hersfeld|Eisenach|Gotha|Erfurt Hbf|Leipzig Hbf|Berlin Südkreuz|Berlin Hbf|Berlin-Spandau|Wittenberge|Ludwigslust|Büchen|Hamburg Hbf|Hamburg Dammtor,8002553,1,Hamburg-Altona,Hamburg,Hamburg,22765,9.935175,53.552695,2024-07-12 03:29:00,,2024-07-12 03:44:00,,15,0,
323,-9076044575966614071-2407120302-4,,Hamburg-Altona|Hamburg Dammtor|Hamburg Hbf,8000147,2,Hamburg-Harburg,Hamburg,Hamburg,21079,9.991701,53.455908,2024-07-12 03:30:00,2024-07-12 03:32:00,2024-07-12 03:30:00,2024-07-12 03:33:00,0,1,Information
324,8503777394879306018-2407112324-15,,Frankfurt(Main)Hbf|Frankfurt(M) Flughafen Fernbf|Mainz Hbf|Bingen(Rhein) Hbf|Koblenz Hbf|Remagen|Bonn Hbf|Köln Hbf|Düsseldorf Hbf|Düsseldorf Flughafen|Duisburg Hbf|Essen Hbf|Bochum Hbf|Dortmund Hbf,8000149,2,Hamm (Westf) Hbf,Nordrhein-Westfalen,Hamm ,59065,7.807821,51.678078,2024-07-12 03:50:00,2024-07-12 03:52:00,2024-07-12 03:50:00,2024-07-12 03:52:00,0,0,Information
325,-5761135966346571235-2407120317-1,1,,8000149,2,Hamm (Westf) Hbf,Nordrhein-Westfalen,Hamm ,59065,7.807821,51.678078,,2024-07-12 03:17:00,,2024-07-12 03:17:00,0,0,
326,1865520950156468952-2407120346-1,8,,8000150,2,Hanau Hbf,Hessen,Hanau,63450,8.929,50.120953,,2024-07-12 03:46:00,,,0,0,
327,8457975387529600893-2407120020-10,,Dortmund Hbf|Gelsenkirchen Hbf|Essen Hbf|Düsseldorf Hbf|Köln Messe/Deutz Gl.11-12|Montabaur|Limburg Süd|Frankfurt(M) Flughafen Fernbf|Frankfurt(Main)Hbf,8000150,2,Hanau Hbf,Hessen,Hanau,63450,8.929,50.120953,2024-07-12 03:40:00,2024-07-12 03:42:00,2024-07-12 03:46:00,2024-07-12 03:47:00,6,5,
328,-4826584964964001816-2407120148-29,,Wiesbaden Hbf|Wiesbaden Ost|Mainz Nord|Mainz Hbf|Mainz Römisches Theater|Mainz-Gustavsburg|Mainz-Bischofsheim|Rüsselsheim Opelwerk|Rüsselsheim|Raunheim|Kelsterbach|Frankfurt(M) Flughafen Regionalbf|Frankfurt(Main)-Gateway Gardens|Frankfurt am Main - Stadion|Frankfurt-Niederrad|Frankfurt Hbf (tief)|Frankfurt(M)Taunusanlage|Frankfurt(M)Hauptwache|Frankfurt(M)Konstablerwache|Frankfurt(M)Ostendstraße|Frankfurt(M)Mühlberg|Offenbach(Main) Kaiserlei|Offenbach(Main) Ledermuseum|Offenbach(Main) Marktplatz|Offenbach(Main)Ost|Mühlheim(Main)|Mühlheim(Main)-Dietesheim|Steinheim(Main),8000150,2,Hanau Hbf,Hessen,Hanau,63450,8.929,50.120953,2024-07-12 03:14:00,,2024-07-12 03:14:00,,0,0,
329,7990396791094350225-2407120335-1,5,,8000152,1,Hannover Hbf,Niedersachsen,Hannover,30159,9.741021,52.376761,,2024-07-12 03:35:00,,2024-07-12 03:35:00,0,0,Großstörung
330,3199623009169073885-2407120011-9,,Berlin Ostbahnhof|Berlin Hbf|Berlin Zoologischer Garten|Berlin-Wannsee|Potsdam Hbf|Brandenburg Hbf|Magdeburg Hbf|Braunschweig Hbf,8000152,1,Hannover Hbf,Niedersachsen,Hannover,30159,9.741021,52.376761,2024-07-12 03:09:00,2024-07-12 03:13:00,2024-07-12 03:13:00,2024-07-12 03:15:00,4,2,Information
331,-2674217953163577131-2407120030-9,,Köln Hbf|Düsseldorf Hbf|Duisburg Hbf|Essen Hbf|Bochum Hbf|Dortmund Hbf|Hamm(Westf)Hbf|Bielefeld Hbf,8000152,1,Hannover Hbf,Niedersachsen,Hannover,30159,9.741021,52.376761,2024-07-12 03:48:00,2024-07-12 03:57:00,2024-07-12 03:47:00,2024-07-12 03:57:00,-1,0,
332,3824396230027883844-2407120306-7,,Hannover Flughafen|Langenhagen Pferdemarkt|Langenhagen Mitte|Hannover-Vinnhorst|Hannover-Ledeburg|Hannover-Nordstadt,8000152,1,Hannover Hbf,Niedersachsen,Hannover,30159,9.741021,52.376761,2024-07-12 03:24:00,,2024-07-12 03:24:00,,0,0,Großstörung
333,5165487457649339724-2407120335-7,1,Wiesbaden Hbf|Wiesbaden Ost|Mainz-Kastel|Hochheim(Main)|Flörsheim(Main)|Eddersheim,8002637,4,Hattersheim (Main),Hessen,Hattersheim (Main),65795,8.489638,50.067879,2024-07-12 03:58:00,2024-07-12 03:59:00,2024-07-12 03:58:00,2024-07-12 03:59:00,0,0,
334,-7138074359361066746-2407111919-15,,Hamburg-Altona|Hamburg Dammtor|Hamburg Hbf|Berlin-Spandau|Berlin Hbf|Berlin Südkreuz|Lutherstadt Wittenberg Hbf|Bitterfeld|Leipzig Hbf|Erfurt Hbf|Eisenach|Frankfurt(Main)Hbf|Frankfurt(M) Flughafen Fernbf|Mannheim Hbf,8000156,2,Heidelberg Hbf,Baden-Württemberg,Heidelberg,69115,8.675442,49.403567,2024-07-12 03:38:00,2024-07-12 03:40:00,2024-07-12 04:53:00,2024-07-12 04:54:00,75,74,Störung
335,2686007473625185344-2407120001-6,,München Hbf|Augsburg Hbf|Günzburg|Ulm Hbf|Stuttgart Hbf,8000156,2,Heidelberg Hbf,Baden-Württemberg,Heidelberg,69115,8.675442,49.403567,2024-07-12 03:35:00,2024-07-12 03:43:00,2024-07-12 03:41:00,2024-07-12 03:45:00,6,2,Information
336,8774567504315204361-2407120301-13,,Köln-Müngersdorf Technologiepark|Köln-Ehrenfeld|Köln Hansaring|Köln Hbf|Köln Messe/Deutz|Köln Trimbornstr|Köln Frankfurter Straße|Köln/Bonn Flughafen|Porz-Wahn|Spich|Troisdorf|Siegburg/Bonn,8002753,3,Hennef (Sieg),Nordrhein-Westfalen,Hennef (Sieg),53773,7.284592,50.773332,2024-07-12 03:46:00,,2024-07-12 03:46:00,,0,0,Bauarbeiten. (Quelle: zuginfo.nrw)
337,13331266057491581-2407120231-13,,Köln-Müngersdorf Technologiepark|Köln-Ehrenfeld|Köln Hansaring|Köln Hbf|Köln Messe/Deutz|Köln Trimbornstr|Köln Frankfurter Straße|Köln/Bonn Flughafen|Porz-Wahn|Spich|Troisdorf|Siegburg/Bonn,8002753,3,Hennef (Sieg),Nordrhein-Westfalen,Hennef (Sieg),53773,7.284592,50.773332,2024-07-12 03:16:00,,2024-07-12 03:17:00,,1,0,Bauarbeiten. (Quelle: zuginfo.nrw)
338,-6695427382764937497-2407120302-1,19,,8002753,3,Hennef (Sieg),Nordrhein-Westfalen,Hennef (Sieg),53773,7.284592,50.773332,,2024-07-12 03:02:00,,2024-07-12 03:04:00,0,2,Bauarbeiten. (Quelle: zuginfo.nrw)
339,-7583769325891316294-2407120332-1,19,,8002753,3,Hennef (Sieg),Nordrhein-Westfalen,Hennef (Sieg),53773,7.284592,50.773332,,2024-07-12 03:32:00,,2024-07-12 03:32:00,0,0,Bauarbeiten. (Quelle: zuginfo.nrw)
340,1042297618291463943-2407120356-1,42,,8089105,4,Hermannstraße,Berlin,Berlin,12051,13.431313,52.46751,,2024-07-12 03:56:00,,,0,0,
341,-4100659615061494590-2407120355-2,46,Berlin-Tempelhof,8089105,4,Hermannstraße,Berlin,Berlin,12051,13.431313,52.46751,2024-07-12 03:58:00,2024-07-12 03:59:00,,,0,0,
