,ID,train,path,eva_nr,category,name,state,city,zip,long,lat,arrival_plan,departure_plan,arrival_change,departure_change,arrival_delay_m,depature_delay_m
0,-7112950632579182168-2406260031-15,,Heinsberg(Rheinl)|Heinsberg Kreishaus|Heinsberg-Oberbruch|Heinsberg-Dremmen|Heinsberg-Porselen|Heinsberg-Horst|Heinsberg-Randerath|Lindern|Geilenkirchen|Übach-Palenberg|Herzogenrath|Kohlscheid|Aachen West|Aachen Schanz,8000001,2,Aachen Hbf,Nordrhein-Westfalen,Aachen,52064,6.091499,50.7678,2024-06-26 01:24:00,,2024-06-26 01:25:00,,1,0
1,3195543412302879683-2406252218-27,,Hamm(Westf)Hbf|Bönen-Nordbögge|Kamen|Kamen-Methler|Dortmund-Kurl|Dortmund-Scharnhorst|Dortmund Hbf|Bochum Hbf|Wattenscheid|Essen Hbf|Mülheim(Ruhr)Hbf|Duisburg Hbf|Düsseldorf Flughafen|Düsseldorf Hbf|Düsseldorf-Benrath|Leverkusen Mitte|Köln-Mülheim|Köln Messe/Deutz|Köln Hbf|Köln-Ehrenfeld|Horrem|Düren|Langerwehe|Eschweiler Hbf|Stolberg(Rheinl)Hbf|Aachen-Rothe Erde,8000001,2,Aachen Hbf,Nordrhein-Westfalen,Aachen,52064,6.091499,50.7678,2024-06-26 01:07:00,,2024-06-26 01:07:00,,0,0
2,4210113101437969209-2406260002-26,,Hennef(Sieg)|Siegburg/Bonn|Troisdorf|Spich|Porz-Wahn|Köln/Bonn Flughafen|Köln Frankfurter Straße|Köln Trimbornstr|Köln Messe/Deutz|Köln Hbf|Köln Hansaring|Köln-Ehrenfeld|Köln-Müngersdorf Technologiepark|Lövenich|Köln-Weiden West|Frechen-Königsdorf|Horrem|Sindorf|Buir|Merzenich|Düren|Langerwehe|Eschweiler Hbf|Stolberg(Rheinl)Hbf|Aachen-Rothe Erde,8000001,2,Aachen Hbf,Nordrhein-Westfalen,Aachen,52064,6.091499,50.7678,2024-06-26 01:43:00,,2024-06-26 01:46:00,,3,0
3,3195543412302879683-2406252218-26,1,Hamm(Westf)Hbf|Bönen-Nordbögge|Kamen|Kamen-Methler|Dortmund-Kurl|Dortmund-Scharnhorst|Dortmund Hbf|Bochum Hbf|Wattenscheid|Essen Hbf|Mülheim(Ruhr)Hbf|Duisburg Hbf|Düsseldorf Flughafen|Düsseldorf Hbf|Düsseldorf-Benrath|Leverkusen Mitte|Köln-Mülheim|Köln Messe/Deutz|Köln Hbf|Köln-Ehrenfeld|Horrem|Düren|Langerwehe|Eschweiler Hbf|Stolberg(Rheinl)Hbf,8000406,4,Aachen-Rothe Erde,Nordrhein-Westfalen,Aachen,52066,6.116475,50.770202,2024-06-26 01:03:00,2024-06-26 01:04:00,2024-06-26 01:03:00,2024-06-26 01:04:00,0,0
4,4210113101437969209-2406260002-25,19,Hennef(Sieg)|Siegburg/Bonn|Troisdorf|Spich|Porz-Wahn|Köln/Bonn Flughafen|Köln Frankfurter Straße|Köln Trimbornstr|Köln Messe/Deutz|Köln Hbf|Köln Hansaring|Köln-Ehrenfeld|Köln-Müngersdorf Technologiepark|Lövenich|Köln-Weiden West|Frechen-Königsdorf|Horrem|Sindorf|Buir|Merzenich|Düren|Langerwehe|Eschweiler Hbf|Stolberg(Rheinl)Hbf,8000406,4,Aachen-Rothe Erde,Nordrhein-Westfalen,Aachen,52066,6.116475,50.770202,2024-06-26 01:40:00,2024-06-26 01:40:00,2024-06-26 01:43:00,2024-06-26 01:44:00,3,4
5,-7112950632579182168-2406260031-13,33,Heinsberg(Rheinl)|Heinsberg Kreishaus|Heinsberg-Oberbruch|Heinsberg-Dremmen|Heinsberg-Porselen|Heinsberg-Horst|Heinsberg-Randerath|Lindern|Geilenkirchen|Übach-Palenberg|Herzogenrath|Kohlscheid,8000404,5,Aachen West,Nordrhein-Westfalen,Aachen,52072,6.070715,50.78036,2024-06-26 01:18:00,2024-06-26 01:19:00,2024-06-26 01:19:00,2024-06-26 01:20:00,1,1
6,226669288992708507-2406260020-12,,Stuttgart Hbf|Stuttgart-Bad Cannstatt|Waiblingen|Schorndorf|Urbach(b Schorndorf)|Plüderhausen|Waldhausen(b Schorndorf)|Lorch(Württ)|Schwäbisch Gmünd|Böbingen(Rems)|Mögglingen(Gmünd),8000002,3,Aalen Hbf,Baden-Württemberg,Aalen,73430,10.096271,48.841013,2024-06-26 01:20:00,,2024-06-26 01:23:00,,3,0
7,2103026705683734524-2406260020-11,8,Hannover Hbf|Wunstorf|Neustadt am Rübenberge|Nienburg(Weser)|Eystrup|Dörverden|Verden(Aller)|Langwedel|Etelsen|Baden(Verden),8000413,4,Achim,Niedersachsen,Achim,28832,9.030447,53.01599,2024-06-26 01:33:00,2024-06-26 01:33:00,2024-06-26 01:33:00,2024-06-26 01:33:00,0,0
8,-500733363253213383-2406260056-5,RB81,Hamburg Hasselbrook|Hamburg Wandsbeker Chaussee|Hamburg-Tonndorf|Hamburg-Rahlstedt,8000446,4,Ahrensburg,Schleswig-Holstein,Ahrensburg,22926,10.236206,53.669171,2024-06-26 01:34:00,2024-06-26 01:34:00,,,0,0
9,-1881388066381007099-2406260104-1,81,,8000446,4,Ahrensburg,Schleswig-Holstein,Ahrensburg,22926,10.236206,53.669171,,2024-06-26 01:04:00,,2024-06-26 01:04:00,0,0
10,8280588487919002193-2406260056-5,RB81,Hamburg Hasselbrook|Hamburg Wandsbeker Chaussee|Hamburg-Tonndorf|Hamburg-Rahlstedt,8000446,4,Ahrensburg,Schleswig-Holstein,Ahrensburg,22926,10.236206,53.669171,2024-06-26 01:34:00,2024-06-26 01:34:00,2024-06-26 01:39:00,2024-06-26 01:39:00,5,5
11,7933665795874796417-2406260038-5,RB13,Ingolstadt Hbf|Brunnen(Oberbay)|Schrobenhausen|Radersdorf,8000452,5,Aichach,Bayern,Aichach,86551,11.122721,48.461117,2024-06-26 01:08:00,2024-06-26 01:09:00,2024-06-26 01:08:00,2024-06-26 01:09:00,0,0
12,959474257007241311-2406260024-13,1,Frankfurt(Oder)|Frankfurt(Oder)-Rosengarten|Pillgram|Jacobsdorf(Mark)|Briesen(Mark)|Berkenbrück|Fürstenwalde(Spree)|Hangelsberg|Fangschleuse|Erkner|Berlin Ostkreuz|Berlin Ostbahnhof,8011155,3,Alexanderplatz,Berlin,Berlin,10179,13.410961,52.521481,2024-06-26 01:33:00,2024-06-26 01:34:00,2024-06-26 01:33:00,2024-06-26 01:34:00,0,0
13,-8761881508899340400-2406260008-12,2,Nauen|Brieselang|Finkenkrug|Falkensee|Seegefeld|Albrechtshof|Berlin-Spandau|Berlin-Charlottenburg|Berlin Zoologischer Garten|Berlin Hbf|Berlin Friedrichstraße,8011155,3,Alexanderplatz,Berlin,Berlin,10179,13.410961,52.521481,2024-06-26 00:59:00,2024-06-26 01:00:00,2024-06-26 01:09:00,2024-06-26 01:10:00,10,10
14,2426968161302299329-2406260136-5,8,Berlin-Charlottenburg|Berlin Zoologischer Garten|Berlin Hbf|Berlin Friedrichstraße,8011155,3,Alexanderplatz,Berlin,Berlin,10179,13.410961,52.521481,2024-06-26 01:53:00,2024-06-26 01:54:00,2024-06-26 01:53:00,2024-06-26 01:54:00,0,0
15,7144876971925539327-2406260045-4,8,Schönefeld(bei Berlin)|Berlin Ostkreuz|Berlin Ostbahnhof,8011155,3,Alexanderplatz,Berlin,Berlin,10179,13.410961,52.521481,2024-06-26 01:06:00,2024-06-26 01:07:00,2024-06-26 01:08:00,2024-06-26 01:09:00,2,2
16,6055223673524961292-2406260116-4,,Schönefeld(bei Berlin)|Berlin Ostkreuz|Berlin Ostbahnhof,8011155,3,Alexanderplatz,Berlin,Berlin,10179,13.410961,52.521481,2024-06-26 01:39:00,2024-06-26 01:40:00,,,0,0
17,-1430869917883125442-2406252318-21,7,Dessau Hbf|Roßlau(Elbe)|Jeber-Bergfrieden|Medewitz(Mark)|Wiesenburg(Mark)|Bad Belzig|Baitz|Brück(Mark)|Borkheide|Beelitz-Heilstätten|Seddin|Michendorf|Wilhelmshorst|Potsdam-Rehbrücke|Potsdam Medienstadt Babelsberg|Berlin-Wannsee|Berlin-Charlottenburg|Berlin Zoologischer Garten|Berlin Hbf|Berlin Friedrichstraße,8011155,3,Alexanderplatz,Berlin,Berlin,10179,13.410961,52.521481,2024-06-26 01:04:00,2024-06-26 01:05:00,2024-06-26 01:14:00,2024-06-26 01:15:00,10,10
18,58133983524038883-2406252321-24,1,Magdeburg Hbf|Magdeburg-Neustadt|Magdeburg Herrenkrug|Biederitz|Gerwisch|Möser|Burg(Magdeburg)|Güsen(b Genthin)|Genthin|Wusterwitz|Kirchmöser|Brandenburg Hbf|Götz|Groß Kreutz|Werder(Havel)|Potsdam Park Sanssouci|Potsdam Charlottenhof|Potsdam Hbf|Berlin-Wannsee|Berlin-Charlottenburg|Berlin Zoologischer Garten|Berlin Hbf|Berlin Friedrichstraße,8011155,3,Alexanderplatz,Berlin,Berlin,10179,13.410961,52.521481,2024-06-26 01:28:00,2024-06-26 01:29:00,2024-06-26 01:28:00,2024-06-26 01:29:00,0,0
19,4346766074398403982-2406260038-10,S6,Engen|Welschingen-Neuhausen|Mühlhausen(b Engen)|Singen Landesgartenschau|Singen(Hohentwiel)|Singen Industriegebiet|Böhringen-Rickelshausen|Radolfzell|Markelfingen,8000496,5,Allensbach,Baden-Württemberg,Allensbach,78476,9.068852,47.714464,2024-06-26 01:10:00,2024-06-26 01:10:00,2024-06-26 01:10:00,2024-06-26 01:10:00,0,0
20,-8304442680762532771-2406260016-24,1,Herrenberg|Nufringen|Gärtringen|Ehningen(b Böblingen)|Hulb|Böblingen|Goldberg(Württ)|Stuttgart-Rohr|Stuttgart-Vaihingen|Stuttgart-Österfeld|Stuttgart Universität|Stuttgart Schwabstr.|Stuttgart Feuersee|Stuttgart Stadtmitte|Stuttgart Hbf (tief)|Stuttgart-Bad Cannstatt|Stuttgart Neckarpark|Stuttgart-Untertürkheim|Stuttgart-Obertürkheim|Esslingen-Mettingen|Esslingen(Neckar)|Oberesslingen|Esslingen-Zell,8000508,3,Altbach,Baden-Württemberg,Altbach,73776,9.382384,48.720393,2024-06-26 01:19:00,2024-06-26 01:19:00,2024-06-26 01:19:00,2024-06-26 01:20:00,0,1
21,6949461116673936261-2406260018-26,9,Berlin-Spandau (S)|Berlin-Stresow|Berlin-Pichelsberg|Berlin Olympiastadion|Berlin Heerstraße|Berlin Messe Süd (Eichkamp)|Berlin Westkreuz|Berlin Charlottenburg (S)|Berlin Savignyplatz|Berlin Zoologischer Garten (S)|Berlin-Tiergarten|Berlin Bellevue|Berlin Hbf (S-Bahn)|Berlin Friedrichstraße (S)|Berlin Hackescher Markt|Berlin Alexanderplatz (S)|Berlin Jannowitzbrücke|Berlin Ostbahnhof (S)|Berlin Warschauer Straße|Berlin Treptower Park|Berlin Plänterwald|Berlin Baumschulenweg|Berlin-Schöneweide (S)|Berlin-Johannisthal|Berlin-Adlershof,8089054,4,Altglienicke,Berlin,Berlin,12524,13.558753,52.407299,2024-06-26 01:22:00,2024-06-26 01:23:00,2024-06-26 01:22:00,2024-06-26 01:23:00,0,0
22,7765377771500935247-2406260129-5,9,Flughafen BER (S-Bahn)|Waßmannsdorf|Schönefeld(bei Berlin)|Berlin Grünbergallee,8089054,4,Altglienicke,Berlin,Berlin,12524,13.558753,52.407299,2024-06-26 01:43:00,2024-06-26 01:43:00,,,0,0
23,-2631771163868660921-2406260049-5,9,Flughafen BER (S-Bahn)|Waßmannsdorf|Schönefeld(bei Berlin)|Berlin Grünbergallee,8089054,4,Altglienicke,Berlin,Berlin,12524,13.558753,52.407299,2024-06-26 01:03:00,2024-06-26 01:03:00,2024-06-26 01:03:00,2024-06-26 01:03:00,0,0
24,3419072004785619222-2406252358-26,9,Berlin-Spandau (S)|Berlin-Stresow|Berlin-Pichelsberg|Berlin Olympiastadion|Berlin Heerstraße|Berlin Messe Süd (Eichkamp)|Berlin Westkreuz|Berlin Charlottenburg (S)|Berlin Savignyplatz|Berlin Zoologischer Garten (S)|Berlin-Tiergarten|Berlin Bellevue|Berlin Hbf (S-Bahn)|Berlin Friedrichstraße (S)|Berlin Hackescher Markt|Berlin Alexanderplatz (S)|Berlin Jannowitzbrücke|Berlin Ostbahnhof (S)|Berlin Warschauer Straße|Berlin Treptower Park|Berlin Plänterwald|Berlin Baumschulenweg|Berlin-Schöneweide (S)|Berlin-Johannisthal|Berlin-Adlershof,8089054,4,Altglienicke,Berlin,Berlin,12524,13.558753,52.407299,2024-06-26 01:02:00,2024-06-26 01:03:00,2024-06-26 01:02:00,2024-06-26 01:03:00,0,0
25,-533531156845230720-2406260109-5,9,Flughafen BER (S-Bahn)|Waßmannsdorf|Schönefeld(bei Berlin)|Berlin Grünbergallee,8089054,4,Altglienicke,Berlin,Berlin,12524,13.558753,52.407299,2024-06-26 01:23:00,2024-06-26 01:23:00,2024-06-26 01:23:00,2024-06-26 01:23:00,0,0
26,-3651380486372699093-2406260038-26,9,Berlin-Spandau (S)|Berlin-Stresow|Berlin-Pichelsberg|Berlin Olympiastadion|Berlin Heerstraße|Berlin Messe Süd (Eichkamp)|Berlin Westkreuz|Berlin Charlottenburg (S)|Berlin Savignyplatz|Berlin Zoologischer Garten (S)|Berlin-Tiergarten|Berlin Bellevue|Berlin Hbf (S-Bahn)|Berlin Friedrichstraße (S)|Berlin Hackescher Markt|Berlin Alexanderplatz (S)|Berlin Jannowitzbrücke|Berlin Ostbahnhof (S)|Berlin Warschauer Straße|Berlin Treptower Park|Berlin Plänterwald|Berlin Baumschulenweg|Berlin-Schöneweide (S)|Berlin-Johannisthal|Berlin-Adlershof,8089054,4,Altglienicke,Berlin,Berlin,12524,13.558753,52.407299,2024-06-26 01:42:00,2024-06-26 01:43:00,2024-06-26 01:42:00,2024-06-26 01:43:00,0,0
27,2060067057683542188-2406260022-7,,Nürnberg Hbf|Hersbruck(r Pegnitz)|Hartmannshof|Etzelwang|Neukirchen(b Sulzb)|Sulzbach-Rosenberg,8000566,5,Amberg,Bayern,Amberg,92224,11.862902,49.447616,2024-06-26 01:11:00,,2024-06-26 01:29:00,,18,0
28,-2491163276465116170-2406252338-21,26,Köln/Bonn Flughafen|Köln Messe/Deutz|Köln Hbf|Köln West|Köln Süd|Hürth-Kalscheuren|Brühl|Sechtem|Roisdorf|Bonn Hbf|Bonn UN Campus|Bonn-Bad Godesberg|Bonn-Mehlem|Rolandseck|Oberwinter|Remagen|Sinzig(Rhein)|Bad Breisig|Brohl|Namedy,8000331,3,Andernach,Rheinland-Pfalz,Andernach,56626,7.404839,50.434542,2024-06-26 01:12:00,2024-06-26 01:12:00,2024-06-26 01:18:00,2024-06-26 01:18:00,6,6
29,-3613420878774246687-2406260104-3,33,Krefeld Hbf|Forsthaus,8000584,5,Anrath,Nordrhein-Westfalen,Willich,47877,6.45023,51.285536,2024-06-26 01:11:00,2024-06-26 01:12:00,2024-06-26 01:11:00,2024-06-26 01:12:00,0,0
30,-5037474101367124963-2406252352-5,,Nürnberg Hbf|Roßtal|Heilsbronn|Wicklesgreuth,8000009,3,Ansbach,Bayern,Ansbach,91522,10.578239,49.298032,2024-06-26 01:20:00,,,,0,0
31,7225825561610880920-2406252321-14,,Nürnberg Hbf|Nürnberg-Schweinau|Nürnberg-Stein|Unterasbach|Oberasbach|Anwanden|Roßtal|Roßtal Wegbrücke|Raitersaich|Heilsbronn|Petersaurach Nord|Wicklesgreuth|Sachsen(b Ansbach),8000009,3,Ansbach,Bayern,Ansbach,91522,10.578239,49.298032,2024-06-26 01:08:00,,,,0,0
32,5572673283293918075-2406260006-15,2,Düsseldorf Hbf|Düsseldorf Flughafen|Duisburg Hbf|Mülheim(Ruhr)Hbf|Essen Hbf|Gelsenkirchen Hbf|Wanne-Eickel Hbf|Recklinghausen Süd|Recklinghausen Hbf|Marl-Sinsen|Haltern am See|Sythen|Dülmen|Buldern,8000595,4,Nottuln-Appelhülsen,Nordrhein-Westfalen,Nottuln-Appelhülsen,48301,7.426334,51.892139,2024-06-26 01:37:00,2024-06-26 01:38:00,2024-06-26 01:37:00,2024-06-26 01:38:00,0,0
33,-4918674185185505748-2406260037-8,,Gemünden(Main)|Langenprozelten|Lohr Bahnhof|Partenstein|Heigenbrücken|Laufach|Hösbach,8000010,2,Aschaffenburg Hbf,Bayern,Aschaffenburg,63739,9.143697,49.980557,2024-06-26 01:21:00,,2024-06-26 01:19:00,,-2,0
34,-2061827729431017903-2406260030-16,,Frankfurt(Main)Hbf|Frankfurt(Main)Süd|Frankfurt(Main)Ost|Frankfurt-Mainkur|Maintal West|Maintal Ost|Hanau-Wilhelmsbad|Hanau West|Hanau Hbf|Großauheim(Kr Hanau)|Großkrotzenburg|Kahl(Main)|Dettingen(Main)|Rückersbacher Schlucht|Kleinostheim,8000010,2,Aschaffenburg Hbf,Bayern,Aschaffenburg,63739,9.143697,49.980557,2024-06-26 01:22:00,,2024-06-26 01:22:00,,0,0
35,-268398599806961378-2406260043-4,RE83,Kiel Hbf|Raisdorf|Preetz,8000011,5,Ascheberg (Holst),Schleswig-Holstein,Ascheberg (Holstein),24326,10.339481,54.148462,2024-06-26 01:07:00,2024-06-26 01:08:00,2024-06-26 01:07:00,2024-06-26 01:08:00,0,0
36,-2739961280303132791-2406260109-5,RB84,Kiel Hbf|Kiel-Elmschenhagen|Raisdorf|Preetz,8000011,5,Ascheberg (Holst),Schleswig-Holstein,Ascheberg (Holstein),24326,10.339481,54.148462,2024-06-26 01:37:00,2024-06-26 01:38:00,2024-06-26 01:37:00,2024-06-26 01:38:00,0,0
37,-119862226176940783-2406260028-8,RB84,Lübeck Hbf|Bad Schwartau|Pansdorf|Pönitz(Holst)|Eutin|Bad Malente-Gremsmühlen|Plön,8000011,5,Ascheberg (Holst),Schleswig-Holstein,Ascheberg (Holstein),24326,10.339481,54.148462,2024-06-26 01:19:00,2024-06-26 01:20:00,2024-06-26 01:19:00,2024-06-26 01:20:00,0,0
38,3725444101509632553-2406260106-6,RE83,Lübeck Hbf|Bad Schwartau|Eutin|Bad Malente-Gremsmühlen|Plön,8000011,5,Ascheberg (Holst),Schleswig-Holstein,Ascheberg (Holstein),24326,10.339481,54.148462,2024-06-26 01:49:00,2024-06-26 01:50:00,2024-06-26 01:49:00,2024-06-26 01:50:00,0,0
39,1663809742330442766-2406260100-1,24,,8010009,4,Aschersleben Pbf,Sachsen-Anhalt,Aschersleben,6449,11.465689,51.757122,,2024-06-26 01:00:00,,2024-06-26 01:00:00,0,0
40,-1698506796658915075-2406260113-2,,Winsen(Luhe),8000627,5,Ashausen,Niedersachsen,Stelle,21435,10.145564,53.368693,2024-06-26 01:21:00,,,,0,0
41,7365903133354661246-2406260052-10,5,Stuttgart Schwabstr.|Stuttgart Feuersee|Stuttgart Stadtmitte|Stuttgart Hbf (tief)|Stuttgart Nord|Stuttgart-Feuerbach|Stuttgart-Zuffenhausen|Kornwestheim Pbf|Ludwigsburg,8000630,4,Asperg,Baden-Württemberg,Asperg,71679,9.147797,48.907359,2024-06-26 01:17:00,2024-06-26 01:17:00,2024-06-26 01:16:00,2024-06-26 01:17:00,-1,0
42,3761042435171992115-2406260102-4,RE5,München Hbf Gl.5-10|München Ost|Grafing Bahnhof,8000634,5,Aßling (Oberbay),Bayern,Aßling ,85617,11.993518,47.989491,2024-06-26 01:35:00,2024-06-26 01:36:00,2024-06-26 01:35:00,2024-06-26 01:36:00,0,0
43,3575066401107772387-2406260102-4,RB54,München Hbf Gl.5-10|München Ost|Grafing Bahnhof,8000634,5,Aßling (Oberbay),Bayern,Aßling ,85617,11.993518,47.989491,2024-06-26 01:35:00,2024-06-26 01:36:00,2024-06-26 01:35:00,2024-06-26 01:36:00,0,0
44,-8070014369172118657-2406260040-7,2,Blankenfelde (S)|Mahlow|Berlin-Lichtenrade|Berlin Schichauweg|Berlin Buckower Chaussee|Berlin-Marienfelde,8089003,4,Attilastraße,Berlin,Berlin,12105,13.360951,52.447681,2024-06-26 01:00:00,2024-06-26 01:01:00,2024-06-26 01:01:00,2024-06-26 01:01:00,1,0
45,-1157794301085273758-2406260100-7,2,Blankenfelde (S)|Mahlow|Berlin-Lichtenrade|Berlin Schichauweg|Berlin Buckower Chaussee|Berlin-Marienfelde,8089003,4,Attilastraße,Berlin,Berlin,12105,13.360951,52.447681,2024-06-26 01:20:00,2024-06-26 01:21:00,2024-06-26 01:21:00,2024-06-26 01:22:00,1,1
46,7584548684773334673-2406260043-22,2,Bernau (S)|Bernau-Friedenstal|Zepernick(Bernau)|Röntgental|Berlin-Buch|Berlin-Karow|Berlin-Blankenburg|Berlin-Pankow-Heinersdorf|Berlin-Pankow|Berlin Bornholmer Str.|Berlin Gesundbrunnen(S)|Berlin Humboldthain|Berlin Nordbahnhof|Berlin Oranienburger Straße|Berlin Friedrichstraße (S)|Berlin Brandenburger Tor|Berlin Potsdamer Platz (S)|Berlin Anhalter Bf|Berlin Yorckstr.(S2)|Berlin Südkreuz (S)|Berlin Priesterweg,8089003,4,Attilastraße,Berlin,Berlin,12105,13.360951,52.447681,2024-06-26 01:34:00,2024-06-26 01:35:00,2024-06-26 01:34:00,2024-06-26 01:35:00,0,0
47,1523711802490226836-2406260023-22,2,Bernau (S)|Bernau-Friedenstal|Zepernick(Bernau)|Röntgental|Berlin-Buch|Berlin-Karow|Berlin-Blankenburg|Berlin-Pankow-Heinersdorf|Berlin-Pankow|Berlin Bornholmer Str.|Berlin Gesundbrunnen(S)|Berlin Humboldthain|Berlin Nordbahnhof|Berlin Oranienburger Straße|Berlin Friedrichstraße (S)|Berlin Brandenburger Tor|Berlin Potsdamer Platz (S)|Berlin Anhalter Bf|Berlin Yorckstr.(S2)|Berlin Südkreuz (S)|Berlin Priesterweg,8089003,4,Attilastraße,Berlin,Berlin,12105,13.360951,52.447681,2024-06-26 01:14:00,2024-06-26 01:15:00,2024-06-26 01:17:00,2024-06-26 01:17:00,3,2
48,-2928408064260179161-2406260003-30,,Düren|Merzenich|Buir|Sindorf|Horrem|Frechen-Königsdorf|Köln-Weiden West|Lövenich|Köln-Müngersdorf Technologiepark|Köln-Ehrenfeld|Köln Hansaring|Köln Hbf|Köln Messe/Deutz|Köln Trimbornstr|Köln Frankfurter Straße|Köln/Bonn Flughafen|Porz-Wahn|Spich|Troisdorf|Siegburg/Bonn|Hennef(Sieg)|Hennef im Siegbogen|Blankenberg(Sieg)|Merten(Sieg)|Eitorf|Herchen|Dattenfeld(Sieg)|Schladern(Sieg)|Rosbach(Sieg),8000012,3,Au (Sieg),Nordrhein-Westfalen,Windeck,51570,7.656537,50.773765,2024-06-26 01:51:00,,2024-06-26 01:57:00,,6,0
49,7933665795874796417-2406260038-10,RB13,Ingolstadt Hbf|Brunnen(Oberbay)|Schrobenhausen|Radersdorf|Aichach|Obergriesbach|Dasing|Friedberg(Augsburg)|Augsburg-Hochzoll,8000658,3,Augsburg Haunstetterstraße,Bayern,Augsburg,86161,10.900985,48.355285,2024-06-26 01:31:00,2024-06-26 01:31:00,2024-06-26 01:31:00,2024-06-26 01:31:00,0,0
50,5673424143814683803-2406260046-5,RB67,Mering|Mering-St Afra|Kissing|Augsburg-Hochzoll,8000658,3,Augsburg Haunstetterstraße,Bayern,Augsburg,86161,10.900985,48.355285,2024-06-26 01:04:00,2024-06-26 01:04:00,2024-06-26 01:04:00,2024-06-26 01:04:00,0,0
51,7933665795874796417-2406260038-11,,Ingolstadt Hbf|Brunnen(Oberbay)|Schrobenhausen|Radersdorf|Aichach|Obergriesbach|Dasing|Friedberg(Augsburg)|Augsburg-Hochzoll|Augsburg Haunstetterstraße,8000013,1,Augsburg Hbf,Bayern,Augsburg,86150,10.88557,48.365441,2024-06-26 01:34:00,,2024-06-26 01:34:00,,0,0
52,-9167720142418455719-2406260129-3,,München Hbf|München-Pasing,8000013,1,Augsburg Hbf,Bayern,Augsburg,86150,10.88557,48.365441,2024-06-26 01:59:00,2024-06-26 02:01:00,2024-06-26 01:59:00,2024-06-26 02:01:00,0,0
53,5673424143814683803-2406260046-6,,Mering|Mering-St Afra|Kissing|Augsburg-Hochzoll|Augsburg Haunstetterstraße,8000013,1,Augsburg Hbf,Bayern,Augsburg,86150,10.88557,48.365441,2024-06-26 01:07:00,,2024-06-26 01:07:00,,0,0
54,7933665795874796417-2406260038-9,RB13,Ingolstadt Hbf|Brunnen(Oberbay)|Schrobenhausen|Radersdorf|Aichach|Obergriesbach|Dasing|Friedberg(Augsburg),8000661,3,Augsburg-Hochzoll,Bayern,Augsburg,86163,10.943376,48.352977,2024-06-26 01:27:00,2024-06-26 01:27:00,2024-06-26 01:27:00,2024-06-26 01:27:00,0,0
55,5673424143814683803-2406260046-4,RB67,Mering|Mering-St Afra|Kissing,8000661,3,Augsburg-Hochzoll,Bayern,Augsburg,86163,10.943376,48.352977,2024-06-26 01:00:00,2024-06-26 01:01:00,2024-06-26 00:59:00,2024-06-26 01:01:00,-1,0
56,5179437117536276202-2406260032-16,,Hamburg-Altona(S)|Hamburg Holstenstraße|Hamburg-Sternschanze|Hamburg Dammtor|Hamburg Hbf (S-Bahn)|Hamburg Berliner Tor|Hamburg-Rothenburgsort|Hamburg-Tiefstack|Hamburg Billwerder-Moorfleet|Hamburg Mittlerer Landweg|Hamburg-Allermöhe|Hamburg-Nettelnburg|Hamburg-Bergedorf|Reinbek|Wohltorf,8000669,4,Aumühle,Schleswig-Holstein,Aumühle,21521,10.314672,53.529853,2024-06-26 01:16:00,,2024-06-26 01:16:00,,0,0
57,-30606238688898510-2406260101-2,7,Potsdam Hbf (S),8080070,4,Babelsberg,Brandenburg,Potsdam,14482,13.092871,52.391391,2024-06-26 01:04:00,2024-06-26 01:04:00,2024-06-26 01:04:00,2024-06-26 01:04:00,0,0
58,-5534965849079604138-2406260031-28,7,Ahrensfelde (S)|Berlin Mehrower Allee|Berlin Raoul-Wallenberg-Str.|Berlin-Marzahn|Berlin Poelchaustr.|Berlin Springpfuhl|Berlin-Friedrichsfelde Ost|Berlin-Lichtenberg (S)|Berlin Nöldnerplatz|Berlin Ostkreuz (S)|Berlin Warschauer Straße|Berlin Ostbahnhof (S)|Berlin Jannowitzbrücke|Berlin Alexanderplatz (S)|Berlin Hackescher Markt|Berlin Friedrichstraße (S)|Berlin Hbf (S-Bahn)|Berlin Bellevue|Berlin-Tiergarten|Berlin Zoologischer Garten (S)|Berlin Savignyplatz|Berlin Charlottenburg (S)|Berlin Westkreuz|Berlin-Grunewald|Berlin-Nikolassee|Berlin-Wannsee (S)|Potsdam Griebnitzsee (S),8080070,4,Babelsberg,Brandenburg,Potsdam,14482,13.092871,52.391391,2024-06-26 01:40:00,2024-06-26 01:40:00,2024-06-26 01:40:00,2024-06-26 01:40:00,0,0
59,8783116678913773719-2406252351-28,7,Ahrensfelde (S)|Berlin Mehrower Allee|Berlin Raoul-Wallenberg-Str.|Berlin-Marzahn|Berlin Poelchaustr.|Berlin Springpfuhl|Berlin-Friedrichsfelde Ost|Berlin-Lichtenberg (S)|Berlin Nöldnerplatz|Berlin Ostkreuz (S)|Berlin Warschauer Straße|Berlin Ostbahnhof (S)|Berlin Jannowitzbrücke|Berlin Alexanderplatz (S)|Berlin Hackescher Markt|Berlin Friedrichstraße (S)|Berlin Hbf (S-Bahn)|Berlin Bellevue|Berlin-Tiergarten|Berlin Zoologischer Garten (S)|Berlin Savignyplatz|Berlin Charlottenburg (S)|Berlin Westkreuz|Berlin-Grunewald|Berlin-Nikolassee|Berlin-Wannsee (S)|Potsdam Griebnitzsee (S),8080070,4,Babelsberg,Brandenburg,Potsdam,14482,13.092871,52.391391,2024-06-26 01:00:00,2024-06-26 01:00:00,2024-06-26 01:01:00,2024-06-26 01:02:00,1,2
60,-4827287623827181677-2406260011-28,7,Ahrensfelde (S)|Berlin Mehrower Allee|Berlin Raoul-Wallenberg-Str.|Berlin-Marzahn|Berlin Poelchaustr.|Berlin Springpfuhl|Berlin-Friedrichsfelde Ost|Berlin-Lichtenberg (S)|Berlin Nöldnerplatz|Berlin Ostkreuz (S)|Berlin Warschauer Straße|Berlin Ostbahnhof (S)|Berlin Jannowitzbrücke|Berlin Alexanderplatz (S)|Berlin Hackescher Markt|Berlin Friedrichstraße (S)|Berlin Hbf (S-Bahn)|Berlin Bellevue|Berlin-Tiergarten|Berlin Zoologischer Garten (S)|Berlin Savignyplatz|Berlin Charlottenburg (S)|Berlin Westkreuz|Berlin-Grunewald|Berlin-Nikolassee|Berlin-Wannsee (S)|Potsdam Griebnitzsee (S),8080070,4,Babelsberg,Brandenburg,Potsdam,14482,13.092871,52.391391,2024-06-26 01:20:00,2024-06-26 01:20:00,2024-06-26 01:20:00,,0,0
61,3577137434825491602-2406260121-2,7,Potsdam Hbf (S),8080070,4,Babelsberg,Brandenburg,Potsdam,14482,13.092871,52.391391,2024-06-26 01:24:00,2024-06-26 01:24:00,,,0,0
62,2833191678718418848-2406260141-2,7,Potsdam Hbf (S),8080070,4,Babelsberg,Brandenburg,Potsdam,14482,13.092871,52.391391,2024-06-26 01:44:00,2024-06-26 01:44:00,,,0,0
63,-1026300521424850676-2406260100-18,,Stuttgart-Vaihingen|Stuttgart-Österfeld|Stuttgart Universität|Stuttgart Schwabstr.|Stuttgart Feuersee|Stuttgart Stadtmitte|Stuttgart Hbf (tief)|Stuttgart-Bad Cannstatt|Stuttgart Nürnberger Str.|Stuttgart-Sommerrain|Fellbach|Waiblingen|Neustadt-Hohenacker|Schwaikheim|Winnenden|Nellmersbach|Maubach,8000016,3,Backnang,Baden-Württemberg,Backnang,71522,9.425989,48.942676,2024-06-26 01:48:00,,2024-06-26 01:48:00,,0,0
64,8783147669502223203-2406260030-18,,Stuttgart-Vaihingen|Stuttgart-Österfeld|Stuttgart Universität|Stuttgart Schwabstr.|Stuttgart Feuersee|Stuttgart Stadtmitte|Stuttgart Hbf (tief)|Stuttgart-Bad Cannstatt|Stuttgart Nürnberger Str.|Stuttgart-Sommerrain|Fellbach|Waiblingen|Neustadt-Hohenacker|Schwaikheim|Winnenden|Nellmersbach|Maubach,8000016,3,Backnang,Baden-Württemberg,Backnang,71522,9.425989,48.942676,2024-06-26 01:18:00,,2024-06-26 01:18:00,,0,0
65,-6343647441292652630-2406260033-9,RB31,Hamburg Hbf|Hamburg-Harburg|Meckelfeld|Maschen|Stelle|Winsen(Luhe)|Lüneburg|Bienenbüttel,8000935,5,Bad Bevensen,Niedersachsen,Bad Bevensen,29549,10.574141,53.078247,2024-06-26 01:37:00,2024-06-26 01:37:00,2024-06-26 01:44:00,2024-06-26 01:44:00,7,7
66,-2491163276465116170-2406252338-18,26,Köln/Bonn Flughafen|Köln Messe/Deutz|Köln Hbf|Köln West|Köln Süd|Hürth-Kalscheuren|Brühl|Sechtem|Roisdorf|Bonn Hbf|Bonn UN Campus|Bonn-Bad Godesberg|Bonn-Mehlem|Rolandseck|Oberwinter|Remagen|Sinzig(Rhein),8000694,5,Bad Breisig,Rheinland-Pfalz,Bad Breisig,53498,7.304564,50.504218,2024-06-26 01:02:00,2024-06-26 01:02:00,2024-06-26 01:02:00,2024-06-26 01:02:00,0,0
67,6159559709713070422-2406260029-7,22,Frankfurt(Main)Hbf|Frankfurt-Höchst|Hofheim(Taunus)|Niedernhausen(Taunus)|Idstein(Taunus)|Wörsdorf,8001322,5,Bad Camberg,Hessen,Bad Camberg,65520,8.255036,50.296433,2024-06-26 01:16:00,2024-06-26 01:17:00,2024-06-26 01:19:00,2024-06-26 01:20:00,3,3
68,-7467845848422281998-2406260010-7,10a,Mannheim Hbf|Mannheim ARENA/Maimarkt|Heidelberg Hbf|Neckargemünd|Eberbach|Mosbach-Neckarelz,8000017,3,Bad Friedrichshall Hbf,Baden-Württemberg,Bad Friedrichshall,74177,9.199771,49.231571,2024-06-26 01:16:00,2024-06-26 01:16:00,2024-06-26 01:16:00,2024-06-26 01:16:00,0,0
69,-641766815198348028-2406252348-9,,Hannover Hbf|Sarstedt|Hildesheim Hbf|Hildesheim Ost|Derneburg(Han)|Baddeckenstedt|Salzgitter-Ringelheim|Goslar,8000019,4,Bad Harzburg,Niedersachsen,Bad Harzburg,38667,10.5542189,51.8883687,2024-06-26 01:08:00,,2024-06-26 01:14:00,,6,0
70,5588128401731872656-2406260011-13,,Kassel Hbf|Kassel-Wilhelmshöhe|Guxhagen|Melsungen|Malsfeld|Malsfeld-Beiseförth|Altmorschen|Heinebach|Rotenburg a.d. Fulda|Lispenhausen|Bebra|Ludwigsau-Friedlos,8000020,3,Bad Hersfeld,Hessen,Bad Hersfeld,36251,9.716182,50.869632,2024-06-26 01:10:00,,2024-06-26 01:10:00,,0,0
71,-2320340282101811304-2406252043-11,,München Hbf|München-Pasing|Augsburg Hbf|Günzburg|Ulm Hbf|Stuttgart Hbf|Mannheim Hbf|Frankfurt(Main)Hbf|Hanau Hbf|Fulda,8000020,3,Bad Hersfeld,Hessen,Bad Hersfeld,36251,9.716182,50.869632,2024-06-26 01:46:00,2024-06-26 01:48:00,2024-06-26 01:51:00,2024-06-26 01:52:00,5,4
72,5953860763287999654-2406260043-15,5,Frankfurt(Main)Süd|Frankfurt(M)Lokalbahnhof|Frankfurt(M)Ostendstraße|Frankfurt(M)Konstablerwache|Frankfurt(M)Hauptwache|Frankfurt(M)Taunusanlage|Frankfurt Hbf (tief)|Frankfurt(M)Galluswarte|Frankfurt(Main)Messe|Frankfurt(Main)West|Frankfurt-Rödelheim|Oberursel-Weißkirchen/Steinbach|Oberursel-Stierstadt|Oberursel(Taunus),8000712,3,Bad Homburg,Hessen,Bad Homburg,61352,8.620624,50.219904,2024-06-26 01:15:00,2024-06-26 01:15:00,2024-06-26 01:15:00,2024-06-26 01:16:00,0,1
73,-402133398110138952-2406260113-15,5,Frankfurt(Main)Süd|Frankfurt(M)Lokalbahnhof|Frankfurt(M)Ostendstraße|Frankfurt(M)Konstablerwache|Frankfurt(M)Hauptwache|Frankfurt(M)Taunusanlage|Frankfurt Hbf (tief)|Frankfurt(M)Galluswarte|Frankfurt(Main)Messe|Frankfurt(Main)West|Frankfurt-Rödelheim|Oberursel-Weißkirchen/Steinbach|Oberursel-Stierstadt|Oberursel(Taunus),8000712,3,Bad Homburg,Hessen,Bad Homburg,61352,8.620624,50.219904,2024-06-26 01:45:00,2024-06-26 01:45:00,2024-06-26 01:45:00,2024-06-26 01:45:00,0,0
74,1262206565078214234-2406260118-4,27,Niederdollendorf|Königswinter|Rhöndorf,8000713,5,Bad Honnef (Rhein),Nordrhein-Westfalen,Bad Honnef,53604,7.219533,50.639772,2024-06-26 01:26:00,2024-06-26 01:26:00,2024-06-26 01:26:00,2024-06-26 01:26:00,0,0
75,-8957090459092905251-2406252303-11,,Kaiserslautern Hbf|Enkenbach|Münchweiler(Alsenz)|Winnweiler|Imsweiler|Rockenhausen|Alsenz|Hochstätten(Pfalz)|Altenbamberg|Bad Münster a Stein,8000021,3,Bad Kreuznach,Rheinland-Pfalz,Bad Kreuznach,55543,7.866435,49.842399,2024-06-26 01:11:00,,2024-06-26 01:11:00,,0,0
76,-1726911153745646936-2406260044-4,,Gau Algesheim|Ockenheim|Gensingen-Horrweiler,8000021,3,Bad Kreuznach,Rheinland-Pfalz,Bad Kreuznach,55543,7.866435,49.842399,2024-06-26 01:18:00,,2024-06-26 01:18:00,,0,0
77,-3652958189301705754-2406260036-18,5,Hannover Flughafen|Langenhagen Pferdemarkt|Langenhagen Mitte|Hannover-Vinnhorst|Hannover-Ledeburg|Hannover-Nordstadt|Hannover Hbf|Hannover Bismarckstr.|Hannover-Linden/Fischerhof|Hannover-Bornum|Empelde|Ronnenberg|Weetzen|Holtensen/Linderte|Bennigsen|Völksen/Eldagsen|Springe,8000725,5,Bad Münder (Deister),Niedersachsen,Bad Münder am Deister,31848,9.468062,52.178192,2024-06-26 01:35:00,2024-06-26 01:36:00,2024-06-26 01:35:00,2024-06-26 01:36:00,0,0
78,-8957090459092905251-2406252303-10,RB65,Kaiserslautern Hbf|Enkenbach|Münchweiler(Alsenz)|Winnweiler|Imsweiler|Rockenhausen|Alsenz|Hochstätten(Pfalz)|Altenbamberg,8000726,4,Bad Münster am Stein,Rheinland-Pfalz,Bad Münster am Stein,55583,7.846989,49.813426,2024-06-26 01:01:00,2024-06-26 01:01:00,2024-06-26 01:01:00,2024-06-26 01:01:00,0,0
79,-3820337994096706162-2406260033-9,RB41,Frankfurt(Main)Hbf|Hanau Hbf|Hanau Nord|Bruchköbel|Ostheim(Kr Hanau)|Nidderau|Assenheim(Oberhess)|Friedberg(Hess),8000728,4,Bad Nauheim,Hessen,Bad Nauheim,61231,8.749334,50.367904,2024-06-26 01:21:00,2024-06-26 01:22:00,2024-06-26 01:21:00,2024-06-26 01:22:00,0,0
80,7540039806208816486-2406260033-15,1,Hannover Hbf|Hannover Bismarckstr.|Hannover-Linden/Fischerhof|Hannover-Bornum|Empelde|Ronnenberg|Weetzen|Lemmie|Wennigsen(Deister)|Egestorf(Deister)|Kirchdorf(Deister)|Barsinghausen|Winninghausen|Bantorf,8000022,5,Bad Nenndorf,Niedersachsen,Bad Nenndorf,31542,9.378603,52.343735,2024-06-26 01:17:00,2024-06-26 01:17:00,,,0,0
81,-2931579395362521098-2406260106-2,8,Hamburg Hbf,8000023,2,Bad Oldesloe,Schleswig-Holstein,Bad Oldesloe,23843,10.3825414,53.8053902,2024-06-26 01:31:00,2024-06-26 01:32:00,2024-06-26 01:30:00,2024-06-26 01:32:00,-1,0
82,5333897063650581591-2406260137-1,RB82,,8000023,2,Bad Oldesloe,Schleswig-Holstein,Bad Oldesloe,23843,10.3825414,53.8053902,,2024-06-26 01:37:00,,2024-06-26 01:37:00,0,0
83,538157062847829178-2406260037-10,,Neumünster|Neumünster Süd AKN|Rickling|Wahlstedt|Fahrenkrug|Bad Segeberg|Altengörs|Wakendorf|Fresenburg,8000023,2,Bad Oldesloe,Schleswig-Holstein,Bad Oldesloe,23843,10.3825414,53.8053902,2024-06-26 01:21:00,,2024-06-26 01:21:00,,0,0
84,-3953708139935826553-2406260034-9,8,Lübeck-Travemünde Strand|Lübeck-Travemünde Hafen|Lübeck-Travem. Skandinavienkai|Lübeck-Kücknitz|Lübeck-Dänischburg IKEA|Lübeck Hbf|Lübeck-Moisling|Reinfeld(Holst),8000023,2,Bad Oldesloe,Schleswig-Holstein,Bad Oldesloe,23843,10.3825414,53.8053902,2024-06-26 01:28:00,2024-06-26 01:29:00,2024-06-26 01:27:00,2024-06-26 01:29:00,-1,0
85,-1881388066381007099-2406260104-5,,Ahrensburg|Ahrensburg-Gartenholz|Bargteheide|Kupfermühle,8000023,2,Bad Oldesloe,Schleswig-Holstein,Bad Oldesloe,23843,10.3825414,53.8053902,2024-06-26 01:23:00,,2024-06-26 01:23:00,,0,0
86,2274326711152863997-2406252301-28,3,Kaiserslautern Hbf|Hochspeyer|Frankenstein(Pfalz)|Weidenthal|Neidenfels|Lambrecht(Pfalz)|Neustadt(Weinstr)Hbf|Neustadt-Böbig|Haßloch(Pfalz)|Böhl-Iggelheim|Schifferstadt|Limburgerhof|Ludwigshafen-Rheingönheim|Ludwigshafen-Mundenheim|Ludwigshafen(Rh)Hbf|Ludwigshafen(Rhein) Mitte|Mannheim Hbf|Mannheim ARENA/Maimarkt|Mannheim-Seckenheim|Mannheim-Friedrichsfeld Süd|Heidelberg-Pfaffengrund/Wieblingen|Heidelberg Hbf|Heidelberg-Kirchheim/Rohrbach|St Ilgen-Sandhausen|Wiesloch-Walldorf|Rot-Malsch|Bad Schönborn-Kronau,8003533,4,Bad Schönborn Süd,Baden-Württemberg,Bad Schönborn,76669,8.641924,49.200001,2024-06-26 01:02:00,2024-06-26 01:03:00,2024-06-26 01:05:00,2024-06-26 01:05:00,3,2
87,2607590895602196168-2406260115-6,85,Neustadt(Holst)|Sierksdorf|Haffkrug|Scharbeutz|Timmendorfer Strand,8000749,5,Bad Schwartau,Schleswig-Holstein,Bad Schwartau,23611,10.702722,53.916276,2024-06-26 01:42:00,2024-06-26 01:42:00,2024-06-26 01:42:00,2024-06-26 01:42:00,0,0
88,-268398599806961378-2406260043-8,RE83,Kiel Hbf|Raisdorf|Preetz|Ascheberg(Holst)|Plön|Bad Malente-Gremsmühlen|Eutin,8000749,5,Bad Schwartau,Schleswig-Holstein,Bad Schwartau,23611,10.702722,53.916276,2024-06-26 01:47:00,2024-06-26 01:47:00,2024-06-26 01:47:00,2024-06-26 01:47:00,0,0
89,-527291053674496399-2406260005-11,RB84,Kiel Hbf|Kiel-Elmschenhagen|Raisdorf|Preetz|Ascheberg(Holst)|Plön|Bad Malente-Gremsmühlen|Eutin|Pönitz(Holst)|Pansdorf,8000749,5,Bad Schwartau,Schleswig-Holstein,Bad Schwartau,23611,10.702722,53.916276,2024-06-26 01:25:00,2024-06-26 01:25:00,2024-06-26 01:25:00,2024-06-26 01:25:00,0,0
90,3725444101509632553-2406260106-2,RE83,Lübeck Hbf,8000749,5,Bad Schwartau,Schleswig-Holstein,Bad Schwartau,23611,10.702722,53.916276,2024-06-26 01:11:00,2024-06-26 01:12:00,2024-06-26 01:11:00,2024-06-26 01:12:00,0,0
91,1643065743470394396-2406260005-29,,Darmstadt Hbf|Darmstadt-Arheilgen|Darmstadt-Wixhausen|Erzhausen|Egelsbach|Langen(Hess)|Langen-Flugsicherung|Dreieich-Buchschlag|Neu-Isenburg|Frankfurt-Louisa|Frankfurt(M)Stresemannallee|Frankfurt(Main)Süd|Frankfurt(M)Lokalbahnhof|Frankfurt(M)Ostendstraße|Frankfurt(M)Konstablerwache|Frankfurt(M)Hauptwache|Frankfurt(M)Taunusanlage|Frankfurt Hbf (tief)|Frankfurt(M)Galluswarte|Frankfurt(Main)Messe|Frankfurt(Main)West|Frankfurt-Rödelheim|Eschborn Süd|Eschborn|Niederhöchstadt|Schwalbach(Taunus)Nord|Schwalbach(Taunus)Limes|Sulzbach(Taunus)Nord,8000752,5,Bad Soden (Taunus),Hessen,Bad Soden (Taunus),65812,8.50442648,50.1429607,2024-06-26 01:09:00,,2024-06-26 01:09:00,,0,0
92,601626001908116179-2406260035-29,,Darmstadt Hbf|Darmstadt-Arheilgen|Darmstadt-Wixhausen|Erzhausen|Egelsbach|Langen(Hess)|Langen-Flugsicherung|Dreieich-Buchschlag|Neu-Isenburg|Frankfurt-Louisa|Frankfurt(M)Stresemannallee|Frankfurt(Main)Süd|Frankfurt(M)Lokalbahnhof|Frankfurt(M)Ostendstraße|Frankfurt(M)Konstablerwache|Frankfurt(M)Hauptwache|Frankfurt(M)Taunusanlage|Frankfurt Hbf (tief)|Frankfurt(M)Galluswarte|Frankfurt(Main)Messe|Frankfurt(Main)West|Frankfurt-Rödelheim|Eschborn Süd|Eschborn|Niederhöchstadt|Schwalbach(Taunus)Nord|Schwalbach(Taunus)Limes|Sulzbach(Taunus)Nord,8000752,5,Bad Soden (Taunus),Hessen,Bad Soden (Taunus),65812,8.50442648,50.1429607,2024-06-26 01:39:00,,2024-06-26 01:39:00,,0,0
93,3567378599338289782-2406260023-15,6,Frankfurt(Main)Süd|Frankfurt(M)Lokalbahnhof|Frankfurt(M)Ostendstraße|Frankfurt(M)Konstablerwache|Frankfurt(M)Hauptwache|Frankfurt(M)Taunusanlage|Frankfurt Hbf (tief)|Frankfurt(M)Galluswarte|Frankfurt(Main)Messe|Frankfurt(Main)West|Frankfurt-Eschersheim|Frankfurt-Frankfurter Berg|Frankfurt-Berkersheim|Bad Vilbel Süd,8000760,3,Bad Vilbel,Hessen,Bad Vilbel,61118,8.73946,50.188677,2024-06-26 01:00:00,2024-06-26 01:01:00,2024-06-26 01:05:00,2024-06-26 01:06:00,5,5
94,2103026705683734524-2406260020-10,8,Hannover Hbf|Wunstorf|Neustadt am Rübenberge|Nienburg(Weser)|Eystrup|Dörverden|Verden(Aller)|Langwedel|Etelsen,8000773,5,Baden (Kr Verden),Niedersachsen,Achim,28832,9.081261,53.007872,2024-06-26 01:29:00,2024-06-26 01:29:00,2024-06-26 01:29:00,2024-06-26 01:29:00,0,0
95,4753870957390372842-2406252134-6,,Zürich HB|Basel SBB|Basel Bad Bf|Freiburg(Breisgau) Hbf|Offenburg,8000774,3,Baden-Baden,Baden-Württemberg,Baden-Baden,76532,8.190831,48.790327,2024-06-26 01:00:00,2024-06-26 01:02:00,2024-06-26 01:04:00,2024-06-26 01:06:00,4,4
96,-6867411594497344878-2406260123-5,44,Bühl(Baden)|Baden-Baden Rebland|Sinzheim|Sinzheim Nord,8000774,3,Baden-Baden,Baden-Württemberg,Baden-Baden,76532,8.190831,48.790327,2024-06-26 01:34:00,2024-06-26 01:36:00,2024-06-26 01:34:00,2024-06-26 01:36:00,0,0
97,8868050453695511606-2406252134-6,,Zürich HB|Basel SBB|Basel Bad Bf|Freiburg(Breisgau) Hbf|Offenburg,8000774,3,Baden-Baden,Baden-Württemberg,Baden-Baden,76532,8.190831,48.790327,2024-06-26 01:00:00,2024-06-26 01:02:00,2024-06-26 01:04:00,2024-06-26 01:06:00,4,4
98,9144496902521920974-2406260030-10,44,Karlsruhe Hbf|Ettlingen West|Bruchhausen(b Ettlingen)|Malsch|Malsch Süd|Muggensturm Badesee|Muggensturm|Rastatt|Baden-Baden Haueneberstein,8000774,3,Baden-Baden,Baden-Württemberg,Baden-Baden,76532,8.190831,48.790327,2024-06-26 00:59:00,2024-06-26 01:00:00,2024-06-26 01:01:00,2024-06-26 01:02:00,2,2
99,5290802653538581573-2406260012-21,1,Neumarkt(Oberpf)|Pölling|Postbauer-Heng|Oberferrieden|Burgthann|Mimberg|Ochenbruck|Feucht Ost|Feucht|Nürnberg Hbf|Nürnberg-Steinbühl|Nürnberg Rothenburger Str.|Fürth(Bay)Hbf|Fürth-Klinikum|Vach|Eltersdorf|Erlangen-Bruck|Erlangen Paul-Gossen-Straße|Erlangen|Bubenreuth,8000783,5,Baiersdorf,Bayern,Baiersdorf,91083,11.036976,49.656147,2024-06-26 01:20:00,2024-06-26 01:20:00,2024-06-26 01:27:00,2024-06-26 01:27:00,7,7
100,2081981143221818074-2406260042-7,6,Ebersberg(Oberbay)|Grafing Stadt|Grafing Bahnhof|Kirchseeon|Eglharting|Zorneding,8000785,5,Baldham,Bayern,Vaterstetten,85598,11.78678,48.099256,2024-06-26 01:05:00,2024-06-26 01:06:00,2024-06-26 01:06:00,2024-06-26 01:07:00,1,1
101,-2418336209701037993-2406260044-29,6,Tutzing|Feldafing|Possenhofen|Starnberg|Starnberg Nord|Gauting|Stockdorf|Planegg|Gräfelfing|Lochham|München-Westkreuz|München-Pasing|München-Laim|München Hirschgarten|München Donnersbergerbrücke|München Hackerbrücke|München Hbf (tief)|München Karlsplatz|München Marienplatz|München Isartor|München Rosenheimer Platz|München Ost|München Leuchtenbergring|München-Berg am Laim|München-Trudering|Gronsdorf|Haar|Vaterstetten,8000785,5,Baldham,Bayern,Vaterstetten,85598,11.78678,48.099256,2024-06-26 01:54:00,2024-06-26 01:54:00,2024-06-26 02:03:00,2024-06-26 02:03:00,9,9
102,8158184367211786705-2406260004-29,6,Tutzing|Feldafing|Possenhofen|Starnberg|Starnberg Nord|Gauting|Stockdorf|Planegg|Gräfelfing|Lochham|München-Westkreuz|München-Pasing|München-Laim|München Hirschgarten|München Donnersbergerbrücke|München Hackerbrücke|München Hbf (tief)|München Karlsplatz|München Marienplatz|München Isartor|München Rosenheimer Platz|München Ost|München Leuchtenbergring|München-Berg am Laim|München-Trudering|Gronsdorf|Haar|Vaterstetten,8000785,5,Baldham,Bayern,Vaterstetten,85598,11.78678,48.099256,2024-06-26 01:14:00,2024-06-26 01:14:00,2024-06-26 01:21:00,2024-06-26 01:22:00,7,8
103,5290802653538581573-2406260012-28,,Neumarkt(Oberpf)|Pölling|Postbauer-Heng|Oberferrieden|Burgthann|Mimberg|Ochenbruck|Feucht Ost|Feucht|Nürnberg Hbf|Nürnberg-Steinbühl|Nürnberg Rothenburger Str.|Fürth(Bay)Hbf|Fürth-Klinikum|Vach|Eltersdorf|Erlangen-Bruck|Erlangen Paul-Gossen-Straße|Erlangen|Bubenreuth|Baiersdorf|Kersbach|Forchheim(Oberfr)|Eggolsheim|Buttenheim|Hirschaid|Strullendorf,8000025,2,Bamberg,Bayern,Bamberg,96052,10.899489,49.900759,2024-06-26 01:49:00,,2024-06-26 01:54:00,,5,0
104,7500668147462712463-2406251913-14,,Wien Hbf|Wien Meidling|St.Pölten Hbf|Linz Hbf|Wels Hbf|Schärding|Passau Hbf|Plattling|Straubing|Regensburg Hbf|Nürnberg Hbf|Fürth(Bay)Hbf|Erlangen,8000025,2,Bamberg,Bayern,Bamberg,96052,10.899489,49.900759,2024-06-26 01:03:00,2024-06-26 01:05:00,2024-06-26 01:16:00,2024-06-26 01:16:00,13,11
105,7540039806208816486-2406260033-14,1,Hannover Hbf|Hannover Bismarckstr.|Hannover-Linden/Fischerhof|Hannover-Bornum|Empelde|Ronnenberg|Weetzen|Lemmie|Wennigsen(Deister)|Egestorf(Deister)|Kirchdorf(Deister)|Barsinghausen|Winninghausen,8000797,5,Bantorf,Niedersachsen,Barsinghausen,30890,9.417771,52.332253,2024-06-26 01:13:00,2024-06-26 01:13:00,2024-06-26 01:15:00,,2,0
106,-1881388066381007099-2406260104-3,81,Ahrensburg|Ahrensburg-Gartenholz,8000804,4,Bargteheide,Schleswig-Holstein,Bargteheide,22941,10.269104,53.7282,2024-06-26 01:12:00,2024-06-26 01:13:00,2024-06-26 01:12:00,2024-06-26 01:13:00,0,0
107,8280588487919002193-2406260056-7,RB81,Hamburg Hasselbrook|Hamburg Wandsbeker Chaussee|Hamburg-Tonndorf|Hamburg-Rahlstedt|Ahrensburg|Ahrensburg-Gartenholz,8000804,4,Bargteheide,Schleswig-Holstein,Bargteheide,22941,10.269104,53.7282,2024-06-26 01:57:00,2024-06-26 01:57:00,2024-06-26 01:59:00,2024-06-26 01:59:00,2,2
108,7540039806208816486-2406260033-12,1,Hannover Hbf|Hannover Bismarckstr.|Hannover-Linden/Fischerhof|Hannover-Bornum|Empelde|Ronnenberg|Weetzen|Lemmie|Wennigsen(Deister)|Egestorf(Deister)|Kirchdorf(Deister),8000812,5,Barsinghausen,Niedersachsen,Barsinghausen,30890,9.467112,52.30489,2024-06-26 01:07:00,2024-06-26 01:07:00,2024-06-26 01:09:00,2024-06-26 01:09:00,2,2
109,-5545992856608576470-2406260058-22,9,Berlin-Spandau (S)|Berlin-Stresow|Berlin-Pichelsberg|Berlin Olympiastadion|Berlin Heerstraße|Berlin Messe Süd (Eichkamp)|Berlin Westkreuz|Berlin Charlottenburg (S)|Berlin Savignyplatz|Berlin Zoologischer Garten (S)|Berlin-Tiergarten|Berlin Bellevue|Berlin Hbf (S-Bahn)|Berlin Friedrichstraße (S)|Berlin Hackescher Markt|Berlin Alexanderplatz (S)|Berlin Jannowitzbrücke|Berlin Ostbahnhof (S)|Berlin Warschauer Straße|Berlin Treptower Park|Berlin Plänterwald,8089004,4,Baumschulenweg,Berlin,Berlin,12437,13.490097,52.467244,2024-06-26 01:47:00,2024-06-26 01:50:00,2024-06-26 01:47:00,2024-06-26 01:50:00,0,0
110,6949461116673936261-2406260018-22,9,Berlin-Spandau (S)|Berlin-Stresow|Berlin-Pichelsberg|Berlin Olympiastadion|Berlin Heerstraße|Berlin Messe Süd (Eichkamp)|Berlin Westkreuz|Berlin Charlottenburg (S)|Berlin Savignyplatz|Berlin Zoologischer Garten (S)|Berlin-Tiergarten|Berlin Bellevue|Berlin Hbf (S-Bahn)|Berlin Friedrichstraße (S)|Berlin Hackescher Markt|Berlin Alexanderplatz (S)|Berlin Jannowitzbrücke|Berlin Ostbahnhof (S)|Berlin Warschauer Straße|Berlin Treptower Park|Berlin Plänterwald,8089004,4,Baumschulenweg,Berlin,Berlin,12437,13.490097,52.467244,2024-06-26 01:07:00,2024-06-26 01:10:00,2024-06-26 01:09:00,2024-06-26 01:10:00,2,0
111,-4119244510780833420-2406260121-9,46,Königs Wusterhausen|Wildau|Zeuthen|Eichwalde|Berlin-Grünau|Berlin-Adlershof|Berlin-Johannisthal|Berlin-Schöneweide (S),8089004,4,Baumschulenweg,Berlin,Berlin,12437,13.490097,52.467244,2024-06-26 01:47:00,2024-06-26 01:48:00,,,0,0
112,-5636514548500096616-2406260105-14,8,Berlin-Blankenburg|Berlin-Pankow-Heinersdorf|Berlin-Pankow|Berlin Bornholmer Str.|Berlin Schönhauser Allee|Berlin Prenzlauer Allee|Berlin Greifswalder Str|Berlin Landsberger Allee|Berlin Storkower Str|Berlin Frankfurter Allee|Berlin Ostkreuz (S)|Berlin Treptower Park|Berlin Plänterwald,8089004,4,Baumschulenweg,Berlin,Berlin,12437,13.490097,52.467244,2024-06-26 01:35:00,2024-06-26 01:35:00,2024-06-26 01:35:00,2024-06-26 01:35:00,0,0
113,-578452750217533255-2406260049-5,8,Berlin-Grünau|Berlin-Adlershof|Berlin-Johannisthal|Berlin-Schöneweide (S),8089004,4,Baumschulenweg,Berlin,Berlin,12437,13.490097,52.467244,2024-06-26 01:00:00,2024-06-26 01:00:00,2024-06-26 01:00:00,2024-06-26 01:00:00,0,0
114,721249698752440196-2406260056-15,46,Berlin Westend|Berlin Messe Nord/ICC (Witzleben)|Berlin Westkreuz|Berlin-Halensee|Berlin Hohenzollerndamm|Berlin Heidelberger Platz|Berlin Bundesplatz|Berlin Innsbrucker Platz|Berlin-Schöneberg|Berlin Südkreuz (S)|Berlin-Tempelhof|Berlin Hermannstraße|Berlin-Neukölln|Berlin Köllnische Heide,8089004,4,Baumschulenweg,Berlin,Berlin,12437,13.490097,52.467244,2024-06-26 01:26:00,2024-06-26 01:28:00,2024-06-26 01:26:00,2024-06-26 01:28:00,0,0
115,7765377771500935247-2406260129-9,9,Flughafen BER (S-Bahn)|Waßmannsdorf|Schönefeld(bei Berlin)|Berlin Grünbergallee|Berlin-Altglienicke|Berlin-Adlershof|Berlin-Johannisthal|Berlin-Schöneweide (S),8089004,4,Baumschulenweg,Berlin,Berlin,12437,13.490097,52.467244,2024-06-26 01:55:00,2024-06-26 01:56:00,,,0,0
116,5289516065653869156-2406260045-14,8,Berlin-Blankenburg|Berlin-Pankow-Heinersdorf|Berlin-Pankow|Berlin Bornholmer Str.|Berlin Schönhauser Allee|Berlin Prenzlauer Allee|Berlin Greifswalder Str|Berlin Landsberger Allee|Berlin Storkower Str|Berlin Frankfurter Allee|Berlin Ostkreuz (S)|Berlin Treptower Park|Berlin Plänterwald,8089004,4,Baumschulenweg,Berlin,Berlin,12437,13.490097,52.467244,2024-06-26 01:15:00,2024-06-26 01:15:00,2024-06-26 01:19:00,2024-06-26 01:19:00,4,4
117,-2631771163868660921-2406260049-9,9,Flughafen BER (S-Bahn)|Waßmannsdorf|Schönefeld(bei Berlin)|Berlin Grünbergallee|Berlin-Altglienicke|Berlin-Adlershof|Berlin-Johannisthal|Berlin-Schöneweide (S),8089004,4,Baumschulenweg,Berlin,Berlin,12437,13.490097,52.467244,2024-06-26 01:15:00,2024-06-26 01:16:00,2024-06-26 01:15:00,2024-06-26 01:16:00,0,0
118,8762654801015975204-2406260116-15,46,Berlin Westend|Berlin Messe Nord/ICC (Witzleben)|Berlin Westkreuz|Berlin-Halensee|Berlin Hohenzollerndamm|Berlin Heidelberger Platz|Berlin Bundesplatz|Berlin Innsbrucker Platz|Berlin-Schöneberg|Berlin Südkreuz (S)|Berlin-Tempelhof|Berlin Hermannstraße|Berlin-Neukölln|Berlin Köllnische Heide,8089004,4,Baumschulenweg,Berlin,Berlin,12437,13.490097,52.467244,2024-06-26 01:46:00,2024-06-26 01:48:00,2024-06-26 01:46:00,2024-06-26 01:48:00,0,0
119,-8504069274002745310-2406260036-15,46,Berlin Westend|Berlin Messe Nord/ICC (Witzleben)|Berlin Westkreuz|Berlin-Halensee|Berlin Hohenzollerndamm|Berlin Heidelberger Platz|Berlin Bundesplatz|Berlin Innsbrucker Platz|Berlin-Schöneberg|Berlin Südkreuz (S)|Berlin-Tempelhof|Berlin Hermannstraße|Berlin-Neukölln|Berlin Köllnische Heide,8089004,4,Baumschulenweg,Berlin,Berlin,12437,13.490097,52.467244,2024-06-26 01:06:00,2024-06-26 01:08:00,2024-06-26 01:06:00,2024-06-26 01:08:00,0,0
120,1911302061839635851-2406260041-9,46,Königs Wusterhausen|Wildau|Zeuthen|Eichwalde|Berlin-Grünau|Berlin-Adlershof|Berlin-Johannisthal|Berlin-Schöneweide (S),8089004,4,Baumschulenweg,Berlin,Berlin,12437,13.490097,52.467244,2024-06-26 01:07:00,2024-06-26 01:08:00,2024-06-26 01:10:00,2024-06-26 01:10:00,3,2
121,8678652298366699869-2406260125-14,8,Berlin-Blankenburg|Berlin-Pankow-Heinersdorf|Berlin-Pankow|Berlin Bornholmer Str.|Berlin Schönhauser Allee|Berlin Prenzlauer Allee|Berlin Greifswalder Str|Berlin Landsberger Allee|Berlin Storkower Str|Berlin Frankfurter Allee|Berlin Ostkreuz (S)|Berlin Treptower Park|Berlin Plänterwald,8089004,4,Baumschulenweg,Berlin,Berlin,12437,13.490097,52.467244,2024-06-26 01:55:00,2024-06-26 01:55:00,,,0,0
122,6345235500505612111-2406260109-5,8,Berlin-Grünau|Berlin-Adlershof|Berlin-Johannisthal|Berlin-Schöneweide (S),8089004,4,Baumschulenweg,Berlin,Berlin,12437,13.490097,52.467244,2024-06-26 01:20:00,2024-06-26 01:20:00,2024-06-26 01:20:00,2024-06-26 01:20:00,0,0
123,-533531156845230720-2406260109-9,9,Flughafen BER (S-Bahn)|Waßmannsdorf|Schönefeld(bei Berlin)|Berlin Grünbergallee|Berlin-Altglienicke|Berlin-Adlershof|Berlin-Johannisthal|Berlin-Schöneweide (S),8089004,4,Baumschulenweg,Berlin,Berlin,12437,13.490097,52.467244,2024-06-26 01:35:00,2024-06-26 01:36:00,2024-06-26 01:35:00,2024-06-26 01:36:00,0,0
124,4597597687711411974-2406260129-5,8,Berlin-Grünau|Berlin-Adlershof|Berlin-Johannisthal|Berlin-Schöneweide (S),8089004,4,Baumschulenweg,Berlin,Berlin,12437,13.490097,52.467244,2024-06-26 01:40:00,2024-06-26 01:40:00,,,0,0
125,-3651380486372699093-2406260038-22,9,Berlin-Spandau (S)|Berlin-Stresow|Berlin-Pichelsberg|Berlin Olympiastadion|Berlin Heerstraße|Berlin Messe Süd (Eichkamp)|Berlin Westkreuz|Berlin Charlottenburg (S)|Berlin Savignyplatz|Berlin Zoologischer Garten (S)|Berlin-Tiergarten|Berlin Bellevue|Berlin Hbf (S-Bahn)|Berlin Friedrichstraße (S)|Berlin Hackescher Markt|Berlin Alexanderplatz (S)|Berlin Jannowitzbrücke|Berlin Ostbahnhof (S)|Berlin Warschauer Straße|Berlin Treptower Park|Berlin Plänterwald,8089004,4,Baumschulenweg,Berlin,Berlin,12437,13.490097,52.467244,2024-06-26 01:27:00,2024-06-26 01:30:00,2024-06-26 01:27:00,2024-06-26 01:30:00,0,0
126,3926325034752965533-2406260101-9,46,Königs Wusterhausen|Wildau|Zeuthen|Eichwalde|Berlin-Grünau|Berlin-Adlershof|Berlin-Johannisthal|Berlin-Schöneweide (S),8089004,4,Baumschulenweg,Berlin,Berlin,12437,13.490097,52.467244,2024-06-26 01:27:00,2024-06-26 01:28:00,2024-06-26 01:27:00,2024-06-26 01:28:00,0,0
127,-2852794612513594288-2406260131-8,6,Köln-Nippes|Köln Hansaring|Köln Hbf|Köln Messe/Deutz|Köln-Buchforst|Köln-Mülheim|Köln-Stammheim,8000832,5,Leverkusen Chempark,Nordrhein-Westfalen,Köln,51061,6.996675,51.011409,2024-06-26 01:53:00,2024-06-26 01:54:00,2024-06-26 01:54:00,2024-06-26 01:55:00,1,1
128,-1228016767566463777-2406260020-18,6,Düsseldorf-Rath Mitte|Düsseldorf-Derendorf|Düsseldorf-Zoo|Düsseldorf Wehrhahn|Düsseldorf Hbf|Düsseldorf Volksgarten|Düsseldorf-Oberbilk|Düsseldorf-Eller Süd|Düsseldorf-Reisholz|Düsseldorf-Benrath|Düsseldorf-Garath|Düsseldorf-Hellerhof|Langenfeld(Rhld)-Berghausen|Langenfeld(Rhld)|Leverkusen-Rheindorf|Leverkusen-Küppersteg|Leverkusen Mitte,8000832,5,Leverkusen Chempark,Nordrhein-Westfalen,Köln,51061,6.996675,51.011409,2024-06-26 01:06:00,2024-06-26 01:06:00,2024-06-26 01:06:00,2024-06-26 01:06:00,0,0
129,-8560234509707798591-2406260022-6,,Nürnberg Hbf|Hersbruck(r Pegnitz)|Neuhaus(Pegnitz)|Pegnitz|Creußen(Oberfr),8000028,3,Bayreuth Hbf,Bayern,Bayreuth,95444,11.579985,49.949616,2024-06-26 01:25:00,,2024-06-26 01:39:00,,14,0
130,-5545992856608576470-2406260058-12,9,Berlin-Spandau (S)|Berlin-Stresow|Berlin-Pichelsberg|Berlin Olympiastadion|Berlin Heerstraße|Berlin Messe Süd (Eichkamp)|Berlin Westkreuz|Berlin Charlottenburg (S)|Berlin Savignyplatz|Berlin Zoologischer Garten (S)|Berlin-Tiergarten,8089005,4,Bellevue,Berlin,Berlin,10557,13.348263,52.519955,2024-06-26 01:22:00,2024-06-26 01:23:00,2024-06-26 01:22:00,2024-06-26 01:23:00,0,0
131,-3028030430762820353-2406260137-6,5,Berlin Westkreuz|Berlin Charlottenburg (S)|Berlin Savignyplatz|Berlin Zoologischer Garten (S)|Berlin-Tiergarten,8089005,4,Bellevue,Berlin,Berlin,10557,13.348263,52.519955,2024-06-26 01:47:00,2024-06-26 01:48:00,,,0,0
132,2085376482130662134-2406260138-7,3,Berlin-Grunewald|Berlin Westkreuz|Berlin Charlottenburg (S)|Berlin Savignyplatz|Berlin Zoologischer Garten (S)|Berlin-Tiergarten,8089005,4,Bellevue,Berlin,Berlin,10557,13.348263,52.519955,2024-06-26 01:52:00,2024-06-26 01:53:00,,,0,0
133,-461722775312558653-2406260051-18,7,Ahrensfelde (S)|Berlin Mehrower Allee|Berlin Raoul-Wallenberg-Str.|Berlin-Marzahn|Berlin Poelchaustr.|Berlin Springpfuhl|Berlin-Friedrichsfelde Ost|Berlin-Lichtenberg (S)|Berlin Nöldnerplatz|Berlin Ostkreuz (S)|Berlin Warschauer Straße|Berlin Ostbahnhof (S)|Berlin Jannowitzbrücke|Berlin Alexanderplatz (S)|Berlin Hackescher Markt|Berlin Friedrichstraße (S)|Berlin Hbf (S-Bahn),8089005,4,Bellevue,Berlin,Berlin,10557,13.348263,52.519955,2024-06-26 01:29:00,2024-06-26 01:29:00,2024-06-26 01:29:00,2024-06-26 01:29:00,0,0
134,6809920023340627969-2406260009-19,9,Flughafen BER (S-Bahn)|Waßmannsdorf|Schönefeld(bei Berlin)|Berlin Grünbergallee|Berlin-Altglienicke|Berlin-Adlershof|Berlin-Johannisthal|Berlin-Schöneweide (S)|Berlin Baumschulenweg|Berlin Plänterwald|Berlin Treptower Park|Berlin Warschauer Straße|Berlin Ostbahnhof (S)|Berlin Jannowitzbrücke|Berlin Alexanderplatz (S)|Berlin Hackescher Markt|Berlin Friedrichstraße (S)|Berlin Hbf (S-Bahn),8089005,4,Bellevue,Berlin,Berlin,10557,13.348263,52.519955,2024-06-26 01:01:00,2024-06-26 01:02:00,2024-06-26 01:02:00,2024-06-26 01:02:00,1,0
135,-30606238688898510-2406260101-12,7,Potsdam Hbf (S)|Potsdam-Babelsberg|Potsdam Griebnitzsee (S)|Berlin-Wannsee (S)|Berlin-Nikolassee|Berlin-Grunewald|Berlin Westkreuz|Berlin Charlottenburg (S)|Berlin Savignyplatz|Berlin Zoologischer Garten (S)|Berlin-Tiergarten,8089005,4,Bellevue,Berlin,Berlin,10557,13.348263,52.519955,2024-06-26 01:35:00,2024-06-26 01:35:00,2024-06-26 01:35:00,2024-06-26 01:35:00,0,0
136,-2631771163868660921-2406260049-19,9,Flughafen BER (S-Bahn)|Waßmannsdorf|Schönefeld(bei Berlin)|Berlin Grünbergallee|Berlin-Altglienicke|Berlin-Adlershof|Berlin-Johannisthal|Berlin-Schöneweide (S)|Berlin Baumschulenweg|Berlin Plänterwald|Berlin Treptower Park|Berlin Warschauer Straße|Berlin Ostbahnhof (S)|Berlin Jannowitzbrücke|Berlin Alexanderplatz (S)|Berlin Hackescher Markt|Berlin Friedrichstraße (S)|Berlin Hbf (S-Bahn),8089005,4,Bellevue,Berlin,Berlin,10557,13.348263,52.519955,2024-06-26 01:41:00,2024-06-26 01:42:00,2024-06-26 01:41:00,2024-06-26 01:42:00,0,0
137,-5534965849079604138-2406260031-18,7,Ahrensfelde (S)|Berlin Mehrower Allee|Berlin Raoul-Wallenberg-Str.|Berlin-Marzahn|Berlin Poelchaustr.|Berlin Springpfuhl|Berlin-Friedrichsfelde Ost|Berlin-Lichtenberg (S)|Berlin Nöldnerplatz|Berlin Ostkreuz (S)|Berlin Warschauer Straße|Berlin Ostbahnhof (S)|Berlin Jannowitzbrücke|Berlin Alexanderplatz (S)|Berlin Hackescher Markt|Berlin Friedrichstraße (S)|Berlin Hbf (S-Bahn),8089005,4,Bellevue,Berlin,Berlin,10557,13.348263,52.519955,2024-06-26 01:09:00,2024-06-26 01:09:00,2024-06-26 01:09:00,2024-06-26 01:09:00,0,0
138,-582137628619329376-2406260117-6,5,Berlin Westkreuz|Berlin Charlottenburg (S)|Berlin Savignyplatz|Berlin Zoologischer Garten (S)|Berlin-Tiergarten,8089005,4,Bellevue,Berlin,Berlin,10557,13.348263,52.519955,2024-06-26 01:27:00,2024-06-26 01:28:00,2024-06-26 01:27:00,2024-06-26 01:28:00,0,0
139,-6623346053335524329-2406260051-16,5,Berlin-Mahlsdorf (S)|Berlin-Kaulsdorf|Berlin Wuhletal|Berlin-Biesdorf|Berlin-Friedrichsfelde Ost|Berlin-Lichtenberg (S)|Berlin Nöldnerplatz|Berlin Ostkreuz (S)|Berlin Warschauer Straße|Berlin Ostbahnhof (S)|Berlin Jannowitzbrücke|Berlin Alexanderplatz (S)|Berlin Hackescher Markt|Berlin Friedrichstraße (S)|Berlin Hbf (S-Bahn),8089005,4,Bellevue,Berlin,Berlin,10557,13.348263,52.519955,2024-06-26 01:26:00,2024-06-26 01:27:00,2024-06-26 01:26:00,2024-06-26 01:27:00,0,0
140,-3887355066972338912-2406260107-6,5,Berlin Westkreuz|Berlin Charlottenburg (S)|Berlin Savignyplatz|Berlin Zoologischer Garten (S)|Berlin-Tiergarten,8089005,4,Bellevue,Berlin,Berlin,10557,13.348263,52.519955,2024-06-26 01:17:00,2024-06-26 01:18:00,2024-06-26 01:17:00,2024-06-26 01:18:00,0,0
141,7353614156520045329-2406260111-18,7,Ahrensfelde (S)|Berlin Mehrower Allee|Berlin Raoul-Wallenberg-Str.|Berlin-Marzahn|Berlin Poelchaustr.|Berlin Springpfuhl|Berlin-Friedrichsfelde Ost|Berlin-Lichtenberg (S)|Berlin Nöldnerplatz|Berlin Ostkreuz (S)|Berlin Warschauer Straße|Berlin Ostbahnhof (S)|Berlin Jannowitzbrücke|Berlin Alexanderplatz (S)|Berlin Hackescher Markt|Berlin Friedrichstraße (S)|Berlin Hbf (S-Bahn),8089005,4,Bellevue,Berlin,Berlin,10557,13.348263,52.519955,2024-06-26 01:49:00,2024-06-26 01:49:00,2024-06-26 01:49:00,2024-06-26 01:49:00,0,0
142,2846936824129512568-2406260024-19,3,Erkner (S)|Berlin-Wilhelmshagen|Berlin-Rahnsdorf|Berlin-Friedrichshagen|Berlin-Hirschgarten|Berlin-Köpenick|Berlin-Wuhlheide|Berlin-Karlshorst (S)|Berlin Betriebsbf Rummelsburg|Berlin-Rummelsburg|Berlin Ostkreuz (S)|Berlin Warschauer Straße|Berlin Ostbahnhof (S)|Berlin Jannowitzbrücke|Berlin Alexanderplatz (S)|Berlin Hackescher Markt|Berlin Friedrichstraße (S)|Berlin Hbf (S-Bahn),8089005,4,Bellevue,Berlin,Berlin,10557,13.348263,52.519955,2024-06-26 01:11:00,2024-06-26 01:12:00,2024-06-26 01:11:00,2024-06-26 01:12:00,0,0
143,-2720500145807318148-2406260104-19,3,Erkner (S)|Berlin-Wilhelmshagen|Berlin-Rahnsdorf|Berlin-Friedrichshagen|Berlin-Hirschgarten|Berlin-Köpenick|Berlin-Wuhlheide|Berlin-Karlshorst (S)|Berlin Betriebsbf Rummelsburg|Berlin-Rummelsburg|Berlin Ostkreuz (S)|Berlin Warschauer Straße|Berlin Ostbahnhof (S)|Berlin Jannowitzbrücke|Berlin Alexanderplatz (S)|Berlin Hackescher Markt|Berlin Friedrichstraße (S)|Berlin Hbf (S-Bahn),8089005,4,Bellevue,Berlin,Berlin,10557,13.348263,52.519955,2024-06-26 01:51:00,2024-06-26 01:52:00,2024-06-26 01:51:00,2024-06-26 01:52:00,0,0
144,3747922539754397069-2406260118-12,9,Berlin-Spandau (S)|Berlin-Stresow|Berlin-Pichelsberg|Berlin Olympiastadion|Berlin Heerstraße|Berlin Messe Süd (Eichkamp)|Berlin Westkreuz|Berlin Charlottenburg (S)|Berlin Savignyplatz|Berlin Zoologischer Garten (S)|Berlin-Tiergarten,8089005,4,Bellevue,Berlin,Berlin,10557,13.348263,52.519955,2024-06-26 01:42:00,2024-06-26 01:43:00,2024-06-26 01:42:00,2024-06-26 01:43:00,0,0
145,398857489194859952-2406260041-12,7,Potsdam Hbf (S)|Potsdam-Babelsberg|Potsdam Griebnitzsee (S)|Berlin-Wannsee (S)|Berlin-Nikolassee|Berlin-Grunewald|Berlin Westkreuz|Berlin Charlottenburg (S)|Berlin Savignyplatz|Berlin Zoologischer Garten (S)|Berlin-Tiergarten,8089005,4,Bellevue,Berlin,Berlin,10557,13.348263,52.519955,2024-06-26 01:15:00,2024-06-26 01:15:00,2024-06-26 01:15:00,2024-06-26 01:15:00,0,0
146,-2938765662663217848-2406260044-19,3,Erkner (S)|Berlin-Wilhelmshagen|Berlin-Rahnsdorf|Berlin-Friedrichshagen|Berlin-Hirschgarten|Berlin-Köpenick|Berlin-Wuhlheide|Berlin-Karlshorst (S)|Berlin Betriebsbf Rummelsburg|Berlin-Rummelsburg|Berlin Ostkreuz (S)|Berlin Warschauer Straße|Berlin Ostbahnhof (S)|Berlin Jannowitzbrücke|Berlin Alexanderplatz (S)|Berlin Hackescher Markt|Berlin Friedrichstraße (S)|Berlin Hbf (S-Bahn),8089005,4,Bellevue,Berlin,Berlin,10557,13.348263,52.519955,2024-06-26 01:31:00,2024-06-26 01:32:00,2024-06-26 01:31:00,2024-06-26 01:32:00,0,0
147,667458317623911609-2406260049-25,5,Strausberg Nord|Strausberg Stadt|Strausberg-Hegermühle|Strausberg (S)|Petershagen Nord|Fredersdorf(b Berlin)|Neuenhagen(b Berlin)|Hoppegarten(Mark)|Birkenstein|Berlin-Mahlsdorf (S)|Berlin-Kaulsdorf|Berlin Wuhletal|Berlin-Biesdorf|Berlin-Friedrichsfelde Ost|Berlin-Lichtenberg (S)|Berlin Nöldnerplatz|Berlin Ostkreuz (S)|Berlin Warschauer Straße|Berlin Ostbahnhof (S)|Berlin Jannowitzbrücke|Berlin Alexanderplatz (S)|Berlin Hackescher Markt|Berlin Friedrichstraße (S)|Berlin Hbf (S-Bahn),8089005,4,Bellevue,Berlin,Berlin,10557,13.348263,52.519955,2024-06-26 01:56:00,2024-06-26 01:57:00,2024-06-26 01:56:00,2024-06-26 01:57:00,0,0
148,-5687084610517380220-2406260127-6,5,Berlin Westkreuz|Berlin Charlottenburg (S)|Berlin Savignyplatz|Berlin Zoologischer Garten (S)|Berlin-Tiergarten,8089005,4,Bellevue,Berlin,Berlin,10557,13.348263,52.519955,2024-06-26 01:37:00,2024-06-26 01:38:00,,,0,0
149,8906649292739357833-2406260031-16,5,Berlin-Mahlsdorf (S)|Berlin-Kaulsdorf|Berlin Wuhletal|Berlin-Biesdorf|Berlin-Friedrichsfelde Ost|Berlin-Lichtenberg (S)|Berlin Nöldnerplatz|Berlin Ostkreuz (S)|Berlin Warschauer Straße|Berlin Ostbahnhof (S)|Berlin Jannowitzbrücke|Berlin Alexanderplatz (S)|Berlin Hackescher Markt|Berlin Friedrichstraße (S)|Berlin Hbf (S-Bahn),8089005,4,Bellevue,Berlin,Berlin,10557,13.348263,52.519955,2024-06-26 01:06:00,2024-06-26 01:07:00,2024-06-26 01:06:00,2024-06-26 01:07:00,0,0
150,2419178981017048716-2406260057-6,5,Berlin Westkreuz|Berlin Charlottenburg (S)|Berlin Savignyplatz|Berlin Zoologischer Garten (S)|Berlin-Tiergarten,8089005,4,Bellevue,Berlin,Berlin,10557,13.348263,52.519955,2024-06-26 01:07:00,2024-06-26 01:08:00,2024-06-26 01:07:00,2024-06-26 01:08:00,0,0
151,397714341614967920-2406260108-12,3,Berlin-Spandau (S)|Berlin-Stresow|Berlin-Pichelsberg|Berlin Olympiastadion|Berlin Heerstraße|Berlin Messe Süd (Eichkamp)|Berlin Westkreuz|Berlin Charlottenburg (S)|Berlin Savignyplatz|Berlin Zoologischer Garten (S)|Berlin-Tiergarten,8089005,4,Bellevue,Berlin,Berlin,10557,13.348263,52.519955,2024-06-26 01:32:00,2024-06-26 01:33:00,2024-06-26 01:32:00,2024-06-26 01:33:00,0,0
152,3577137434825491602-2406260121-12,7,Potsdam Hbf (S)|Potsdam-Babelsberg|Potsdam Griebnitzsee (S)|Berlin-Wannsee (S)|Berlin-Nikolassee|Berlin-Grunewald|Berlin Westkreuz|Berlin Charlottenburg (S)|Berlin Savignyplatz|Berlin Zoologischer Garten (S)|Berlin-Tiergarten,8089005,4,Bellevue,Berlin,Berlin,10557,13.348263,52.519955,2024-06-26 01:55:00,2024-06-26 01:55:00,,,0,0
153,-3122462787481704219-2406260048-12,3,Berlin-Spandau (S)|Berlin-Stresow|Berlin-Pichelsberg|Berlin Olympiastadion|Berlin Heerstraße|Berlin Messe Süd (Eichkamp)|Berlin Westkreuz|Berlin Charlottenburg (S)|Berlin Savignyplatz|Berlin Zoologischer Garten (S)|Berlin-Tiergarten,8089005,4,Bellevue,Berlin,Berlin,10557,13.348263,52.519955,2024-06-26 01:12:00,2024-06-26 01:13:00,2024-06-26 01:12:00,2024-06-26 01:13:00,0,0
154,-3651380486372699093-2406260038-12,9,Berlin-Spandau (S)|Berlin-Stresow|Berlin-Pichelsberg|Berlin Olympiastadion|Berlin Heerstraße|Berlin Messe Süd (Eichkamp)|Berlin Westkreuz|Berlin Charlottenburg (S)|Berlin Savignyplatz|Berlin Zoologischer Garten (S)|Berlin-Tiergarten,8089005,4,Bellevue,Berlin,Berlin,10557,13.348263,52.519955,2024-06-26 01:02:00,2024-06-26 01:03:00,2024-06-26 01:03:00,2024-06-26 01:03:00,1,0
155,6343685781330323746-2406260009-25,5,Strausberg Nord|Strausberg Stadt|Strausberg-Hegermühle|Strausberg (S)|Petershagen Nord|Fredersdorf(b Berlin)|Neuenhagen(b Berlin)|Hoppegarten(Mark)|Birkenstein|Berlin-Mahlsdorf (S)|Berlin-Kaulsdorf|Berlin Wuhletal|Berlin-Biesdorf|Berlin-Friedrichsfelde Ost|Berlin-Lichtenberg (S)|Berlin Nöldnerplatz|Berlin Ostkreuz (S)|Berlin Warschauer Straße|Berlin Ostbahnhof (S)|Berlin Jannowitzbrücke|Berlin Alexanderplatz (S)|Berlin Hackescher Markt|Berlin Friedrichstraße (S)|Berlin Hbf (S-Bahn),8089005,4,Bellevue,Berlin,Berlin,10557,13.348263,52.519955,2024-06-26 01:16:00,2024-06-26 01:17:00,2024-06-26 01:16:00,2024-06-26 01:17:00,0,0
156,8253464076549036480-2406260029-19,9,Flughafen BER (S-Bahn)|Waßmannsdorf|Schönefeld(bei Berlin)|Berlin Grünbergallee|Berlin-Altglienicke|Berlin-Adlershof|Berlin-Johannisthal|Berlin-Schöneweide (S)|Berlin Baumschulenweg|Berlin Plänterwald|Berlin Treptower Park|Berlin Warschauer Straße|Berlin Ostbahnhof (S)|Berlin Jannowitzbrücke|Berlin Alexanderplatz (S)|Berlin Hackescher Markt|Berlin Friedrichstraße (S)|Berlin Hbf (S-Bahn),8089005,4,Bellevue,Berlin,Berlin,10557,13.348263,52.519955,2024-06-26 01:21:00,2024-06-26 01:22:00,2024-06-26 01:22:00,2024-06-26 01:23:00,1,1
157,9132444288956699929-2406260040-22,5,Strausberg (S)|Petershagen Nord|Fredersdorf(b Berlin)|Neuenhagen(b Berlin)|Hoppegarten(Mark)|Birkenstein|Berlin-Mahlsdorf (S)|Berlin-Kaulsdorf|Berlin Wuhletal|Berlin-Biesdorf|Berlin-Friedrichsfelde Ost|Berlin-Lichtenberg (S)|Berlin Nöldnerplatz|Berlin Ostkreuz (S)|Berlin Warschauer Straße|Berlin Ostbahnhof (S)|Berlin Jannowitzbrücke|Berlin Alexanderplatz (S)|Berlin Hackescher Markt|Berlin Friedrichstraße (S)|Berlin Hbf (S-Bahn),8089005,4,Bellevue,Berlin,Berlin,10557,13.348263,52.519955,2024-06-26 01:36:00,2024-06-26 01:37:00,2024-06-26 01:36:00,2024-06-26 01:37:00,0,0
158,1469169049040009227-2406260026-15,,Berlin Friedrichstraße|Berlin Hbf|Berlin Zoologischer Garten|Berlin-Charlottenburg|Berlin-Wannsee|Potsdam Medienstadt Babelsberg|Potsdam-Rehbrücke|Wilhelmshorst|Michendorf|Seddin|Beelitz-Heilstätten|Borkheide|Brück(Mark)|Baitz,8010031,5,Bad Belzig,Brandenburg,Belzig,14806,12.594981,52.135969,2024-06-26 01:32:00,,2024-06-26 01:31:00,,-1,0
159,1931605652866661026-2406260006-17,,Hildesheim Hbf|Emmerke|Barnten|Sarstedt|Rethen(Leine)|Hannover Messe/Laatzen|Hannover Bismarckstr.|Hannover Hbf|Hannover-Nordstadt|Hannover-Ledeburg|Hannover-Vinnhorst|Langenhagen Mitte|Langenhagen Pferdemarkt|Langenhagen-Kaltenweide|Bissendorf|Mellendorf,8000871,5,Bennemühlen,Niedersachsen,Wedemark,30900,9.726836,52.580993,2024-06-26 01:07:00,,2024-06-26 01:09:00,,2,0
160,-3652958189301705754-2406260036-15,5,Hannover Flughafen|Langenhagen Pferdemarkt|Langenhagen Mitte|Hannover-Vinnhorst|Hannover-Ledeburg|Hannover-Nordstadt|Hannover Hbf|Hannover Bismarckstr.|Hannover-Linden/Fischerhof|Hannover-Bornum|Empelde|Ronnenberg|Weetzen|Holtensen/Linderte,8000872,5,Bennigsen,Niedersachsen,Springe,31832,9.666376,52.240733,2024-06-26 01:21:00,2024-06-26 01:21:00,2024-06-26 01:22:00,2024-06-26 01:22:00,1,1
161,-3094267637294118702-2406260032-12,4,Stuttgart Schwabstr.|Stuttgart Feuersee|Stuttgart Stadtmitte|Stuttgart Hbf (tief)|Stuttgart Nord|Stuttgart-Feuerbach|Stuttgart-Zuffenhausen|Kornwestheim Pbf|Ludwigsburg|Favoritepark|Freiberg(Neckar),8000873,5,Benningen (Neckar),Baden-Württemberg,Benningen am Neckar,71726,9.244504,48.943614,2024-06-26 01:02:00,2024-06-26 01:03:00,2024-06-26 01:03:00,2024-06-26 01:03:00,1,0
162,6022170079335753158-2406260102-12,4,Stuttgart Schwabstr.|Stuttgart Feuersee|Stuttgart Stadtmitte|Stuttgart Hbf (tief)|Stuttgart Nord|Stuttgart-Feuerbach|Stuttgart-Zuffenhausen|Kornwestheim Pbf|Ludwigsburg|Favoritepark|Freiberg(Neckar),8000873,5,Benningen (Neckar),Baden-Württemberg,Benningen am Neckar,71726,9.244504,48.943614,2024-06-26 01:32:00,2024-06-26 01:33:00,2024-06-26 01:32:00,2024-06-26 01:33:00,0,0
163,-8657793577832817442-2406260045-12,,Mannheim Hbf|Mannheim ARENA/Maimarkt|Mannheim-Seckenheim|Neu-Edingen/Friedrichsfeld|Ladenburg|Heddesheim/Hirschberg|Weinheim(Bergstr)Hbf|Weinheim-Sulzbach|Hemsbach|Laudenbach(Bergstr)|Heppenheim(Bergstr),8000031,4,Bensheim,Hessen,Bensheim,64625,8.616717,49.681329,2024-06-26 01:25:00,,2024-06-26 01:26:00,,1,0
164,6639088318018915604-2406260106-6,1,Oranienburg|Lehnitz|Borgsdorf|Birkenwerder(b Berlin)|Hohen Neuendorf(b Berlin),8080100,4,Bergfelde (b Berlin),Brandenburg,Hohen Neuendorf,16562,13.320244,52.670303,2024-06-26 01:21:00,2024-06-26 01:22:00,2024-06-26 01:23:00,2024-06-26 01:24:00,2,2
165,-2230601977227938209-2406252354-29,1,Berlin-Wannsee (S)|Berlin-Nikolassee|Berlin-Schlachtensee|Berlin Mexikoplatz|Berlin-Zehlendorf|Berlin Sundgauer Str|Berlin-Lichterfelde West|Berlin Botanischer Garten|Berlin Rathaus Steglitz|Berlin Feuerbachstr.|Berlin-Friedenau|Berlin-Schöneberg|Berlin Julius-Leber-Brücke|Berlin Yorckstr.(S1)|Berlin Anhalter Bf|Berlin Potsdamer Platz (S)|Berlin Brandenburger Tor|Berlin Friedrichstraße (S)|Berlin Oranienburger Straße|Berlin Nordbahnhof|Berlin Humboldthain|Berlin Gesundbrunnen(S)|Berlin Bornholmer Str.|Berlin-Pankow|Berlin-Pankow-Heinersdorf|Berlin-Blankenburg|Mühlenbeck-Mönchmühle|Schönfließ(b Oranienburg),8080100,4,Bergfelde (b Berlin),Brandenburg,Hohen Neuendorf,16562,13.320244,52.670303,2024-06-26 01:04:00,2024-06-26 01:04:00,2024-06-26 01:04:00,2024-06-26 01:05:00,0,1
166,9092658424046314337-2406260046-6,1,Oranienburg|Lehnitz|Borgsdorf|Birkenwerder(b Berlin)|Hohen Neuendorf(b Berlin),8080100,4,Bergfelde (b Berlin),Brandenburg,Hohen Neuendorf,16562,13.320244,52.670303,2024-06-26 01:01:00,2024-06-26 01:02:00,2024-06-26 01:02:00,2024-06-26 01:02:00,1,0
167,7649088808996046723-2406260014-29,1,Berlin-Wannsee (S)|Berlin-Nikolassee|Berlin-Schlachtensee|Berlin Mexikoplatz|Berlin-Zehlendorf|Berlin Sundgauer Str|Berlin-Lichterfelde West|Berlin Botanischer Garten|Berlin Rathaus Steglitz|Berlin Feuerbachstr.|Berlin-Friedenau|Berlin-Schöneberg|Berlin Julius-Leber-Brücke|Berlin Yorckstr.(S1)|Berlin Anhalter Bf|Berlin Potsdamer Platz (S)|Berlin Brandenburger Tor|Berlin Friedrichstraße (S)|Berlin Oranienburger Straße|Berlin Nordbahnhof|Berlin Humboldthain|Berlin Gesundbrunnen(S)|Berlin Bornholmer Str.|Berlin-Pankow|Berlin-Pankow-Heinersdorf|Berlin-Blankenburg|Mühlenbeck-Mönchmühle|Schönfließ(b Oranienburg),8080100,4,Bergfelde (b Berlin),Brandenburg,Hohen Neuendorf,16562,13.320244,52.670303,2024-06-26 01:24:00,2024-06-26 01:24:00,2024-06-26 01:25:00,2024-06-26 01:25:00,1,1
168,-4275406157660819340-2406260034-29,1,Berlin-Wannsee (S)|Berlin-Nikolassee|Berlin-Schlachtensee|Berlin Mexikoplatz|Berlin-Zehlendorf|Berlin Sundgauer Str|Berlin-Lichterfelde West|Berlin Botanischer Garten|Berlin Rathaus Steglitz|Berlin Feuerbachstr.|Berlin-Friedenau|Berlin-Schöneberg|Berlin Julius-Leber-Brücke|Berlin Yorckstr.(S1)|Berlin Anhalter Bf|Berlin Potsdamer Platz (S)|Berlin Brandenburger Tor|Berlin Friedrichstraße (S)|Berlin Oranienburger Straße|Berlin Nordbahnhof|Berlin Humboldthain|Berlin Gesundbrunnen(S)|Berlin Bornholmer Str.|Berlin-Pankow|Berlin-Pankow-Heinersdorf|Berlin-Blankenburg|Mühlenbeck-Mönchmühle|Schönfließ(b Oranienburg),8080100,4,Bergfelde (b Berlin),Brandenburg,Hohen Neuendorf,16562,13.320244,52.670303,2024-06-26 01:44:00,2024-06-26 01:44:00,2024-06-26 01:44:00,2024-06-26 01:44:00,0,0
169,5960835118957868245-2406260126-6,1,Oranienburg|Lehnitz|Borgsdorf|Birkenwerder(b Berlin)|Hohen Neuendorf(b Berlin),8080100,4,Bergfelde (b Berlin),Brandenburg,Hohen Neuendorf,16562,13.320244,52.670303,2024-06-26 01:41:00,2024-06-26 01:42:00,,,0,0
170,6086433097284689991-2406260153-1,11,,8000899,5,Bergisch Gladbach,Nordrhein-Westfalen,Bergisch Gladbach,51465,7.124553,50.991461,,2024-06-26 01:53:00,,,0,0
171,-6270375014114709031-2406260123-1,11,,8000899,5,Bergisch Gladbach,Nordrhein-Westfalen,Bergisch Gladbach,51465,7.124553,50.991461,,2024-06-26 01:23:00,,2024-06-26 01:23:00,0,0
172,2862161729195150146-2406252324-36,,Düsseldorf Flughafen Terminal|Düsseldorf-Unterrath|Düsseldorf-Derendorf|Düsseldorf-Zoo|Düsseldorf Wehrhahn|Düsseldorf Hbf|Düsseldorf Friedrichstadt|Düsseldorf-Bilk|Düsseldorf Völklinger Str.|Düsseldorf-Hamm|Neuss Rheinparkcenter|Neuss Am Kaiser|Neuss Hbf|Neuss Süd|Norf|Neuss Allerheiligen|Nievenheim|Dormagen|Dormagen Chempark|Köln-Worringen|Köln-Blumenberg|Köln-Chorweiler Nord|Köln-Chorweiler|Köln Volkhovener Weg|Köln-Longerich|Köln Geldernstr./Parkgürtel|Köln-Nippes|Köln Hansaring|Köln Hbf|Köln Messe/Deutz|Köln-Buchforst|Köln-Mülheim|Köln-Holweide|Köln-Dellbrück|Duckterath,8000899,5,Bergisch Gladbach,Nordrhein-Westfalen,Bergisch Gladbach,51465,7.124553,50.991461,2024-06-26 01:08:00,,2024-06-26 01:10:00,,2,0
173,-1537118689903044118-2406252354-36,,Düsseldorf Flughafen Terminal|Düsseldorf-Unterrath|Düsseldorf-Derendorf|Düsseldorf-Zoo|Düsseldorf Wehrhahn|Düsseldorf Hbf|Düsseldorf Friedrichstadt|Düsseldorf-Bilk|Düsseldorf Völklinger Str.|Düsseldorf-Hamm|Neuss Rheinparkcenter|Neuss Am Kaiser|Neuss Hbf|Neuss Süd|Norf|Neuss Allerheiligen|Nievenheim|Dormagen|Dormagen Chempark|Köln-Worringen|Köln-Blumenberg|Köln-Chorweiler Nord|Köln-Chorweiler|Köln Volkhovener Weg|Köln-Longerich|Köln Geldernstr./Parkgürtel|Köln-Nippes|Köln Hansaring|Köln Hbf|Köln Messe/Deutz|Köln-Buchforst|Köln-Mülheim|Köln-Holweide|Köln-Dellbrück|Duckterath,8000899,5,Bergisch Gladbach,Nordrhein-Westfalen,Bergisch Gladbach,51465,7.124553,50.991461,2024-06-26 01:38:00,,2024-06-26 01:39:00,,1,0
174,3293441643585562151-2406260127-4,1,Berlin-Schöneberg|Berlin Julius-Leber-Brücke|Berlin Yorckstr.(S1),8089002,3,Berlin Anhalter Bahnhof,Berlin,Berlin,10963,13.381362,52.503486,2024-06-26 01:33:00,2024-06-26 01:34:00,,,0,0
175,-5641342810993358765-2406260006-20,1,Oranienburg|Lehnitz|Borgsdorf|Birkenwerder(b Berlin)|Hohen Neuendorf(b Berlin)|Bergfelde(b Berlin)|Schönfließ(b Oranienburg)|Mühlenbeck-Mönchmühle|Berlin-Blankenburg|Berlin-Pankow-Heinersdorf|Berlin-Pankow|Berlin Bornholmer Str.|Berlin Gesundbrunnen(S)|Berlin Humboldthain|Berlin Nordbahnhof|Berlin Oranienburger Straße|Berlin Friedrichstraße (S)|Berlin Brandenburger Tor|Berlin Potsdamer Platz (S),8089002,3,Berlin Anhalter Bahnhof,Berlin,Berlin,10963,13.381362,52.503486,2024-06-26 01:01:00,2024-06-26 01:02:00,2024-06-26 01:11:00,2024-06-26 01:11:00,10,9
176,-8070014369172118657-2406260040-11,2,Blankenfelde (S)|Mahlow|Berlin-Lichtenrade|Berlin Schichauweg|Berlin Buckower Chaussee|Berlin-Marienfelde|Berlin Attilastr.|Berlin Priesterweg|Berlin Südkreuz (S)|Berlin Yorckstr.(S2),8089002,3,Berlin Anhalter Bahnhof,Berlin,Berlin,10963,13.381362,52.503486,2024-06-26 01:11:00,2024-06-26 01:12:00,2024-06-26 01:12:00,2024-06-26 01:12:00,1,0
177,7085407663949358033-2406260152-1,2,,8089002,3,Berlin Anhalter Bahnhof,Berlin,Berlin,10963,13.381362,52.503486,,2024-06-26 01:52:00,,,0,0
178,-9219634608048660637-2406260118-8,1,Berlin Gesundbrunnen(S)|Berlin Humboldthain|Berlin Nordbahnhof|Berlin Oranienburger Straße|Berlin Friedrichstraße (S)|Berlin Brandenburger Tor|Berlin Potsdamer Platz (S),8089002,3,Berlin Anhalter Bahnhof,Berlin,Berlin,10963,13.381362,52.503486,2024-06-26 01:32:00,2024-06-26 01:33:00,,,0,0
179,-3393566627001248025-2406260058-8,1,Berlin Gesundbrunnen(S)|Berlin Humboldthain|Berlin Nordbahnhof|Berlin Oranienburger Straße|Berlin Friedrichstraße (S)|Berlin Brandenburger Tor|Berlin Potsdamer Platz (S),8089002,3,Berlin Anhalter Bahnhof,Berlin,Berlin,10963,13.381362,52.503486,2024-06-26 01:12:00,2024-06-26 01:13:00,2024-06-26 01:13:00,2024-06-26 01:13:00,1,0
180,6244532299759245457-2406260105-10,25,Teltow Stadt|Berlin-Lichterfelde Süd|Berlin Osdorfer Straße|Berlin-Lichterfelde Ost (S)|Berlin-Lankwitz|Berlin Südende|Berlin Priesterweg|Berlin Südkreuz (S)|Berlin Yorckstr.(S2),8089002,3,Berlin Anhalter Bahnhof,Berlin,Berlin,10963,13.381362,52.503486,2024-06-26 01:26:00,2024-06-26 01:27:00,2024-06-26 01:26:00,2024-06-26 01:27:00,0,0
181,-3116180503249085293-2406260045-10,25,Teltow Stadt|Berlin-Lichterfelde Süd|Berlin Osdorfer Straße|Berlin-Lichterfelde Ost (S)|Berlin-Lankwitz|Berlin Südende|Berlin Priesterweg|Berlin Südkreuz (S)|Berlin Yorckstr.(S2),8089002,3,Berlin Anhalter Bahnhof,Berlin,Berlin,10963,13.381362,52.503486,2024-06-26 01:06:00,2024-06-26 01:07:00,2024-06-26 01:06:00,2024-06-26 01:07:00,0,0
182,-1157794301085273758-2406260100-11,2,Blankenfelde (S)|Mahlow|Berlin-Lichtenrade|Berlin Schichauweg|Berlin Buckower Chaussee|Berlin-Marienfelde|Berlin Attilastr.|Berlin Priesterweg|Berlin Südkreuz (S)|Berlin Yorckstr.(S2),8089002,3,Berlin Anhalter Bahnhof,Berlin,Berlin,10963,13.381362,52.503486,2024-06-26 01:31:00,2024-06-26 01:32:00,2024-06-26 01:32:00,2024-06-26 01:33:00,1,1
183,-4354178634934895000-2406260138-8,1,Berlin Gesundbrunnen(S)|Berlin Humboldthain|Berlin Nordbahnhof|Berlin Oranienburger Straße|Berlin Friedrichstraße (S)|Berlin Brandenburger Tor|Berlin Potsdamer Platz (S),8089002,3,Berlin Anhalter Bahnhof,Berlin,Berlin,10963,13.381362,52.503486,2024-06-26 01:52:00,2024-06-26 01:53:00,,,0,0
184,-1482605135265547705-2406260135-8,25,Berlin Gesundbrunnen(S)|Berlin Humboldthain|Berlin Nordbahnhof|Berlin Oranienburger Straße|Berlin Friedrichstraße (S)|Berlin Brandenburger Tor|Berlin Potsdamer Platz (S),8089002,3,Berlin Anhalter Bahnhof,Berlin,Berlin,10963,13.381362,52.503486,2024-06-26 01:49:00,2024-06-26 01:49:00,,,0,0
185,9092658424046314337-2406260046-20,1,Oranienburg|Lehnitz|Borgsdorf|Birkenwerder(b Berlin)|Hohen Neuendorf(b Berlin)|Bergfelde(b Berlin)|Schönfließ(b Oranienburg)|Mühlenbeck-Mönchmühle|Berlin-Blankenburg|Berlin-Pankow-Heinersdorf|Berlin-Pankow|Berlin Bornholmer Str.|Berlin Gesundbrunnen(S)|Berlin Humboldthain|Berlin Nordbahnhof|Berlin Oranienburger Straße|Berlin Friedrichstraße (S)|Berlin Brandenburger Tor|Berlin Potsdamer Platz (S),8089002,3,Berlin Anhalter Bahnhof,Berlin,Berlin,10963,13.381362,52.503486,2024-06-26 01:41:00,2024-06-26 01:42:00,2024-06-26 01:41:00,2024-06-26 01:42:00,0,0
186,-6663962129755761065-2406260147-4,1,Berlin-Schöneberg|Berlin Julius-Leber-Brücke|Berlin Yorckstr.(S1),8089002,3,Berlin Anhalter Bahnhof,Berlin,Berlin,10963,13.381362,52.503486,2024-06-26 01:53:00,2024-06-26 01:54:00,,,0,0
187,1217438959019246784-2406260107-4,1,Berlin-Schöneberg|Berlin Julius-Leber-Brücke|Berlin Yorckstr.(S1),8089002,3,Berlin Anhalter Bahnhof,Berlin,Berlin,10963,13.381362,52.503486,2024-06-26 01:13:00,2024-06-26 01:14:00,2024-06-26 01:13:00,2024-06-26 01:14:00,0,0
188,-7859647027126299844-2406260054-15,1,Berlin-Wannsee (S)|Berlin-Nikolassee|Berlin-Schlachtensee|Berlin Mexikoplatz|Berlin-Zehlendorf|Berlin Sundgauer Str|Berlin-Lichterfelde West|Berlin Botanischer Garten|Berlin Rathaus Steglitz|Berlin Feuerbachstr.|Berlin-Friedenau|Berlin-Schöneberg|Berlin Julius-Leber-Brücke|Berlin Yorckstr.(S1),8089002,3,Berlin Anhalter Bahnhof,Berlin,Berlin,10963,13.381362,52.503486,2024-06-26 01:23:00,2024-06-26 01:24:00,2024-06-26 01:23:00,2024-06-26 01:24:00,0,0
189,3070623870634869269-2406260103-18,,Bernau (S)|Bernau-Friedenstal|Zepernick(Bernau)|Röntgental|Berlin-Buch|Berlin-Karow|Berlin-Blankenburg|Berlin-Pankow-Heinersdorf|Berlin-Pankow|Berlin Bornholmer Str.|Berlin Gesundbrunnen(S)|Berlin Humboldthain|Berlin Nordbahnhof|Berlin Oranienburger Straße|Berlin Friedrichstraße (S)|Berlin Brandenburger Tor|Berlin Potsdamer Platz (S),8089002,3,Berlin Anhalter Bahnhof,Berlin,Berlin,10963,13.381362,52.503486,2024-06-26 01:44:00,,2024-06-26 01:44:00,,0,0
190,4279021851761849408-2406260125-10,25,Teltow Stadt|Berlin-Lichterfelde Süd|Berlin Osdorfer Straße|Berlin-Lichterfelde Ost (S)|Berlin-Lankwitz|Berlin Südende|Berlin Priesterweg|Berlin Südkreuz (S)|Berlin Yorckstr.(S2),8089002,3,Berlin Anhalter Bahnhof,Berlin,Berlin,10963,13.381362,52.503486,2024-06-26 01:46:00,2024-06-26 01:47:00,,,0,0
191,8848354961888364614-2406260026-20,1,Oranienburg|Lehnitz|Borgsdorf|Birkenwerder(b Berlin)|Hohen Neuendorf(b Berlin)|Bergfelde(b Berlin)|Schönfließ(b Oranienburg)|Mühlenbeck-Mönchmühle|Berlin-Blankenburg|Berlin-Pankow-Heinersdorf|Berlin-Pankow|Berlin Bornholmer Str.|Berlin Gesundbrunnen(S)|Berlin Humboldthain|Berlin Nordbahnhof|Berlin Oranienburger Straße|Berlin Friedrichstraße (S)|Berlin Brandenburger Tor|Berlin Potsdamer Platz (S),8089002,3,Berlin Anhalter Bahnhof,Berlin,Berlin,10963,13.381362,52.503486,2024-06-26 01:21:00,2024-06-26 01:22:00,2024-06-26 01:24:00,2024-06-26 01:25:00,3,3
192,7584548684773334673-2406260043-18,2,Bernau (S)|Bernau-Friedenstal|Zepernick(Bernau)|Röntgental|Berlin-Buch|Berlin-Karow|Berlin-Blankenburg|Berlin-Pankow-Heinersdorf|Berlin-Pankow|Berlin Bornholmer Str.|Berlin Gesundbrunnen(S)|Berlin Humboldthain|Berlin Nordbahnhof|Berlin Oranienburger Straße|Berlin Friedrichstraße (S)|Berlin Brandenburger Tor|Berlin Potsdamer Platz (S),8089002,3,Berlin Anhalter Bahnhof,Berlin,Berlin,10963,13.381362,52.503486,2024-06-26 01:24:00,2024-06-26 01:24:00,2024-06-26 01:25:00,2024-06-26 01:26:00,1,2
193,-4275406157660819340-2406260034-15,1,Berlin-Wannsee (S)|Berlin-Nikolassee|Berlin-Schlachtensee|Berlin Mexikoplatz|Berlin-Zehlendorf|Berlin Sundgauer Str|Berlin-Lichterfelde West|Berlin Botanischer Garten|Berlin Rathaus Steglitz|Berlin Feuerbachstr.|Berlin-Friedenau|Berlin-Schöneberg|Berlin Julius-Leber-Brücke|Berlin Yorckstr.(S1),8089002,3,Berlin Anhalter Bahnhof,Berlin,Berlin,10963,13.381362,52.503486,2024-06-26 01:03:00,2024-06-26 01:04:00,2024-06-26 01:03:00,2024-06-26 01:04:00,0,0
194,8558820359802743977-2406260114-15,1,Berlin-Wannsee (S)|Berlin-Nikolassee|Berlin-Schlachtensee|Berlin Mexikoplatz|Berlin-Zehlendorf|Berlin Sundgauer Str|Berlin-Lichterfelde West|Berlin Botanischer Garten|Berlin Rathaus Steglitz|Berlin Feuerbachstr.|Berlin-Friedenau|Berlin-Schöneberg|Berlin Julius-Leber-Brücke|Berlin Yorckstr.(S1),8089002,3,Berlin Anhalter Bahnhof,Berlin,Berlin,10963,13.381362,52.503486,2024-06-26 01:43:00,2024-06-26 01:44:00,2024-06-26 01:43:00,2024-06-26 01:44:00,0,0
195,817306279794830040-2406260055-8,25,Berlin Gesundbrunnen(S)|Berlin Humboldthain|Berlin Nordbahnhof|Berlin Oranienburger Straße|Berlin Friedrichstraße (S)|Berlin Brandenburger Tor|Berlin Potsdamer Platz (S),8089002,3,Berlin Anhalter Bahnhof,Berlin,Berlin,10963,13.381362,52.503486,2024-06-26 01:09:00,2024-06-26 01:09:00,2024-06-26 01:10:00,2024-06-26 01:09:00,1,0
196,8018871365942506990-2406260115-8,25,Berlin Gesundbrunnen(S)|Berlin Humboldthain|Berlin Nordbahnhof|Berlin Oranienburger Straße|Berlin Friedrichstraße (S)|Berlin Brandenburger Tor|Berlin Potsdamer Platz (S),8089002,3,Berlin Anhalter Bahnhof,Berlin,Berlin,10963,13.381362,52.503486,2024-06-26 01:29:00,2024-06-26 01:29:00,2024-06-26 01:29:00,2024-06-26 01:29:00,0,0
197,1523711802490226836-2406260023-18,2,Bernau (S)|Bernau-Friedenstal|Zepernick(Bernau)|Röntgental|Berlin-Buch|Berlin-Karow|Berlin-Blankenburg|Berlin-Pankow-Heinersdorf|Berlin-Pankow|Berlin Bornholmer Str.|Berlin Gesundbrunnen(S)|Berlin Humboldthain|Berlin Nordbahnhof|Berlin Oranienburger Straße|Berlin Friedrichstraße (S)|Berlin Brandenburger Tor|Berlin Potsdamer Platz (S),8089002,3,Berlin Anhalter Bahnhof,Berlin,Berlin,10963,13.381362,52.503486,2024-06-26 01:04:00,2024-06-26 01:04:00,2024-06-26 01:06:00,2024-06-26 01:06:00,2,2
198,-5636514548500096616-2406260105-10,8,Berlin-Blankenburg|Berlin-Pankow-Heinersdorf|Berlin-Pankow|Berlin Bornholmer Str.|Berlin Schönhauser Allee|Berlin Prenzlauer Allee|Berlin Greifswalder Str|Berlin Landsberger Allee|Berlin Storkower Str,8089013,3,Berlin Frankfurter Allee,Berlin,Berlin,10247,13.47441,52.515168,2024-06-26 01:25:00,2024-06-26 01:25:00,2024-06-26 01:25:00,2024-06-26 01:25:00,0,0
199,-578452750217533255-2406260049-9,8,Berlin-Grünau|Berlin-Adlershof|Berlin-Johannisthal|Berlin-Schöneweide (S)|Berlin Baumschulenweg|Berlin Plänterwald|Berlin Treptower Park|Berlin Ostkreuz (S),8089013,3,Berlin Frankfurter Allee,Berlin,Berlin,10247,13.47441,52.515168,2024-06-26 01:10:00,2024-06-26 01:11:00,2024-06-26 01:10:00,2024-06-26 01:11:00,0,0
200,5289516065653869156-2406260045-10,8,Berlin-Blankenburg|Berlin-Pankow-Heinersdorf|Berlin-Pankow|Berlin Bornholmer Str.|Berlin Schönhauser Allee|Berlin Prenzlauer Allee|Berlin Greifswalder Str|Berlin Landsberger Allee|Berlin Storkower Str,8089013,3,Berlin Frankfurter Allee,Berlin,Berlin,10247,13.47441,52.515168,2024-06-26 01:05:00,2024-06-26 01:05:00,2024-06-26 01:09:00,2024-06-26 01:10:00,4,5
201,-4123785442312772949-2406260048-10,41,Berlin Beusselstraße|Berlin Westhafen|Berlin-Wedding|Berlin Gesundbrunnen(S)|Berlin Schönhauser Allee|Berlin Prenzlauer Allee|Berlin Greifswalder Str|Berlin Landsberger Allee|Berlin Storkower Str,8089013,3,Berlin Frankfurter Allee,Berlin,Berlin,10247,13.47441,52.515168,2024-06-26 01:07:00,2024-06-26 01:08:00,2024-06-26 01:07:00,2024-06-26 01:08:00,0,0
202,-5754569416525540839-2406260108-19,42,Berlin Beusselstraße|Berlin Jungfernheide (S)|Berlin Westend|Berlin Messe Nord/ICC (Witzleben)|Berlin Westkreuz|Berlin-Halensee|Berlin Hohenzollerndamm|Berlin Heidelberger Platz|Berlin Bundesplatz|Berlin Innsbrucker Platz|Berlin-Schöneberg|Berlin Südkreuz (S)|Berlin-Tempelhof|Berlin Hermannstraße|Berlin-Neukölln|Berlin Sonnenallee|Berlin Treptower Park|Berlin Ostkreuz (S),8089013,3,Berlin Frankfurter Allee,Berlin,Berlin,10247,13.47441,52.515168,2024-06-26 01:48:00,2024-06-26 01:48:00,2024-06-26 01:48:00,2024-06-26 01:48:00,0,0
203,-3577060603328664167-2406260108-10,41,Berlin Beusselstraße|Berlin Westhafen|Berlin-Wedding|Berlin Gesundbrunnen(S)|Berlin Schönhauser Allee|Berlin Prenzlauer Allee|Berlin Greifswalder Str|Berlin Landsberger Allee|Berlin Storkower Str,8089013,3,Berlin Frankfurter Allee,Berlin,Berlin,10247,13.47441,52.515168,2024-06-26 01:27:00,2024-06-26 01:28:00,2024-06-26 01:27:00,2024-06-26 01:28:00,0,0
204,4515526108310962209-2406260138-10,41,Berlin Beusselstraße|Berlin Westhafen|Berlin-Wedding|Berlin Gesundbrunnen(S)|Berlin Schönhauser Allee|Berlin Prenzlauer Allee|Berlin Greifswalder Str|Berlin Landsberger Allee|Berlin Storkower Str,8089013,3,Berlin Frankfurter Allee,Berlin,Berlin,10247,13.47441,52.515168,2024-06-26 01:57:00,2024-06-26 01:58:00,,,0,0
205,-2061611448050358640-2406260048-19,42,Berlin Beusselstraße|Berlin Jungfernheide (S)|Berlin Westend|Berlin Messe Nord/ICC (Witzleben)|Berlin Westkreuz|Berlin-Halensee|Berlin Hohenzollerndamm|Berlin Heidelberger Platz|Berlin Bundesplatz|Berlin Innsbrucker Platz|Berlin-Schöneberg|Berlin Südkreuz (S)|Berlin-Tempelhof|Berlin Hermannstraße|Berlin-Neukölln|Berlin Sonnenallee|Berlin Treptower Park|Berlin Ostkreuz (S),8089013,3,Berlin Frankfurter Allee,Berlin,Berlin,10247,13.47441,52.515168,2024-06-26 01:28:00,2024-06-26 01:28:00,2024-06-26 01:28:00,2024-06-26 01:28:00,0,0
206,-1395734665312380435-2406260058-10,41,Berlin Beusselstraße|Berlin Westhafen|Berlin-Wedding|Berlin Gesundbrunnen(S)|Berlin Schönhauser Allee|Berlin Prenzlauer Allee|Berlin Greifswalder Str|Berlin Landsberger Allee|Berlin Storkower Str,8089013,3,Berlin Frankfurter Allee,Berlin,Berlin,10247,13.47441,52.515168,2024-06-26 01:17:00,2024-06-26 01:18:00,2024-06-26 01:17:00,2024-06-26 01:18:00,0,0
207,-1079183259924026376-2406260038-19,42,Berlin Beusselstraße|Berlin Jungfernheide (S)|Berlin Westend|Berlin Messe Nord/ICC (Witzleben)|Berlin Westkreuz|Berlin-Halensee|Berlin Hohenzollerndamm|Berlin Heidelberger Platz|Berlin Bundesplatz|Berlin Innsbrucker Platz|Berlin-Schöneberg|Berlin Südkreuz (S)|Berlin-Tempelhof|Berlin Hermannstraße|Berlin-Neukölln|Berlin Sonnenallee|Berlin Treptower Park|Berlin Ostkreuz (S),8089013,3,Berlin Frankfurter Allee,Berlin,Berlin,10247,13.47441,52.515168,2024-06-26 01:18:00,2024-06-26 01:18:00,2024-06-26 01:18:00,2024-06-26 01:18:00,0,0
208,5776070001612816527-2406260028-19,42,Berlin Beusselstraße|Berlin Jungfernheide (S)|Berlin Westend|Berlin Messe Nord/ICC (Witzleben)|Berlin Westkreuz|Berlin-Halensee|Berlin Hohenzollerndamm|Berlin Heidelberger Platz|Berlin Bundesplatz|Berlin Innsbrucker Platz|Berlin-Schöneberg|Berlin Südkreuz (S)|Berlin-Tempelhof|Berlin Hermannstraße|Berlin-Neukölln|Berlin Sonnenallee|Berlin Treptower Park|Berlin Ostkreuz (S),8089013,3,Berlin Frankfurter Allee,Berlin,Berlin,10247,13.47441,52.515168,2024-06-26 01:08:00,2024-06-26 01:08:00,2024-06-26 01:08:00,2024-06-26 01:08:00,0,0
209,-8087980458460825228-2406260118-19,42,Berlin Beusselstraße|Berlin Jungfernheide (S)|Berlin Westend|Berlin Messe Nord/ICC (Witzleben)|Berlin Westkreuz|Berlin-Halensee|Berlin Hohenzollerndamm|Berlin Heidelberger Platz|Berlin Bundesplatz|Berlin Innsbrucker Platz|Berlin-Schöneberg|Berlin Südkreuz (S)|Berlin-Tempelhof|Berlin Hermannstraße|Berlin-Neukölln|Berlin Sonnenallee|Berlin Treptower Park|Berlin Ostkreuz (S),8089013,3,Berlin Frankfurter Allee,Berlin,Berlin,10247,13.47441,52.515168,2024-06-26 01:58:00,2024-06-26 01:58:00,2024-06-26 01:58:00,2024-06-26 01:58:00,0,0
210,8678652298366699869-2406260125-10,8,Berlin-Blankenburg|Berlin-Pankow-Heinersdorf|Berlin-Pankow|Berlin Bornholmer Str.|Berlin Schönhauser Allee|Berlin Prenzlauer Allee|Berlin Greifswalder Str|Berlin Landsberger Allee|Berlin Storkower Str,8089013,3,Berlin Frankfurter Allee,Berlin,Berlin,10247,13.47441,52.515168,2024-06-26 01:45:00,2024-06-26 01:45:00,,,0,0
211,6345235500505612111-2406260109-9,8,Berlin-Grünau|Berlin-Adlershof|Berlin-Johannisthal|Berlin-Schöneweide (S)|Berlin Baumschulenweg|Berlin Plänterwald|Berlin Treptower Park|Berlin Ostkreuz (S),8089013,3,Berlin Frankfurter Allee,Berlin,Berlin,10247,13.47441,52.515168,2024-06-26 01:30:00,2024-06-26 01:31:00,2024-06-26 01:30:00,2024-06-26 01:31:00,0,0
212,5291240405203283728-2406260128-10,41,Berlin Beusselstraße|Berlin Westhafen|Berlin-Wedding|Berlin Gesundbrunnen(S)|Berlin Schönhauser Allee|Berlin Prenzlauer Allee|Berlin Greifswalder Str|Berlin Landsberger Allee|Berlin Storkower Str,8089013,3,Berlin Frankfurter Allee,Berlin,Berlin,10247,13.47441,52.515168,2024-06-26 01:47:00,2024-06-26 01:48:00,,,0,0
213,4597597687711411974-2406260129-9,8,Berlin-Grünau|Berlin-Adlershof|Berlin-Johannisthal|Berlin-Schöneweide (S)|Berlin Baumschulenweg|Berlin Plänterwald|Berlin Treptower Park|Berlin Ostkreuz (S),8089013,3,Berlin Frankfurter Allee,Berlin,Berlin,10247,13.47441,52.515168,2024-06-26 01:50:00,2024-06-26 01:51:00,,,0,0
214,29476655390639943-2406260118-10,41,Berlin Beusselstraße|Berlin Westhafen|Berlin-Wedding|Berlin Gesundbrunnen(S)|Berlin Schönhauser Allee|Berlin Prenzlauer Allee|Berlin Greifswalder Str|Berlin Landsberger Allee|Berlin Storkower Str,8089013,3,Berlin Frankfurter Allee,Berlin,Berlin,10247,13.47441,52.515168,2024-06-26 01:37:00,2024-06-26 01:38:00,2024-06-26 01:37:00,2024-06-26 01:38:00,0,0
215,-1329911587655448574-2406260058-19,42,Berlin Beusselstraße|Berlin Jungfernheide (S)|Berlin Westend|Berlin Messe Nord/ICC (Witzleben)|Berlin Westkreuz|Berlin-Halensee|Berlin Hohenzollerndamm|Berlin Heidelberger Platz|Berlin Bundesplatz|Berlin Innsbrucker Platz|Berlin-Schöneberg|Berlin Südkreuz (S)|Berlin-Tempelhof|Berlin Hermannstraße|Berlin-Neukölln|Berlin Sonnenallee|Berlin Treptower Park|Berlin Ostkreuz (S),8089013,3,Berlin Frankfurter Allee,Berlin,Berlin,10247,13.47441,52.515168,2024-06-26 01:38:00,2024-06-26 01:38:00,2024-06-26 01:38:00,2024-06-26 01:38:00,0,0
216,959474257007241311-2406260024-14,1,Frankfurt(Oder)|Frankfurt(Oder)-Rosengarten|Pillgram|Jacobsdorf(Mark)|Briesen(Mark)|Berkenbrück|Fürstenwalde(Spree)|Hangelsberg|Fangschleuse|Erkner|Berlin Ostkreuz|Berlin Ostbahnhof|Berlin Alexanderplatz,8011306,2,Berlin-Friedrichstraße,Berlin,Berlin,10117,13.3872056,52.520373,2024-06-26 01:36:00,2024-06-26 01:37:00,2024-06-26 01:36:00,2024-06-26 01:37:00,0,0
217,2426968161302299329-2406260136-4,8,Berlin-Charlottenburg|Berlin Zoologischer Garten|Berlin Hbf,8011306,2,Berlin-Friedrichstraße,Berlin,Berlin,10117,13.3872056,52.520373,2024-06-26 01:50:00,2024-06-26 01:51:00,2024-06-26 01:50:00,2024-06-26 01:51:00,0,0
218,7144876971925539327-2406260045-5,8,Schönefeld(bei Berlin)|Berlin Ostkreuz|Berlin Ostbahnhof|Berlin Alexanderplatz,8011306,2,Berlin-Friedrichstraße,Berlin,Berlin,10117,13.3872056,52.520373,2024-06-26 01:10:00,2024-06-26 01:11:00,2024-06-26 01:12:00,2024-06-26 01:13:00,2,2
219,6055223673524961292-2406260116-5,,Schönefeld(bei Berlin)|Berlin Ostkreuz|Berlin Ostbahnhof|Berlin Alexanderplatz,8011306,2,Berlin-Friedrichstraße,Berlin,Berlin,10117,13.3872056,52.520373,2024-06-26 01:43:00,2024-06-26 01:44:00,,,0,0
220,-1430869917883125442-2406252318-20,7,Dessau Hbf|Roßlau(Elbe)|Jeber-Bergfrieden|Medewitz(Mark)|Wiesenburg(Mark)|Bad Belzig|Baitz|Brück(Mark)|Borkheide|Beelitz-Heilstätten|Seddin|Michendorf|Wilhelmshorst|Potsdam-Rehbrücke|Potsdam Medienstadt Babelsberg|Berlin-Wannsee|Berlin-Charlottenburg|Berlin Zoologischer Garten|Berlin Hbf,8011306,2,Berlin-Friedrichstraße,Berlin,Berlin,10117,13.3872056,52.520373,2024-06-26 01:00:00,2024-06-26 01:01:00,2024-06-26 01:11:00,2024-06-26 01:12:00,11,11
221,58133983524038883-2406252321-23,1,Magdeburg Hbf|Magdeburg-Neustadt|Magdeburg Herrenkrug|Biederitz|Gerwisch|Möser|Burg(Magdeburg)|Güsen(b Genthin)|Genthin|Wusterwitz|Kirchmöser|Brandenburg Hbf|Götz|Groß Kreutz|Werder(Havel)|Potsdam Park Sanssouci|Potsdam Charlottenhof|Potsdam Hbf|Berlin-Wannsee|Berlin-Charlottenburg|Berlin Zoologischer Garten|Berlin Hbf,8011306,2,Berlin-Friedrichstraße,Berlin,Berlin,10117,13.3872056,52.520373,2024-06-26 01:25:00,2024-06-26 01:26:00,2024-06-26 01:25:00,2024-06-26 01:26:00,0,0
222,-5636514548500096616-2406260105-7,8,Berlin-Blankenburg|Berlin-Pankow-Heinersdorf|Berlin-Pankow|Berlin Bornholmer Str.|Berlin Schönhauser Allee|Berlin Prenzlauer Allee,8089011,4,Greifswalder Straße,Berlin,Berlin,10409,13.439561,52.54002,2024-06-26 01:18:00,2024-06-26 01:19:00,2024-06-26 01:18:00,2024-06-26 01:19:00,0,0
223,-578452750217533255-2406260049-12,8,Berlin-Grünau|Berlin-Adlershof|Berlin-Johannisthal|Berlin-Schöneweide (S)|Berlin Baumschulenweg|Berlin Plänterwald|Berlin Treptower Park|Berlin Ostkreuz (S)|Berlin Frankfurter Allee|Berlin Storkower Str|Berlin Landsberger Allee,8089011,4,Greifswalder Straße,Berlin,Berlin,10409,13.439561,52.54002,2024-06-26 01:17:00,2024-06-26 01:17:00,2024-06-26 01:17:00,2024-06-26 01:17:00,0,0
224,-4123785442312772949-2406260048-7,41,Berlin Beusselstraße|Berlin Westhafen|Berlin-Wedding|Berlin Gesundbrunnen(S)|Berlin Schönhauser Allee|Berlin Prenzlauer Allee,8089011,4,Greifswalder Straße,Berlin,Berlin,10409,13.439561,52.54002,2024-06-26 01:01:00,2024-06-26 01:01:00,2024-06-26 01:01:00,2024-06-26 01:01:00,0,0
225,3882944869250236994-2406260018-22,42,Berlin Beusselstraße|Berlin Jungfernheide (S)|Berlin Westend|Berlin Messe Nord/ICC (Witzleben)|Berlin Westkreuz|Berlin-Halensee|Berlin Hohenzollerndamm|Berlin Heidelberger Platz|Berlin Bundesplatz|Berlin Innsbrucker Platz|Berlin-Schöneberg|Berlin Südkreuz (S)|Berlin-Tempelhof|Berlin Hermannstraße|Berlin-Neukölln|Berlin Sonnenallee|Berlin Treptower Park|Berlin Ostkreuz (S)|Berlin Frankfurter Allee|Berlin Storkower Str|Berlin Landsberger Allee,8089011,4,Greifswalder Straße,Berlin,Berlin,10409,13.439561,52.54002,2024-06-26 01:04:00,2024-06-26 01:04:00,2024-06-26 01:04:00,2024-06-26 01:04:00,0,0
226,-5754569416525540839-2406260108-22,42,Berlin Beusselstraße|Berlin Jungfernheide (S)|Berlin Westend|Berlin Messe Nord/ICC (Witzleben)|Berlin Westkreuz|Berlin-Halensee|Berlin Hohenzollerndamm|Berlin Heidelberger Platz|Berlin Bundesplatz|Berlin Innsbrucker Platz|Berlin-Schöneberg|Berlin Südkreuz (S)|Berlin-Tempelhof|Berlin Hermannstraße|Berlin-Neukölln|Berlin Sonnenallee|Berlin Treptower Park|Berlin Ostkreuz (S)|Berlin Frankfurter Allee|Berlin Storkower Str|Berlin Landsberger Allee,8089011,4,Greifswalder Straße,Berlin,Berlin,10409,13.439561,52.54002,2024-06-26 01:54:00,2024-06-26 01:54:00,2024-06-26 01:54:00,2024-06-26 01:54:00,0,0
227,-3577060603328664167-2406260108-7,41,Berlin Beusselstraße|Berlin Westhafen|Berlin-Wedding|Berlin Gesundbrunnen(S)|Berlin Schönhauser Allee|Berlin Prenzlauer Allee,8089011,4,Greifswalder Straße,Berlin,Berlin,10409,13.439561,52.54002,2024-06-26 01:21:00,2024-06-26 01:21:00,2024-06-26 01:21:00,2024-06-26 01:21:00,0,0
228,4515526108310962209-2406260138-7,41,Berlin Beusselstraße|Berlin Westhafen|Berlin-Wedding|Berlin Gesundbrunnen(S)|Berlin Schönhauser Allee|Berlin Prenzlauer Allee,8089011,4,Greifswalder Straße,Berlin,Berlin,10409,13.439561,52.54002,2024-06-26 01:51:00,2024-06-26 01:51:00,,,0,0
229,-2061611448050358640-2406260048-22,42,Berlin Beusselstraße|Berlin Jungfernheide (S)|Berlin Westend|Berlin Messe Nord/ICC (Witzleben)|Berlin Westkreuz|Berlin-Halensee|Berlin Hohenzollerndamm|Berlin Heidelberger Platz|Berlin Bundesplatz|Berlin Innsbrucker Platz|Berlin-Schöneberg|Berlin Südkreuz (S)|Berlin-Tempelhof|Berlin Hermannstraße|Berlin-Neukölln|Berlin Sonnenallee|Berlin Treptower Park|Berlin Ostkreuz (S)|Berlin Frankfurter Allee|Berlin Storkower Str|Berlin Landsberger Allee,8089011,4,Greifswalder Straße,Berlin,Berlin,10409,13.439561,52.54002,2024-06-26 01:34:00,2024-06-26 01:34:00,2024-06-26 01:34:00,2024-06-26 01:34:00,0,0
230,2208802277219283100-2406260150-5,8,Berlin-Pankow|Berlin Bornholmer Str.|Berlin Schönhauser Allee|Berlin Prenzlauer Allee,8089011,4,Greifswalder Straße,Berlin,Berlin,10409,13.439561,52.54002,2024-06-26 01:58:00,2024-06-26 01:59:00,,,0,0
231,-1395734665312380435-2406260058-7,41,Berlin Beusselstraße|Berlin Westhafen|Berlin-Wedding|Berlin Gesundbrunnen(S)|Berlin Schönhauser Allee|Berlin Prenzlauer Allee,8089011,4,Greifswalder Straße,Berlin,Berlin,10409,13.439561,52.54002,2024-06-26 01:11:00,2024-06-26 01:11:00,2024-06-26 01:11:00,2024-06-26 01:11:00,0,0
232,-1079183259924026376-2406260038-22,42,Berlin Beusselstraße|Berlin Jungfernheide (S)|Berlin Westend|Berlin Messe Nord/ICC (Witzleben)|Berlin Westkreuz|Berlin-Halensee|Berlin Hohenzollerndamm|Berlin Heidelberger Platz|Berlin Bundesplatz|Berlin Innsbrucker Platz|Berlin-Schöneberg|Berlin Südkreuz (S)|Berlin-Tempelhof|Berlin Hermannstraße|Berlin-Neukölln|Berlin Sonnenallee|Berlin Treptower Park|Berlin Ostkreuz (S)|Berlin Frankfurter Allee|Berlin Storkower Str|Berlin Landsberger Allee,8089011,4,Greifswalder Straße,Berlin,Berlin,10409,13.439561,52.54002,2024-06-26 01:24:00,2024-06-26 01:24:00,2024-06-26 01:24:00,2024-06-26 01:24:00,0,0
233,5776070001612816527-2406260028-22,42,Berlin Beusselstraße|Berlin Jungfernheide (S)|Berlin Westend|Berlin Messe Nord/ICC (Witzleben)|Berlin Westkreuz|Berlin-Halensee|Berlin Hohenzollerndamm|Berlin Heidelberger Platz|Berlin Bundesplatz|Berlin Innsbrucker Platz|Berlin-Schöneberg|Berlin Südkreuz (S)|Berlin-Tempelhof|Berlin Hermannstraße|Berlin-Neukölln|Berlin Sonnenallee|Berlin Treptower Park|Berlin Ostkreuz (S)|Berlin Frankfurter Allee|Berlin Storkower Str|Berlin Landsberger Allee,8089011,4,Greifswalder Straße,Berlin,Berlin,10409,13.439561,52.54002,2024-06-26 01:14:00,2024-06-26 01:14:00,2024-06-26 01:14:00,2024-06-26 01:14:00,0,0
234,8678652298366699869-2406260125-7,8,Berlin-Blankenburg|Berlin-Pankow-Heinersdorf|Berlin-Pankow|Berlin Bornholmer Str.|Berlin Schönhauser Allee|Berlin Prenzlauer Allee,8089011,4,Greifswalder Straße,Berlin,Berlin,10409,13.439561,52.54002,2024-06-26 01:38:00,2024-06-26 01:39:00,,,0,0
235,6345235500505612111-2406260109-12,8,Berlin-Grünau|Berlin-Adlershof|Berlin-Johannisthal|Berlin-Schöneweide (S)|Berlin Baumschulenweg|Berlin Plänterwald|Berlin Treptower Park|Berlin Ostkreuz (S)|Berlin Frankfurter Allee|Berlin Storkower Str|Berlin Landsberger Allee,8089011,4,Greifswalder Straße,Berlin,Berlin,10409,13.439561,52.54002,2024-06-26 01:37:00,2024-06-26 01:37:00,2024-06-26 01:37:00,2024-06-26 01:37:00,0,0
236,5291240405203283728-2406260128-7,41,Berlin Beusselstraße|Berlin Westhafen|Berlin-Wedding|Berlin Gesundbrunnen(S)|Berlin Schönhauser Allee|Berlin Prenzlauer Allee,8089011,4,Greifswalder Straße,Berlin,Berlin,10409,13.439561,52.54002,2024-06-26 01:41:00,2024-06-26 01:41:00,,,0,0
237,4597597687711411974-2406260129-12,8,Berlin-Grünau|Berlin-Adlershof|Berlin-Johannisthal|Berlin-Schöneweide (S)|Berlin Baumschulenweg|Berlin Plänterwald|Berlin Treptower Park|Berlin Ostkreuz (S)|Berlin Frankfurter Allee|Berlin Storkower Str|Berlin Landsberger Allee,8089011,4,Greifswalder Straße,Berlin,Berlin,10409,13.439561,52.54002,2024-06-26 01:57:00,2024-06-26 01:57:00,,,0,0
238,29476655390639943-2406260118-7,41,Berlin Beusselstraße|Berlin Westhafen|Berlin-Wedding|Berlin Gesundbrunnen(S)|Berlin Schönhauser Allee|Berlin Prenzlauer Allee,8089011,4,Greifswalder Straße,Berlin,Berlin,10409,13.439561,52.54002,2024-06-26 01:31:00,2024-06-26 01:31:00,2024-06-26 01:31:00,2024-06-26 01:31:00,0,0
239,-1329911587655448574-2406260058-22,42,Berlin Beusselstraße|Berlin Jungfernheide (S)|Berlin Westend|Berlin Messe Nord/ICC (Witzleben)|Berlin Westkreuz|Berlin-Halensee|Berlin Hohenzollerndamm|Berlin Heidelberger Platz|Berlin Bundesplatz|Berlin Innsbrucker Platz|Berlin-Schöneberg|Berlin Südkreuz (S)|Berlin-Tempelhof|Berlin Hermannstraße|Berlin-Neukölln|Berlin Sonnenallee|Berlin Treptower Park|Berlin Ostkreuz (S)|Berlin Frankfurter Allee|Berlin Storkower Str|Berlin Landsberger Allee,8089011,4,Greifswalder Straße,Berlin,Berlin,10409,13.439561,52.54002,2024-06-26 01:44:00,2024-06-26 01:44:00,2024-06-26 01:44:00,2024-06-26 01:44:00,0,0
240,959474257007241311-2406260024-12,1,Frankfurt(Oder)|Frankfurt(Oder)-Rosengarten|Pillgram|Jacobsdorf(Mark)|Briesen(Mark)|Berkenbrück|Fürstenwalde(Spree)|Hangelsberg|Fangschleuse|Erkner|Berlin Ostkreuz,8010255,1,Berlin Ostbahnhof,Berlin,Berlin,10243,13.4346807,52.5104881,2024-06-26 01:29:00,2024-06-26 01:30:00,2024-06-26 01:29:00,2024-06-26 01:30:00,0,0
241,-8761881508899340400-2406260008-13,2,Nauen|Brieselang|Finkenkrug|Falkensee|Seegefeld|Albrechtshof|Berlin-Spandau|Berlin-Charlottenburg|Berlin Zoologischer Garten|Berlin Hbf|Berlin Friedrichstraße|Berlin Alexanderplatz,8010255,1,Berlin Ostbahnhof,Berlin,Berlin,10243,13.4346807,52.5104881,2024-06-26 01:03:00,2024-06-26 01:05:00,2024-06-26 01:13:00,2024-06-26 01:14:00,10,9
242,2426968161302299329-2406260136-6,8,Berlin-Charlottenburg|Berlin Zoologischer Garten|Berlin Hbf|Berlin Friedrichstraße|Berlin Alexanderplatz,8010255,1,Berlin Ostbahnhof,Berlin,Berlin,10243,13.4346807,52.5104881,2024-06-26 01:58:00,2024-06-26 01:59:00,2024-06-26 01:58:00,2024-06-26 01:59:00,0,0
243,7144876971925539327-2406260045-3,8,Schönefeld(bei Berlin)|Berlin Ostkreuz,8010255,1,Berlin Ostbahnhof,Berlin,Berlin,10243,13.4346807,52.5104881,2024-06-26 01:02:00,2024-06-26 01:03:00,2024-06-26 01:04:00,2024-06-26 01:06:00,2,3
244,6055223673524961292-2406260116-3,,Schönefeld(bei Berlin)|Berlin Ostkreuz,8010255,1,Berlin Ostbahnhof,Berlin,Berlin,10243,13.4346807,52.5104881,2024-06-26 01:36:00,2024-06-26 01:37:00,,,0,0
245,-1430869917883125442-2406252318-22,7,Dessau Hbf|Roßlau(Elbe)|Jeber-Bergfrieden|Medewitz(Mark)|Wiesenburg(Mark)|Bad Belzig|Baitz|Brück(Mark)|Borkheide|Beelitz-Heilstätten|Seddin|Michendorf|Wilhelmshorst|Potsdam-Rehbrücke|Potsdam Medienstadt Babelsberg|Berlin-Wannsee|Berlin-Charlottenburg|Berlin Zoologischer Garten|Berlin Hbf|Berlin Friedrichstraße|Berlin Alexanderplatz,8010255,1,Berlin Ostbahnhof,Berlin,Berlin,10243,13.4346807,52.5104881,2024-06-26 01:08:00,2024-06-26 01:10:00,2024-06-26 01:18:00,2024-06-26 01:19:00,10,9
246,58133983524038883-2406252321-25,1,Magdeburg Hbf|Magdeburg-Neustadt|Magdeburg Herrenkrug|Biederitz|Gerwisch|Möser|Burg(Magdeburg)|Güsen(b Genthin)|Genthin|Wusterwitz|Kirchmöser|Brandenburg Hbf|Götz|Groß Kreutz|Werder(Havel)|Potsdam Park Sanssouci|Potsdam Charlottenhof|Potsdam Hbf|Berlin-Wannsee|Berlin-Charlottenburg|Berlin Zoologischer Garten|Berlin Hbf|Berlin Friedrichstraße|Berlin Alexanderplatz,8010255,1,Berlin Ostbahnhof,Berlin,Berlin,10243,13.4346807,52.5104881,2024-06-26 01:33:00,2024-06-26 01:34:00,2024-06-26 01:33:00,2024-06-26 01:34:00,0,0
247,3293441643585562151-2406260127-9,1,Berlin-Schöneberg|Berlin Julius-Leber-Brücke|Berlin Yorckstr.(S1)|Berlin Anhalter Bf|Berlin Potsdamer Platz (S)|Berlin Brandenburger Tor|Berlin Friedrichstraße (S)|Berlin Oranienburger Straße,8089024,4,Berlin-Nordbahnhof,Berlin,Berlin,10115,13.388464,52.532066,2024-06-26 01:44:00,2024-06-26 01:44:00,,,0,0
248,-8070014369172118657-2406260040-16,2,Blankenfelde (S)|Mahlow|Berlin-Lichtenrade|Berlin Schichauweg|Berlin Buckower Chaussee|Berlin-Marienfelde|Berlin Attilastr.|Berlin Priesterweg|Berlin Südkreuz (S)|Berlin Yorckstr.(S2)|Berlin Anhalter Bf|Berlin Potsdamer Platz (S)|Berlin Brandenburger Tor|Berlin Friedrichstraße (S)|Berlin Oranienburger Straße,8089024,4,Berlin-Nordbahnhof,Berlin,Berlin,10115,13.388464,52.532066,2024-06-26 01:21:00,2024-06-26 01:22:00,2024-06-26 01:22:00,2024-06-26 01:22:00,1,0
